     3.04           OBSERVATION DATA    M: Mixed            RINEX VERSION / TYPE
RTKCONV demo5 b34k                      20250523 014913 UTC PGM / RUN BY / DATE 
format: RINEX                                               COMMENT             
log: E:\Proj-ES\GNSS-SPP\RTKLIB-py\data\unisoc\20250521\¸ß¼ÜCOMMENT             
  2\rover.obs                                               COMMENT             
Geo++                                                       MARKER NAME         
                                                            MARKER NUMBER       
                                                            MARKER TYPE         
                                                            OBSERVER / AGENCY   
unknown             UNISOC              uis7865_6h10_go_a32bREC # / TYPE / VERS 
unknown             uis7865_6h10_go_a32b                    ANT # / TYPE        
 -2180416.0612  4378905.1164  4079175.3071                  APPROX POSITION XYZ 
        0.0000        0.0000        0.0000                  ANTENNA: DELTA H/E/N
G    4 C1C L1C D1C S1C                                      SYS / # / OBS TYPES 
E    4 C1C L1C D1C S1C                                      SYS / # / OBS TYPES 
J    4 C1C L1C D1C S1C                                      SYS / # / OBS TYPES 
C    4 C2I L2I D2I S2I                                      SYS / # / OBS TYPES 
  2025    05    21    04    34   42.9996147     GPS         TIME OF FIRST OBS   
  2025    05    21    04    55   54.0000261     GPS         TIME OF LAST OBS    
G L1C                                                       SYS / PHASE SHIFT   
E L1C  0.00000                                              SYS / PHASE SHIFT   
J L1C                                                       SYS / PHASE SHIFT   
C L2I                                                       SYS / PHASE SHIFT   
 24 R01  1 R02 -4 R03  5 R04  6 R05  1 R06 -4 R07  5 R08  6 GLONASS SLOT / FRQ #
    R09 -2 R10 -5 R11  0 R12 -1 R13 -2 R14 -7 R15  0 R16 -1 GLONASS SLOT / FRQ #
    R17  4 R18 -3 R19  3 R20  2 R21  4 R22 -3 R23  3 R24  2 GLONASS SLOT / FRQ #
 C1C    0.000 C1P    0.000 C2C    0.000 C2P    0.000        GLONASS COD/PHS/BIS 
                                                            END OF HEADER       
> 2025 05 21 04 34 42.9996147  0  5                     
C29  23441133.241   122063994.3511      -1777.335          30.000  
C38  36377176.005   189425501.1721        747.003          35.000  
G17  21843731.699   114789451.4551      -1908.759          39.000  
G22  23415920.695   123051356.2601      -3234.763          27.000  
J02  37330670.415   196173996.4641         64.504          31.000  
> 2025 05 21 04 34 43.9995498  0  8                     
C07  35666445.228   185724539.7111        -87.672          26.000  
C13  38076338.293   198273484.9831       1077.143          33.000  
C29  23440337.686   122059823.302       -1775.142          32.000  
C38  36375888.790   189418809.191         744.192          33.000  
C40  35941057.517   187154517.7411        -49.447          27.000  
G17  21842955.031   114785358.505       -1910.110          39.000  
G22  23415395.253   123048589.856       -3234.936          28.000  
J02  37329517.207   196167932.129          63.467          31.000  
> 2025 05 21 04 34 44.9994889  0 12                     
C07  35666525.741   185724927.297         -91.292          27.000  
C13  38076190.664   198272707.787        1076.192          31.000  
C19  22883641.547   119161125.8581       1646.108          36.000  
C24  25350082.366   132004531.0601       -279.495          25.000  
C29  23440736.578   122061897.746       -1776.424          31.000  
C38  36375798.721   189418363.611         744.387          33.000  
C40  35941122.741   187154869.605         -58.604          28.000  
G11  21845095.418   114796750.6521       1825.387          32.000  
G17  21843376.707   114787570.722       -1910.443          39.000  
G19  19980735.587   104999473.7331       -622.748          29.000  
G22  23416069.355   123052126.569       -3237.116          29.000  
J02  37329565.642   196168171.383          63.128          33.000  
> 2025 05 21 04 34 45.9994277  0 13                     
C07  35666519.913   185724850.893         -91.946          26.000  
C13  38075948.900   198271461.020        1077.423          28.000  
C19  22883294.556   119159317.160        1637.363          37.000  
C24  25350103.520   132004636.005        -275.031          24.000  
C26  25428338.259   132412029.2581      -2260.449          17.000  
C29  23441042.835   122063505.163       -1777.084          32.000  
C38  36375629.807   189417448.876         746.066          33.000  
C40  35941102.524   187154761.030         -65.353          28.000  
G11  21844716.049   114794750.444        1832.840          28.000  
G17  21843708.147   114789308.786       -1909.468          40.000  
G19  19980824.194   104999925.773        -624.150          28.000  
G22  23416653.519   123055192.185       -3235.108          28.000  
J02  37329522.341   196167937.497          66.133          32.000  
> 2025 05 21 04 34 46.9993667  0 14                     
C07  35666567.711   185725082.946         -91.654          26.000  
C08  37141917.148   193407709.0821        991.198          28.000  
C13  38075773.653   198270525.741        1078.574          30.000  
C19  22883003.889   119157821.463        1640.153          36.000  
C24  25350183.696   132005054.628        -276.462          23.000  
C26  25428797.672   132414432.3461      -2260.905          17.000  
C29  23441411.411   122065423.057       -1774.446          29.000  
C38  36375515.117   189416843.903         747.485          31.000  
C40  35941139.230   187154970.433         -64.294          29.000  
G11  21844394.803   114793057.514        1824.635          24.000  
G17  21844100.107   114791361.916       -1910.312          40.000  
G19  19980967.327   105000691.039        -619.365          30.000  
G22  23417299.703   123058570.362       -3234.848          28.000  
J02  37329537.461   196168014.804          66.154          28.000  
> 2025 05 21 04 34 47.9993056  0 14                     
C07  35666588.397   185725159.880         -92.057          27.000  
C08  37141722.283   193406705.460         989.154          28.000  
C13  38075564.098   198269433.981        1078.256          31.000  
C19  22882687.008   119156166.709        1639.580          38.000  
C24  25350236.159   132005317.252        -279.907          24.000  
C26  25429227.874   132416676.6301      -2260.634          17.000  
C29  23441754.673   122067182.166       -1777.367          29.000  
C38  36375374.515   189416082.043         745.740          33.000  
C40  35941148.223   187155017.080         -60.303          31.000  
G11  21844047.943   114791217.735        1826.620          25.000  
G17  21844462.556   114793256.668       -1910.512          40.000  
G19  19981082.447   105001293.476        -617.534          29.000  
G22  23417915.177   123061787.703       -3233.051          27.000  
J02  37329523.671   196167935.351          64.557          31.000  
> 2025 05 21 04 34 48.9992446  0 14                     
C07  35666632.054   185725392.408         -92.318          26.000  
C08  37141557.885   193405857.970         987.890          27.000  
C13  38075387.108   198268496.888        1078.115          32.000  
C19  22882403.891   119154668.704        1637.503          38.000  
C24  25350316.991   132005737.0091       -282.451          17.000  
C26  25429686.444   132419076.8171      -2260.851          17.000  
C29  23442123.306   122069101.606       -1780.588          31.000  
C38  36375258.083   189415475.787         746.527          34.000  
C40  35941191.281   187155216.416         -59.208          30.000  
G11  21843728.551   114789533.762        1824.953          22.000  
G17  21844854.272   114795308.575       -1912.417          40.000  
G19  19981226.835   105002051.780        -618.430          28.000  
G22  23418556.621   123065162.071       -3234.198          26.000  
J02  37329539.148   196168013.735          63.591          31.000  
> 2025 05 21 04 34 49.9991836  0 14                     
C07  35666677.567   185725626.260         -92.462          25.000  
C08  37141395.341   193405013.617         988.231          25.000  
C13  38075208.975   198267561.168        1080.194          31.000  
C19  22882119.932   119153175.157        1636.252          36.000  
C24  25350399.677   132006163.3801       -285.037          15.000  
C26  25430149.568   132421480.7521      -2260.079          16.000  
C29  23442494.992   122071023.435       -1780.546          31.000  
C38  36375144.105   189414872.481         745.164          32.000  
C40  35941228.999   187155418.289         -61.443          31.000  
G11  21843411.015   114787853.998        1823.651          24.000  
G17  21845246.944   114797365.312       -1913.803          40.000  
G19  19981372.477   105002815.093        -622.330          30.000  
G22  23419199.619   123068539.703       -3234.307          28.000  
J02  37329557.079   196168095.034          64.485          30.000  
> 2025 05 21 04 34 50.9991226  0 14                     
C07  35666728.007   185725859.435         -91.816          26.000  
C08  37141230.530   193404163.327         991.141          25.000  
C13  38075029.474   198266622.958        1081.465          27.000  
C19  22881834.005   119151682.085        1635.465          35.000  
C24  25350481.895   132006590.3941       -287.535          15.000  
C26  25430612.222   132423881.0401      -2231.162          16.000  
C29  23442863.512   122072947.454       -1782.011          30.000  
C38  36375028.760   189414268.777         746.967          30.000  
C40  35941270.445   187155621.966         -61.998          30.000  
G11  21843095.408   114786175.115        1822.260          21.000  
G17  21845639.147   114799422.148       -1913.536          40.000  
G19  19981517.952   105003580.824        -623.862          29.000  
G22  23419843.648   123071914.833       -3232.577          30.000  
J02  37329572.444   196168173.831          65.939          30.000  
> 2025 05 21 04 34 51.9990615  0 14                     
C07  35666748.280   185725935.934         -91.818          25.000  
C08  37141037.051   193403163.037         986.130          23.000  
C13  38074818.908   198265527.052        1081.280          26.000  
C19  22881517.911   119150031.490        1637.036          36.000  
C24  25350539.043   132006864.4171       -288.823          15.000  
C26  25431041.113   132426096.4621      -2230.754          15.000  
C29  23443203.064   122074714.160       -1780.881          30.000  
C38  36374882.049   189413505.252         750.816          26.000  
C40  35941278.427   187155667.252         -60.810          31.000  
G11  21842747.537   114784338.179        1822.546          21.000  
G17  21846002.384   114801320.428       -1914.165          40.000  
G19  19981636.557   105004188.194        -622.054          29.000  
G22  23420456.911   123075131.094       -3232.562          30.000  
J02  37329557.941   196168094.478          64.464          31.000  
> 2025 05 21 04 34 52.9990005  0 14                     
C07  35666795.554   185726170.342         -91.500          22.000  
C08  37140875.070   193402320.298         985.135          21.000  
C13  38074637.739   198264589.592        1074.719          23.000  
C19  22881230.017   119148538.056        1636.071          36.000  
C24  25350620.793   132007295.6381       -272.306          16.000  
C26  25431500.301   132428468.0831      -2230.190          15.000  
C29  23443575.313   122076635.683       -1779.795          30.000  
C38  36374769.534   189412896.435         753.579          23.000  
C40  35941318.505   187155870.869         -59.219          31.000  
G11  21842431.762   114782660.0991       1822.660          16.000  
G17  21846395.018   114803376.478       -1913.923          40.000  
G19  19981780.664   105004952.609        -620.208          28.000  
G22  23421100.472   123078508.941       -3234.620          31.000  
J02  37329574.336   196168174.236          64.611          32.000  
> 2025 05 21 04 34 53.9989395  0 14                     
C07  35666841.722   185726397.480         -85.894          20.000  
C08  37140714.681   193401478.2201        983.866          19.000  
C13  38074462.960   198263656.202        1082.279          21.000  
C19  22880944.314   119147044.523        1635.991          37.000  
C24  25350694.842   132007711.013        -280.938          26.000  
C29  23443948.255   122078556.604       -1778.259          28.000  
C38  36374653.214   189412284.799         754.073          20.000  
C40  35941361.076   187156071.308         -57.601          29.000  
E16  27458094.619   144293260.6361      -3113.747          10.000  
G11  21842114.281   114780981.265        1822.214          22.000  
G17  21846787.446   114805434.458       -1914.247          39.000  
G19  19981926.962   105005715.118        -620.530          28.000  
G22  23421743.827   123081884.517       -3232.226          32.000  
J02  37329592.024   196168252.767          65.057          31.000  
> 2025 05 21 04 34 54.9988785  0 14                     
C07  35666887.328   185726624.4471        -86.443          18.000  
C08  37140555.828   193400636.8691        983.641          17.000  
C13  38074288.219   198262716.3521       1082.018          19.000  
C19  22880660.149   119145551.403        1634.425          37.000  
C24  25350773.125   132008132.992        -278.039          26.000  
C29  23444320.335   122080479.016       -1783.730          26.000  
C38  36374540.530   189411673.546         753.778          21.000  
C40  35941402.185   187156271.476         -61.070          27.000  
E16  27458717.326   144296517.0731      -3114.310           7.000  
G11  21841798.637   114779302.873        1821.696          22.000  
G17  21847180.212   114807490.422       -1914.792          39.000  
G19  19982074.198   105006479.653        -623.474          27.000  
G22  23422386.319   123085258.827       -3232.080          33.000  
J02  37329608.250   196168330.517          66.371          32.000  
> 2025 05 21 04 34 55.9988174  0 14                     
C07  35666906.271   185726703.2971        -92.754          16.000  
C08  37140365.516   193399633.3831        989.727          16.000  
C13  38074079.020   198261621.0431       1081.981          19.000  
C19  22880344.224   119143903.470        1634.355          38.000  
C24  25350825.345   132008394.776        -276.637          24.000  
C29  23444661.855   122082247.893       -1784.119          28.000  
C38  36374399.084   189410906.840         752.583          21.000  
C40  35941409.136   187156318.920         -64.942          26.000  
E16  27459309.172   144299617.8731      -3114.300           9.000  
G11  21841451.234   114777468.070        1820.688          21.000  
G17  21847543.617   114809391.760       -1916.560          39.000  
G19  19982192.372   105007089.778        -625.812          26.000  
G22  23422999.751   123088475.148       -3229.635          33.000  
J02  37329593.017   196168250.255          66.758          31.000  
> 2025 05 21 04 34 56.9987564  0 15                     
C07  35666952.476   185726936.0081        -92.903          16.000  
C08  37140200.968   193398784.7721        989.683          15.000  
C13  38073897.983   198260679.667        1082.854          20.000  
C19  22880057.659   119142409.627        1634.751          38.000  
C20  23967693.005   124806066.4731      -1207.011          26.000  
C24  25350908.125   132008812.825        -276.098          22.000  
C29  23445030.937   122084173.198       -1785.813          28.000  
C38  36374282.802   189410294.845         753.604          21.000  
C40  35941453.543   187156522.735         -61.935          26.000  
E16  27459933.078   144302872.3331      -3114.843           8.000  
G11  21841133.492   114775790.271        1820.318          23.000  
G17  21847936.682   114811448.650       -1915.221          39.000  
G19  19982339.308   105007858.148        -627.397          25.000  
G22  23423642.543   123091844.056       -3226.119          32.000  
J02  37329608.344   196168324.175          69.388          30.000  
> 2025 05 21 04 34 57.9986954  0 15                     
C07  35666996.021   185727170.4321        -92.752          16.000  
C08  37140038.855   193397932.1351        995.160          15.000  
C13  38073716.383   198259739.3621       1083.188          16.000  
C19  22879775.030   119140917.802        1634.204          38.000  
C20  23967952.700   124807416.135       -1208.701          24.000  
C24  25350990.044   132009225.6961       -270.939          19.000  
C29  23445400.656   122086100.692       -1785.786          27.000  
C38  36374163.260   189409683.551         754.582          21.000  
C40  35941491.092   187156723.550         -59.699          25.000  
E16  27460557.321   144306130.0431      -3115.243           8.000  
G11  21840814.587   114774113.279        1821.608          22.000  
G17  21848329.185   114813506.464       -1916.017          39.000  
G19  19982487.780   105008628.154        -625.911          25.000  
G22  23424285.973   123095213.548       -3224.108          33.000  
J02  37329625.207   196168399.046          69.969          30.000  
> 2025 05 21 04 34 58.9986343  0 15                     
C07  35667013.315   185727245.9921        -92.775          15.000  
C08  37139847.494   193396922.4821        995.219          14.000  
C13  38073506.135   198258641.7491       1083.706          15.000  
C19  22879457.456   119139269.829        1633.209          38.000  
C20  23968184.046   124808610.511       -1210.990          23.000  
C24  25351043.313   132009481.923        -269.348          22.000  
C29  23445743.225   122088136.754       -1787.538          26.000  
C38  36374018.366   189408914.251         755.388          22.000  
C40  35941500.592   187156769.651         -61.630          25.000  
E16  27461149.017   144309229.1281      -3115.399           7.000  
G11  21840468.233   114772276.830        1823.232          21.000  
G17  21848692.140   114815407.047       -1916.560          39.000  
G19  19982605.205   105009236.709        -626.382          26.000  
G22  23424897.156   123098420.535       -3222.885          32.000  
J02  37329609.824   196168313.808          71.181          31.000  
> 2025 05 21 04 34 59.9985733  0 15                     
C07  35667061.694   185727749.3481        -92.567          15.000  
C08  37139684.219   193396071.9321        995.132          14.000  
C13  38073327.271   198257702.0111       1085.027          15.000  
C19  22879171.866   119137781.275        1632.982          38.000  
C20  23968446.777   124809967.081       -1214.003          22.000  
C24  25351124.969   132009892.842        -266.804          25.000  
C29  23446116.879   122090066.636       -1785.198          26.000  
C38  36373905.757   189408303.166         755.100          21.000  
C40  35941545.973   187156975.058         -61.150          27.000  
E16  27461772.698   144312490.1821      -3115.472           6.000  
G11  21840148.467   114770598.598        1824.755          24.000  
G17  21849085.880   114817470.050       -1917.681          39.000  
G19  19982752.816   105010010.037        -626.544          28.000  
G22  23425539.424   123101788.119       -3223.030          33.000  
J02  37329626.725   196168386.816          72.685          32.000  
> 2025 05 21 04 35 00.9985123  0 15                     
C07  35667109.043   185727983.3831        -92.621          15.000  
C08  37139520.814   193395218.9291        995.166          10.000  
C13  38073149.176   198256758.6901       1085.718          15.000  
C19  22878886.445   119136290.286        1632.731          37.000  
C20  23968707.878   124811322.481       -1216.676          22.000  
C24  25351208.292   132010301.576        -268.085          22.000  
C29  23446488.303   122091994.132       -1785.219          29.000  
C38  36373791.517   189407689.896         755.636          20.000  
C40  35941585.227   187157177.067         -61.811          25.000  
E16  27462393.849   144315747.3091      -3115.209           6.000  
G11  21839829.469   114768916.812        1826.094          22.000  
G17  21849479.189   114819527.505       -1916.455          39.000  
G19  19982901.194   105010778.776        -628.365          27.000  
G22  23426180.362   123105153.923       -3225.398          35.000  
J02  37329640.197   196168459.304          69.449          33.000  
> 2025 05 21 04 35 01.9984513  0 15                     
C07  35667154.743   185728216.7841        -92.346          15.000  
C08  37139357.858   193394365.3401        994.888          10.000  
C13  38072965.235   198255813.4841       1087.934          15.000  
C19  22878602.373   119134799.349        1631.952          37.000  
C20  23968968.229   124812672.447       -1210.594          22.000  
C24  25351287.869   132010712.328        -270.082          21.000  
C29  23446854.480   122093919.697       -1787.004          29.000  
C38  36373677.427   189407075.787         754.948          20.000  
C40  35941621.933   187157378.217         -59.978          26.000  
E16  27463014.850   144319003.7301      -3115.178           6.000  
G11  21839509.422   114767233.650        1826.024          24.000  
G17  21849872.048   114821851.996       -1917.458          40.000  
G19  19983046.425   105011549.245        -628.470          25.000  
G22  23426823.248   123108786.328       -3224.790          36.000  
J02  37329653.219   196168531.171          71.383          34.000  
> 2025 05 21 04 35 02.9983902  0 15                     
C07  35667174.210   185728296.5511        -92.289          14.000  
C08  37139164.772   193393359.6491        995.080          14.000  
C13  38072763.755   198254714.6021       1087.811          17.000  
C19  22878288.772   119133156.898        1632.174          37.000  
C20  23969200.549   124813873.608       -1209.555          28.000  
C24  25351344.211   132010968.659        -267.896          22.000  
C29  23447194.127   122095695.317       -1787.869          29.000  
C38  36373530.510   189406311.133         753.029          24.000  
C40  35941635.105   187157426.259         -60.355          26.000  
E16  27463608.721   144322106.3701      -3115.285           6.000  
G11  21839161.644   114765397.396        1823.926          24.000  
G17  21850235.378   114823758.367       -1917.096          41.000  
G19  19983165.124   105012165.314        -626.683          25.000  
G22  23427435.105   123111999.931       -3226.391          35.000  
J02  37329639.110   196168450.867          68.290          34.000  
> 2025 05 21 04 35 03.9983292  0 15                     
C07  35667221.671   185728529.7631        -93.055          15.000  
C08  37139003.878   193392505.1461        995.839          17.000  
C13  38072582.175   198253768.1921       1087.224          18.000  
C19  22878004.362   119131666.353        1630.423          37.000  
C20  23969464.760   124815225.583       -1213.713          29.000  
C24  25351425.848   132011377.663        -269.238          22.000  
C29  23447563.864   122097624.199       -1786.610          30.000  
C38  36373416.083   189405699.349         752.487          21.000  
C40  35941675.371   187157626.859         -61.860          25.000  
E16  27464230.884   144325364.4091      -3115.289           5.000  
G11  21838843.059   114763716.563        1823.207          22.000  
G17  21850628.500   114825817.693       -1918.573          40.000  
G19  19983312.416   105012932.312        -625.370          26.000  
G22  23428077.654   123115366.579       -3226.325          35.000  
J02  37329655.392   196168524.485          68.386          32.000  
> 2025 05 21 04 35 04.9992681  0 15                     
C07  35667259.764   185728701.1081        -93.099          15.000  
C08  37138833.015   193391588.5531        995.034          17.000  
C13  38072392.125   198252759.5041       1087.416          19.000  
C19  22877708.786   119130114.521        1630.324          37.000  
C20  23969719.003   124816521.927       -1216.440          27.000  
C24  25351496.018   132011727.437        -272.542          22.000  
C29  23447928.730   122099490.374       -1786.743          31.000  
C38  36373291.388   189405026.268         750.980          21.000  
C40  35941702.671   187157768.545         -63.417          24.000  
E16  27464841.879   144328561.4511      -3115.479           5.000  
G11  21838513.306   114761971.472        1824.661          22.000  
G17  21851010.454   114827816.745       -1918.365          40.000  
G19  19983447.941   105013638.537        -627.211          25.000  
G22  23428708.436   123118676.555       -3226.831          35.000  
J02  37329658.109   196168535.948          70.223          31.000  
> 2025 05 21 04 35 06.0002070  0 15                     
C07  35667293.228   185728876.5211        -93.728          15.000  
C08  37138661.721   193390674.9511        994.716          17.000  
C13  38072197.447   198251753.3501       1087.380          19.000  
C19  22877412.778   119128565.026        1629.646          37.000  
C20  23969966.519   124817819.187       -1216.621          26.000  
C24  25351568.156   132012082.640        -274.148          22.000  
C29  23448286.270   122101359.226       -1786.438          29.000  
C38  36373160.266   189404358.503         747.912          23.000  
C40  35941734.336   187157912.409         -62.573          25.000  
E16  27465453.643   144331760.9461      -3115.468           6.000  
G11  21838184.321   114760228.039        1823.775          22.000  
G17  21851393.776   114829819.786       -1919.512          41.000  
G19  19983583.934   105014349.592        -628.411          27.000  
G22  23429340.586   123121990.093       -3231.813          33.000  
J02  37329661.594   196168550.666          66.511          30.000  
> 2025 05 21 04 35 07.0001460  0 15                     
C07  35667337.710   185729112.2331        -94.355          15.000  
C08  37138497.547   193389821.8201        993.750          18.000  
C13  38072015.586   198250807.2061       1087.327          18.000  
C19  22877126.589   119127076.793        1629.752          37.000  
C20  23970230.748   124819174.736       -1212.128          27.000  
C24  25351649.512   132012497.293        -277.382          21.000  
C29  23448658.725   122103284.778       -1783.281          30.000  
C38  36373046.458   189403753.191         746.029          21.000  
C40  35941776.719   187158117.213         -63.533          26.000  
E16  27466069.529   144335017.5101      -3111.865          14.000  
G11  21837867.253   114758547.361        1822.367          22.000  
G17  21851786.317   114831878.751       -1917.793          40.000  
G19  19983729.146   105015120.277        -629.044          25.000  
G22  23429984.953   123125364.762       -3233.875          32.000  
J02  37329675.497   196168628.494          63.740          31.000  
> 2025 05 21 04 35 08.0000850  0 15                     
C07  35667389.199   185729346.0641        -94.820          15.000  
C08  37138336.184   193388970.2821        993.287          17.000  
C13  38071835.935   198249862.0401       1085.954          19.000  
C19  22876841.411   119125588.523        1629.998          38.000  
C20  23970494.191   124820525.218       -1207.226          23.000  
C24  25351732.779   132012919.206        -283.692          24.000  
C29  23449028.294   122105206.065       -1780.064          28.000  
C38  36372934.260   189403413.234         745.107          21.000  
C40  35941815.018   187158320.601         -62.411          24.000  
E16  27466694.522   144338271.7451      -3111.674          13.000  
G11  21837548.499   114756870.187        1818.868          23.000  
G17  21852180.169   114833939.361       -1916.922          39.000  
G19  19983878.068   105015892.758        -629.625          27.000  
G22  23430628.532   123128741.078       -3234.357          32.000  
J02  37329694.009   196168708.082          62.892          31.000  
> 2025 05 21 04 35 09.0000239  0 15                     
C07  35667405.463   185729428.0721        -94.572          15.000  
C08  37138145.291   193387965.6821        992.557          17.000  
C13  38071627.055   198248764.2551       1086.044          19.000  
C19  22876528.802   119123947.675        1629.516          38.000  
C20  23970726.305   124821719.139       -1206.499          21.000  
C24  25351792.813   132013192.689        -287.878          22.000  
C29  23449370.732   122106973.575       -1779.149          26.000  
C38  36372792.234   189402657.255         743.081          20.000  
C40  35941823.487   187158369.693         -62.270          26.000  
E16  27467287.586   144341370.8541      -3112.025          12.000  
G11  21837199.915   114755041.060        1815.753          22.000  
G17  21852544.792   114835841.529       -1917.353          40.000  
G19  19983999.259   105016508.907        -628.030          27.000  
G22  23431241.982   123131963.515       -3239.730          34.000  
J02  37329680.594   196168632.579          63.035          32.000  
> 2025 05 21 04 35 09.9999629  0 14                     
C07  35667447.303   185729665.2421        -94.581          15.000  
C08  37137981.473   193387116.8901        991.307          17.000  
C13  38071450.646   198247821.8001       1085.194          18.000  
C19  22876244.768   119122461.758        1628.260          38.000  
C20  23970984.895   124823067.374       -1205.351          23.000  
C24  25351876.324   132013625.713        -293.467          21.000  
C29  23449741.145   122108894.320       -1779.534          26.000  
C38  36372678.481   189402058.109         741.485          20.000  
C40  35941864.428   187158574.621         -61.927          27.000  
G11  21836884.102   114753371.195        1812.793          22.000  
G17  21852938.288   114837902.936       -1918.649          39.000  
G19  19984147.825   105017279.672        -628.699          26.000  
G22  23431886.705   123135347.712       -3241.727          34.000  
J02  37329697.850   196168715.469          60.216          33.000  
> 2025 05 21 04 35 10.9999019  0 14                     
C07  35667493.321   185729902.4961        -94.385          16.000  
C08  37137819.735   193386268.6511        990.499          18.000  
C13  38071272.719   198246879.5551       1085.331          18.000  
C19  22875961.314   119120976.640        1627.885          37.000  
C20  23971244.365   124824413.011       -1203.059          24.000  
C24  25351960.416   132014061.973        -297.315          21.000  
C29  23450110.639   122110815.988       -1780.626          26.000  
C38  36372566.808   189401460.4821        739.672          20.000  
C40  35941901.452   187158778.034         -61.750          27.000  
G11  21836567.072   114751703.686        1811.589          22.000  
G17  21853330.866   114839965.878       -1918.578          39.000  
G19  19984296.072   105018052.709        -631.350          26.000  
G22  23432532.608   123138731.476       -3240.335          35.000  
J02  37329716.288   196168799.932          59.157          32.000  
> 2025 05 21 04 35 11.9998409  0 14                     
C07  35667539.433   185730136.5861        -94.661          17.000  
C08  37137658.990   193385420.6941        989.037          18.000  
C13  38071096.984   198245937.3101       1083.132          18.000  
C19  22875676.455   119119491.012        1626.774          38.000  
C20  23971499.433   124825756.640       -1202.739          23.000  
C24  25352047.899   132014765.697        -300.266          21.000  
C29  23450486.222   122112739.088       -1781.377          26.000  
C38  36372453.131   189400863.1661        738.891          20.000  
C40  35941942.467   187158979.919         -60.376          26.000  
G11  21836250.435   114750036.216        1809.569          21.000  
G17  21853725.037   114842026.297       -1918.999          40.000  
G19  19984446.512   105018827.040        -630.965          26.000  
G22  23433177.105   123142114.714       -3241.013          35.000  
J02  37329732.420   196168883.008          60.190          31.000  
> 2025 05 21 04 35 12.9997798  0 14                     
C07  35667557.963   185730214.9761        -94.498          16.000  
C08  37137466.467   193384417.0131        986.981          18.000  
C13  38070886.774   198244839.593        1080.381          21.000  
C19  22875361.017   119117848.666        1626.795          38.000  
C20  23971732.615   124826943.774       -1205.142          24.000  
C24  25352105.103   132015051.3841       -302.835          14.000  
C29  23450826.431   122114504.074       -1783.467          27.000  
C38  36372310.074   189400108.8981        738.051          20.000  
C40  35941954.703   187159024.183         -62.899          26.000  
G11  21835902.919   114748212.360        1807.214          21.000  
G17  21854088.629   114843928.031       -1920.493          40.000  
G19  19984567.872   105019441.424        -634.042          26.000  
G22  23433792.223   123145339.389       -3238.580          34.000  
J02  37329719.173   196168806.700          61.514          31.000  
> 2025 05 21 04 35 13.9997188  0 14                     
C07  35667605.087   185730453.2551        -94.559          16.000  
C08  37137303.436   193383574.7781        986.137          18.000  
C13  38070712.051   198244187.2021       1078.841          18.000  
C19  22875078.369   119116366.639        1625.271          38.000  
C20  23971987.495   124828294.117       -1208.391          25.000  
C24  25352192.399   132015497.9641       -305.749          15.000  
C29  23451197.930   122116430.808       -1785.480          25.000  
C38  36372199.506   189399514.9401        738.218          20.000  
C40  35941996.430   187159229.884         -63.573          24.000  
G11  21835589.092   114746551.4821       1805.718          17.000  
G17  21854482.013   114845993.366       -1921.492          40.000  
G19  19984718.723   105020221.107        -634.629          24.000  
G22  23434436.833   123148718.962       -3234.225          36.000  
J02  37329736.617   196168889.292          63.153          31.000  
> 2025 05 21 04 35 14.9996578  0 14                     
C07  35667654.028   185730688.1291        -94.618          16.000  
C08  37137147.319   193382729.7521        986.617          18.000  
C13  38070536.747   198243249.0121       1080.318          19.000  
C19  22874793.641   119114883.444        1623.971          38.000  
C20  23972241.794   124829643.501       -1220.855          24.000  
C24  25352281.512   132015944.2961       -308.865          15.000  
C29  23451572.445   122118358.570       -1789.182          28.000  
C38  36372082.063   189398917.9061        738.577          20.000  
C40  35942038.476   187159433.307         -64.648          25.000  
G11  21835275.884   114744888.2571       1830.506          17.000  
G17  21854875.116   114848058.108       -1923.556          40.000  
G19  19984863.898   105020997.090        -635.035          25.000  
G22  23435080.263   123152092.624       -3229.328          35.000  
J02  37329751.982   196168967.312          65.866          31.000  
> 2025 05 21 04 35 15.9995967  0 15                     
C07  35667666.751   185730767.2231        -94.379          16.000  
C08  37136952.885   193381729.0591        988.029          13.000  
C13  38070324.625   198242153.7701       1083.184          19.000  
C19  22874478.091   119113246.352        1623.857          37.000  
C20  23972478.761   124830852.212       -1224.529          24.000  
C24  25352339.203   132016241.7631       -311.113          14.000  
C29  23451914.040   122120136.090       -1794.293          28.000  
C38  36371939.193   189398166.1731        738.838          20.000  
C40  35942047.601   187159484.592         -63.682          24.000  
E16  27471558.598   144364014.3641      -3110.574           8.000  
G11  21834927.956   114743320.4961       1829.006          17.000  
G17  21855239.495   114849966.271       -1923.419          39.000  
G19  19984982.147   105021617.864        -638.926          25.000  
G22  23435693.470   123155305.292       -3224.834          35.000  
J02  37329736.524   196168885.426          71.181          31.000  
> 2025 05 21 04 35 16.9995357  0 15                     
C07  35667712.862   185731003.6391        -93.415          16.000  
C08  37136794.838   193380882.7971        988.780          12.000  
C13  38070141.096   198241207.0451       1090.273          18.000  
C19  22874194.431   119111764.991        1622.757          37.000  
C20  23972743.122   124832220.362       -1229.434          24.000  
C24  25352430.284   132016692.6731       -311.896          14.000  
C29  23452285.427   122122072.333       -1798.171          28.000  
C38  36371825.515   189397568.8361        740.263          20.000  
C40  35942088.616   187159689.164         -65.123          24.000  
E16  27472177.913   144367267.5141      -3103.236           7.000  
G11  21834609.820   114741636.166        1826.392          22.000  
G17  21855633.366   114852033.880       -1924.785          40.000  
G19  19985131.088   105022401.358        -641.445          24.000  
G22  23436334.669   123158669.169       -3220.394          35.000  
J02  37329749.059   196168955.417          72.925          31.000  
> 2025 05 21 04 35 17.9994747  0 15                     
C07  35667757.082   185731234.9931        -92.182          16.000  
C08  37136634.000   193380034.7161        990.084          12.000  
C13  38069955.674   198240256.5101       1093.501          18.000  
C19  22873912.176   119110283.937        1622.694          37.000  
C20  23973010.087   124833592.737       -1234.980          25.000  
C24  25352516.175   132017146.1981       -313.316          14.000  
C29  23452657.619   122124012.391       -1798.415          29.000  
C38  36371707.847   189396968.4771        743.354          20.000  
C40  35942133.135   187159896.602         -67.956          25.000  
E16  27472798.334   144370529.9211      -3103.185           5.000  
G11  21834290.092   114739953.422        1825.025          24.000  
G17  21856028.343   114854100.388       -1926.397          39.000  
G19  19985281.434   105023183.522        -641.175          23.000  
G22  23436975.776   123162028.040       -3216.471          37.000  
J02  37329764.798   196169024.665          74.272          32.000  
> 2025 05 21 04 35 19.0004136  0 14                     
C07  35667796.336   185731408.9851        -91.298          16.000  
C08  37136458.602   193379114.3091       1003.116          11.000  
C13  38069760.791   198239239.3801       1099.856          18.000  
C19  22873618.661   119108743.202        1621.267          37.000  
C20  23973265.791   124834913.544       -1240.542          24.000  
C24  25352589.005   132017542.3261       -282.977          13.000  
C29  23453021.549   122125894.153       -1800.991          27.000  
C38  36371579.817   189396305.5581        746.597          20.000  
C40  35942159.498   187160047.442         -69.144          25.000  
G11  21833962.999   114738212.073        1821.843          23.000  
G17  21856412.358   114856111.748       -1927.597          40.000  
G19  19985421.718   105023909.414        -641.312          26.000  
G22  23437604.721   123165330.297       -3214.937          37.000  
J02  37329766.278   196169033.258          74.274          32.000  
> 2025 05 21 04 35 20.0003526  0 14                     
C07  35667845.952   185731641.9061        -90.566          16.000  
C08  37136295.965   193378253.4941       1004.294          11.000  
C13  38069581.665   198238281.4351       1102.051          14.000  
C19  22873335.807   119107265.695        1620.247          38.000  
C20  23973534.255   124836296.746       -1244.367          25.000  
C24  25352672.797   132017966.5861       -284.179          14.000  
C29  23453394.640   122127838.459       -1802.964          29.000  
C38  36371462.148   189395700.6641        749.421          20.000  
C40  35942204.317   187160256.676         -66.104          25.000  
G11  21833645.070   114736534.5361       1822.477          18.000  
G17  21856809.433   114858181.057       -1927.363          41.000  
G19  19985570.565   105024694.707        -643.126          26.000  
G22  23438245.228   123168687.063       -3213.805          36.000  
J02  37329780.818   196169102.566          75.818          30.000  
> 2025 05 21 04 35 21.0002915  0 13                     
C07  35667858.749   185731716.0621        -89.507          16.000  
C13  38069368.718   198237163.9701       1103.534          18.000  
C19  22873023.329   119105631.469        1619.706          38.000  
C20  23973771.297   124837521.190       -1243.584          25.000  
C24  25352725.167   132018237.7451       -285.845          14.000  
C29  23453738.109   122129626.564       -1805.306          28.000  
C38  36371316.355   189394935.1781        752.560          20.000  
C40  35942215.016   187160306.619         -62.651          23.000  
G11  21833297.816   114734697.738        1822.281          23.000  
G17  21857174.787   114860095.032       -1929.520          39.000  
G19  19985690.988   105025323.622        -642.379          26.000  
G22  23438854.013   123171883.217       -3210.399          36.000  
J02  37329765.435   196169011.433          78.503          31.000  
> 2025 05 21 04 35 22.0002305  0 14                     
C07  35667910.969   185731948.1111        -89.076          16.000  
C13  38069194.595   198236203.6551       1103.776          16.000  
C19  22872741.580   119104154.616        1619.106          38.000  
C20  23974037.569   124838907.253       -1248.233          24.000  
C24  25352798.073   132018664.715        -286.615          21.000  
C29  23454113.805   122131573.960       -1806.702          27.000  
C38  36371197.694   189394323.6691        755.805          19.000  
C40  35942256.144   187160510.380         -64.669          20.000  
E16  27475894.984   144386803.0811      -3056.514          29.000  
G11  21832978.593   114733019.244        1822.466          21.000  
G17  21857569.370   114862167.998       -1929.877          39.000  
G19  19985842.139   105026106.848        -641.215          24.000  
G22  23439494.126   123175234.745       -3206.640          36.000  
J02  37329777.483   196169074.878          81.024          31.000  
> 2025 05 21 04 35 23.0001695  0 13                     
C07  35667958.430   185732177.0501        -88.201          16.000  
C13  38069014.214   198235236.3751       1111.291          16.000  
C19  22872459.869   119102678.027        1618.519          38.000  
C20  23974305.677   124840301.682       -1254.571          22.000  
C24  25352878.211   132019093.126        -287.221          21.000  
C29  23454489.539   122133523.422       -1809.574          28.000  
C38  36371083.267   189393708.6141        759.687          19.000  
C40  35942297.609   187160718.356         -66.020          20.000  
G11  21832661.207   114731340.027        1823.809          21.000  
G17  21857965.789   114864240.748       -1931.557          40.000  
G19  19985991.830   105026893.165        -644.647          25.000  
G22  23440132.478   123178582.254       -3200.993          35.000  
J02  37329789.568   196169136.204          83.581          29.000  
> 2025 05 21 04 35 24.0001084  0 14                     
C07  35667979.996   185732531.4611        -86.580          11.000  
C13  38068800.743   198234105.9301       1117.807          16.000  
C19  22872144.469   119101045.530        1617.926          36.000  
C20  23974545.193   124841543.065       -1260.627          21.000  
C24  25352925.260   132019365.112        -285.832          23.000  
C29  23454838.778   122135319.576       -1810.988          30.000  
C38  36370937.549   189392933.3011        763.367          19.000  
C40  35942308.682   187161032.503         -67.276          22.000  
E16  27477072.643   144392991.5261      -3061.393          34.000  
G11  21832311.630   114729501.306        1826.153          21.000  
G17  21858331.217   114866156.387       -1930.679          40.000  
G19  19986112.028   105027523.831        -646.438          25.000  
G22  23440740.138   123181766.137       -3201.222          35.000  
J02  37329771.562   196169037.853          84.770          29.000  
> 2025 05 21 04 35 25.0000474  0 13                     
C07  35668019.738   185732754.2601        -80.903          11.000  
C08  37135372.211   193373627.5831       1012.846           4.000  
C19  22871864.332   119099571.267        1616.650          37.000  
C20  23974817.873   124842947.811       -1265.540          24.000  
C24  25353004.274   132019791.840        -283.764          22.000  
C29  23455216.985   122137272.122       -1812.528          30.000  
C38  36370818.700   189392311.4641        766.351          19.000  
C40  35942352.321   187161240.907         -68.021          23.000  
G11  21831996.117   114727818.509        1828.524          22.000  
G17  21858727.711   114868231.533       -1933.118          40.000  
G19  19986264.491   105028313.371        -648.923          23.000  
G22  23441378.565   123185111.895       -3199.823          36.000  
J02  37329785.221   196169097.373          84.762          31.000  
> 2025 05 21 04 35 25.9999864  0 13                     
C07  35668067.386   185732986.2041        -92.965          10.000  
C08  37135208.505   193372753.8641       1013.595          11.000  
C19  22871581.609   119098095.474        1616.200          37.000  
C20  23975092.164   124844356.863       -1270.769          22.000  
C24  25353089.396   132020214.833        -281.003          22.000  
C29  23455599.202   122139225.471       -1815.159          27.000  
C38  36370693.668   189391683.786         770.030          22.000  
C40  35942391.875   187161449.800         -68.825          21.000  
G11  21831674.122   114726130.624        1830.773          23.000  
G17  21859122.819   114870305.414       -1933.137          39.000  
G19  19986419.165   105029103.154        -648.725          24.000  
G22  23442015.905   123188450.503       -3196.912          36.000  
J02  37329797.794   196169153.923          86.075          33.000  
> 2025 05 21 04 35 26.9999253  0 14                     
C07  35668084.099   185733065.9001        -91.527           9.000  
C08  37135016.863   193371726.4151       1014.184          14.000  
C19  22871269.749   119096466.743        1615.455          36.000  
C20  23975334.022   124845606.189       -1266.904          22.000  
C24  25353138.787   132020480.400        -279.655          21.000  
C29  23455944.787   122141028.155       -1816.895          25.000  
C38  36370541.298   189390899.805         772.612          22.000  
C40  35942404.991   187161504.675         -69.513          22.000  
E16  27478876.869   144402472.6061      -3066.414          26.000  
G11  21831325.388   114724285.598        1833.675          22.000  
G17  21859489.690   114872223.851       -1933.850          39.000  
G19  19986542.305   105029739.773        -649.302          25.000  
G22  23442622.010   123191632.309       -3194.814          37.000  
J02  37329780.930   196169322.320          87.640          33.000  
> 2025 05 21 04 35 27.9998643  0 13                     
C08  37134851.827   193370854.1861       1014.481          12.000  
C13  38067978.337   198229952.2141       1122.134          17.000  
C19  22870989.294   119094994.727        1614.988          36.000  
C20  23975608.781   124847286.381       -1272.156          23.000  
C24  25353222.879   132020901.701        -277.567          21.000  
C29  23456323.875   122142987.337       -1817.555          27.000  
C38  36370422.730   189390268.810         775.109          22.000  
C40  35942448.311   187161716.808         -69.772          22.000  
G11  21831005.959   114722595.8821       1835.035          16.000  
G17  21859886.765   114874300.779       -1934.644          40.000  
G19  19986694.749   105030532.363        -651.585          25.000  
G22  23443258.320   123194968.588       -3190.705          37.000  
J02  37329793.372   196169376.810          92.309          34.000  
> 2025 05 21 04 35 28.9998033  0 13                     
C08  37134688.965   193369980.3901       1014.834          11.000  
C13  38067788.194   198228970.8771       1122.129          14.000  
C19  22870710.112   119093789.104        1613.709          37.000  
C20  23975885.415   124848700.816       -1276.423          22.000  
C24  25353306.146   132021320.373        -279.438          22.000  
C29  23456705.436   122145219.688       -1817.014          25.000  
C38  36370299.740   189389634.7931        776.572          20.000  
C40  35942489.907   187161926.904         -70.857          21.000  
G11  21830686.305   114720903.2701       1836.737          16.000  
G17  21860284.215   114876379.346       -1936.037          40.000  
G19  19986845.770   105031325.284        -649.897          25.000  
G22  23443894.405   123198302.094       -3191.528          37.000  
J02  37329806.488   196169428.424          89.927          33.000  
> 2025 05 21 04 35 29.9997423  0 14                     
C08  37134525.803   193369106.3401       1014.828          11.000  
C13  38067613.340   198227989.0631       1122.479          14.000  
C19  22870426.733   119092317.419        1613.654          37.000  
C20  23976162.948   124850119.7351      -1271.211          20.000  
C24  25353387.315   132021740.739        -282.203          22.000  
C29  23457080.101   122147178.414       -1818.923          26.000  
C38  36370180.948   189388999.4241        777.840          20.000  
C40  35942531.203   187162138.392         -71.169          21.000  
E16  27480728.388   144412201.9901      -3071.512          23.000  
G11  21830367.851   114719209.5551       1837.385          17.000  
G17  21860681.365   114878457.296       -1935.439          39.000  
G19  19986997.090   105032118.426        -650.396          24.000  
G22  23444529.890   123201636.448       -3195.528          37.000  
J02  37329816.306   196169482.087          88.877          33.000  
> 2025 05 21 04 35 30.9996812  0 13                     
C08  37134331.144   193368083.6661       1008.926          11.000  
C13  38067406.089   198226852.9731       1122.256          14.000  
C19  22870115.755   119090691.267        1612.758          37.000  
C20  23976405.086   124851378.8931      -1274.795          19.000  
C24  25353434.889   132022011.182        -284.406          24.000  
C29  23457421.471   122148983.724       -1818.269          28.000  
C38  36370033.056   189388208.0801        778.459          19.000  
C40  35942544.600   187162197.057         -71.516          21.000  
G11  21830017.000   114717359.0881       1837.869          17.000  
G17  21861047.318   114880377.755       -1935.290          38.000  
G19  19987121.110   105033029.924        -651.246          23.000  
G22  23445136.876   123204819.836       -3197.289          36.000  
J02  37329796.126   196169381.043          86.992          31.000  
> 2025 05 21 04 35 31.9996202  0 13                     
C08  37134167.776   193367217.3461       1009.384          10.000  
C13  38067225.033   198225873.4951       1122.643          14.000  
C19  22869834.268   119089222.654        1612.244          35.000  
C20  23976679.715   124852798.9381      -1278.765          19.000  
C24  25353517.050   132022438.374        -286.274          26.000  
C29  23457801.327   122150943.020       -1816.147          26.000  
C38  36369914.657   189387574.3681        777.018          19.000  
C40  35942590.787   187162410.082         -71.790          21.000  
G11  21829695.341   114715666.6711       1837.393          18.000  
G17  21861443.662   114882458.251       -1935.475          36.000  
G19  19987278.220   105033825.635        -653.314          21.000  
G22  23445774.553   123208162.673       -3202.110          36.000  
J02  37329810.535   196169439.918          84.225          31.000  
> 2025 05 21 04 35 32.9995592  0 13                     
C08  37134007.255   193366347.9131       1010.338          14.000  
C13  38067040.530   198224891.0231       1123.253          12.000  
C19  22869552.032   119087752.049        1612.040          36.000  
C20  23976950.896   124854219.2171      -1280.264          20.000  
C24  25353594.865   132022866.684        -289.795          26.000  
C29  23458175.037   122152900.798       -1817.875          28.000  
C38  36369796.408   189386939.1511        776.380          19.000  
C40  35942635.625   187162622.813         -71.405          22.000  
G11  21829372.034   114713973.0541       1835.937          19.000  
G17  21861840.157   114884534.441       -1935.609          39.000  
G19  19987431.883   105034619.880        -653.939          21.000  
G22  23446412.980   123211507.815       -3207.402          35.000  
J02  37329825.393   196169501.132          80.869          31.000  
> 2025 05 21 04 35 33.9994981  0 13                     
C08  37133815.407   193365321.3151       1010.033          16.000  
C13  38066827.096   198223751.4861       1122.586          13.000  
C19  22869240.267   119086124.724        1612.530          38.000  
C20  23977193.147   124855481.860       -1278.025          22.000  
C24  25353648.547   132023140.968        -291.245          26.000  
C29  23458525.213   122154705.128       -1822.284          27.000  
C38  36369643.232   189386148.5361        750.790          19.000  
C40  35942643.738   187162676.981         -71.051          22.000  
G11  21829017.698   114712122.482        1834.275          22.000  
G17  21862206.222   114886452.610       -1934.524          38.000  
G19  19987553.617   105035259.025        -653.624          24.000  
G22  23447021.877   123214701.252       -3212.021          35.000  
J02  37329807.425   196169406.003          77.887          28.000  
> 2025 05 21 04 35 35.0004370  0 13                     
C08  37133638.005   193364392.6721       1009.959          16.000  
C13  38066629.908   198222710.9061       1120.966          15.000  
C19  22868947.145   119084593.915        1612.530          38.000  
C20  23977456.440   124856843.002       -1276.792          21.000  
C24  25353722.671   132023516.285        -294.407          24.000  
C29  23458886.838   122156606.542       -1804.614          29.000  
C38  36369515.896   189385480.2821        751.155          19.000  
C40  35942674.092   187162831.977         -70.641          22.000  
G11  21828688.001   114710371.345        1832.768          21.000  
G17  21862591.830   114888472.792       -1933.941          37.000  
G19  19987694.594   105035995.121        -655.067          24.000  
G22  23447650.617   123218001.780       -3214.859          34.000  
J02  37329808.998   196169413.600          74.829          29.000  
> 2025 05 21 04 35 36.0003760  0 13                     
C08  37133476.548   193363524.0691       1007.933          16.000  
C13  38066444.168   198221732.1401       1094.570          16.000  
C19  22868666.970   119083122.957        1612.549          38.000  
C20  23977732.080   124858258.920       -1251.219          21.000  
C24  25353812.739   132023950.047        -280.096          24.000  
C29  23459256.314   122158550.177       -1800.932          29.000  
C38  36369403.904   189384870.6351        751.253          19.000  
C40  35942715.595   187163041.474         -70.638          21.000  
G11  21828368.853   114708682.0861       1830.168          20.000  
G17  21862987.388   114890548.912       -1932.217          37.000  
G19  19987849.419   105036791.971        -654.383          22.000  
G22  23448291.105   123221359.662       -3219.844          33.000  
J02  37329823.819   196169482.750          73.226          29.000  
> 2025 05 21 04 35 37.0003150  0 14                     
C08  37133314.173   193362657.0041       1006.466          15.000  
C13  38066268.002   198221045.8161       1092.828          17.000  
C19  22868386.477   119081651.718        1612.688          38.000  
C20  23977997.809   124859649.996       -1250.968          20.000  
C24  25353895.894   132024372.590        -292.568          21.000  
C29  23459629.068   122160489.593       -1800.366          26.000  
C38  36369288.896   189384260.6581        751.556          19.000  
C40  35942755.579   187163253.079         -70.205          23.000  
G04  23490643.197   123444162.4401        581.406          30.000  
G11  21828050.286   114706995.6321       1828.118          19.000  
G17  21863384.425   114892621.442       -1933.238          38.000  
G19  19988001.826   105037587.413        -653.535          23.000  
G22  23448933.972   123224723.522       -3222.313          32.000  
J02  37329836.523   196169553.469          70.646          31.000  
> 2025 05 21 04 35 38.0002540  0 14                     
C08  37133149.812   193362054.8251       1004.688          15.000  
C13  38066085.354   198220096.6371       1090.328          18.000  
C19  22868106.396   119080182.989        1612.617          38.000  
C20  23978266.947   124861043.377       -1250.672          20.000  
C24  25353979.462   132024810.887        -298.260          22.000  
C29  23460000.436   122162432.254       -1798.274          25.000  
C38  36369172.502   189383652.4551        751.681          19.000  
C40  35942793.878   187163465.133         -69.982          23.000  
G04  23490561.279   123443725.467         582.087          31.000  
G11  21827732.132   114705313.1661       1826.308          19.000  
G17  21863780.376   114894698.216       -1932.308          38.000  
G19  19988153.146   105038383.638        -651.968          25.000  
G22  23449575.453   123228091.279       -3224.861          32.000  
J02  37329851.438   196169629.053          68.778          31.000  
> 2025 05 21 04 35 39.0001930  0 15                     
C07  35668586.458   185735689.0691        -95.142          15.000  
C08  37132984.776   193361190.9551       1003.785          15.000  
C13  38065903.530   198219147.1691       1089.884          17.000  
C19  22867825.340   119078712.346        1611.562          38.000  
C20  23978530.315   124862431.948       -1248.035          20.000  
C24  25354067.151   132025252.703        -302.786          21.000  
C29  23460375.626   122164368.800       -1794.996          27.000  
C38  36369060.530   189383042.6511        751.022          19.000  
C40  35942834.799   187163675.576         -69.205          25.000  
G04  23490480.185   123443284.648         585.406          30.000  
G11  21827414.801   114703630.2391       1825.155          19.000  
G17  21864176.852   114896772.090       -1931.348          39.000  
G19  19988303.192   105039175.866        -648.481          28.000  
G22  23450218.358   123231728.361       -3228.922          33.000  
J02  37329865.978   196169703.991          68.075          31.000  
> 2025 05 21 04 35 40.0001319  0 15                     
C07  35668600.492   185735771.1471        -95.060          15.000  
C08  37132791.353   193360174.3411       1002.640          15.000  
C13  38065698.415   198218044.0511       1089.125          18.000  
C19  22867514.699   119077089.437        1608.334          34.000  
C20  23978760.500   124863665.820       -1244.971          22.000  
C24  25354127.353   132025541.675        -274.244          24.000  
C29  23460721.830   122166149.440       -1797.092          27.000  
C38  36368912.975   189382278.4171        751.598          18.000  
C40  35942847.634   187163730.665         -68.682          22.000  
G04  23490366.807   123442686.818         584.812          31.000  
G11  21827067.885   114701793.4161       1823.200          19.000  
G17  21864543.442   114898691.817       -1937.171          39.000  
G19  19988423.952   105039808.564        -646.629          25.000  
G22  23450831.077   123234945.085       -3233.686          33.000  
J02  37329853.031   196169624.506          64.778          31.000  
> 2025 05 21 04 35 41.0000709  0 17                     
C07  35668643.812   185736010.4181        -95.557          15.000  
C08  37132629.915   193359314.3511       1001.588          15.000  
C13  38065520.489   198217097.5501       1087.833          17.000  
C19  22867236.941   119075624.714        1606.986          31.000  
C20  23979025.666   124865050.201       -1241.779          23.000  
C24  25354207.547   132025962.605        -284.366          25.000  
C26  25453199.916   132541491.0551      -2181.957           5.000  
C29  23461097.620   122168090.598       -1799.350          30.000  
C38  36368798.904   189381669.6281        751.388          18.000  
C40  35942894.852   187163940.181         -67.278          22.000  
E16  27486800.984   144444113.8831      -3114.460          14.000  
G04  23490283.915   123442245.873         586.711          32.000  
G11  21826750.855   114700114.378        1823.453          22.000  
G17  21864940.217   114901035.449       -1935.370          39.000  
G19  19988578.495   105040598.946        -647.824          25.000  
G22  23451475.481   123238323.458       -3235.582          31.000  
J02  37329870.868   196169706.502          60.030          32.000  
> 2025 05 21 04 35 42.0000099  0 17                     
C07  35668690.935   185736247.4671        -95.614          15.000  
C08  37132469.582   193358453.3011       1000.618          14.000  
C13  38065345.766   198216150.2601       1086.976          17.000  
C19  22866951.895   119074157.913        1608.736          32.000  
C20  23979289.240   124866429.935       -1238.189          25.000  
C24  25354293.944   132026391.026        -293.862          22.000  
C29  23461474.216   122170027.835       -1799.352          28.000  
C38  36368686.538   189381059.5181        750.426          18.000  
C40  35942938.977   187164148.525         -66.952          25.000  
E16  27487422.510   144447369.0441      -3113.601          14.000  
G04  23490199.729   123441799.966         588.979          31.000  
G06  20660943.483   108573990.3631         23.398          15.000  
G11  21826434.630   114698435.117        1819.202          25.000  
G17  21865336.898   114903108.888       -1932.562          37.000  
G19  19988732.645   105041387.315        -650.085          25.000  
G22  23452120.091   123241703.098       -3239.208          34.000  
J02  37329889.212   196169788.561          61.162          32.000  
> 2025 05 21 04 35 42.9999489  0 17                     
C07  35668736.785   185736485.3701        -95.332          14.000  
C08  37132309.475   193357596.2481        998.897          15.000  
C13  38065168.869   198215206.5151       1085.827          17.000  
C19  22866673.969   119072692.337        1610.226          35.000  
C20  23979553.038   124867809.943       -1233.855          26.000  
C24  25354381.764   132026833.066        -302.793          22.000  
C29  23461849.837   122171969.552       -1798.636          25.000  
C38  36368571.100   189380453.4611        749.126          18.000  
C40  35942986.626   187164357.731         -66.800          23.000  
E16  27488040.363   144450625.7031      -3112.434          16.000  
G04  23490116.968   123441355.916         588.991          30.000  
G06  20660969.846   108574111.7121         23.577          17.000  
G11  21826116.531   114696762.810        1814.922          29.000  
G17  21865734.105   114905187.132       -1933.876          39.000  
G19  19988890.017   105042184.246        -655.215          22.000  
G22  23452764.327   123245082.360       -3233.680          35.000  
J02  37329906.881   196169870.176          64.950          30.000  
> 2025 05 21 04 35 43.9998878  0 15                     
C08  37132116.745   193356583.3681        997.702          15.000  
C13  38064962.050   198214106.4361       1085.053          17.000  
C19  22866363.121   119071069.374        1608.882          37.000  
C20  23979787.514   124869030.841       -1248.315          24.000  
C24  25354443.859   132027124.6981       -311.477          13.000  
C29  23462195.235   122173753.377       -1799.781          27.000  
C38  36368426.337   189379690.9941        748.011          18.000  
C40  35942992.059   187164410.106         -67.070          22.000  
E16  27488622.897   144453721.6711      -3108.174          16.000  
G04  23490004.883   123440755.905         582.809          29.000  
G11  21825770.309   114695196.484        1828.934          25.000  
G17  21866101.088   114907104.696       -1932.983          39.000  
G19  19989011.470   105042829.002        -660.669          23.000  
G22  23453378.039   123248299.814       -3233.558          36.000  
J02  37329893.727   196169790.023          66.976          31.000  
> 2025 05 21 04 35 44.9998268  0 14                     
C08  37131954.783   193355725.8581        995.991          15.000  
C13  38064780.901   198213160.5291       1085.331          17.000  
C19  22866082.441   119069600.962        1608.918          38.000  
C20  23980059.950   124870417.571       -1248.157          23.000  
C29  23462567.802   122175693.799       -1802.403          26.000  
C38  36368310.243   189379083.2761        747.697          18.000  
C40  35943033.056   187164615.495         -67.878          26.000  
E16  27489241.294   144456970.5191      -3106.944          15.000  
G04  23489922.365   123440316.081         581.124          28.000  
G11  21825450.955   114693505.877        1844.329          26.000  
G17  21866497.039   114909180.802       -1935.052          39.000  
G19  19989166.088   105043629.188        -647.778          25.000  
G22  23454021.918   123251673.542       -3230.345          36.000  
J02  37329908.642   196169863.971          67.271          31.000  
> 2025 05 21 04 35 45.9997658  0 13                     
C08  37131802.975   193354877.3241        990.718          15.000  
C13  38064607.508   198212217.4491       1085.198          11.000  
C19  22865801.722   119068136.044        1607.872          39.000  
C20  23980320.957   124871807.621       -1247.545          23.000  
C29  23462946.028   122177641.000       -1808.179          25.000  
C38  36368198.008   189378749.9421        747.388          18.000  
C40  35943075.214   187164825.677         -67.972          29.000  
E16  27489860.853   144460219.5481      -3105.591          15.000  
G04  23489841.309   123439881.782         574.241          28.000  
G11  21825134.861   114691811.859        1829.959          28.000  
G17  21866893.852   114911259.055       -1936.234          39.000  
G22  23454664.861   123255042.842       -3221.311          36.000  
J02  37329925.018   196169939.291          69.954          31.000  
> 2025 05 21 04 35 46.9997047  0 15                     
C08  37131616.130   193353870.5311        993.053          15.000  
C13  38064399.677   198211116.6181       1085.713          10.000  
C19  22865494.360   119066515.280        1605.971          39.000  
C20  23980559.217   124873040.783       -1247.197          20.000  
C24  25354690.625   132028527.0211       -256.607          24.000  
C29  23463293.712   122179437.828       -1814.357          26.000  
C38  36368057.330   189377988.1371        747.382          18.000  
C40  35943087.731   187164879.194         -69.029          28.000  
E16  27490462.162   144463309.1041      -3104.078          14.000  
G04  23489730.610   123439300.114         560.565          30.000  
G11  21824787.626   114689974.975        1824.090          28.000  
G17  21867260.723   114913181.391       -1938.408          40.000  
G19  19989443.809   105045064.5301       -658.060          28.000  
G22  23455276.063   123258244.270       -3212.587          38.000  
J02  37329911.453   196169851.526          77.565          34.000  
> 2025 05 21 04 35 47.9996437  0 17                     
C07  35669358.461   185739709.6361        -92.765          13.000  
C08  37131449.276   193353012.2591       1002.401           9.000  
C13  38064219.033   198210174.1161       1086.033          10.000  
C19  22865215.984   119065054.152        1605.447          39.000  
C20  23980827.063   124874430.7201      -1247.301          19.000  
C24  25354763.007   132028929.2871       -255.022          19.000  
C29  23463672.481   122181396.405       -1816.692          26.000  
C38  36367946.838   189377384.9131        748.034          18.000  
C40  35943132.231   187165092.874         -70.131          26.000  
E02  24254423.356   127457855.1011       -552.846          23.000  
E16  27491081.664   144466555.1331      -3093.192           7.000  
G04  23489653.395   123438889.125         556.031          31.000  
G11  21824470.277   114688298.340        1823.268          30.000  
G17  21867658.379   114915263.578       -1938.989          40.000  
G19  19989598.932   105045868.462        -659.800          25.000  
G22  23455916.251   123261599.520       -3211.347          37.000  
J02  37329926.274   196169918.596          79.663          32.000  
> 2025 05 21 04 35 48.9995827  0 15                     
C08  37131285.814   193352150.2711       1003.295           9.000  
C19  22864934.704   119063590.657        1604.970          38.000  
C20  23981095.002   124875818.4451      -1246.287          19.000  
C24  25354841.477   132029324.9421       -252.779          18.000  
C29  23464054.042   122183354.283       -1817.355          25.000  
C38  36367831.343   189376778.1781        749.313          18.000  
C40  35943177.725   187165304.539         -71.548          25.000  
E02  24254341.138   127457422.560        -571.742          21.000  
E16  27491698.862   144469788.9121      -3091.141           8.000  
G04  23489574.775   123438475.342         557.424          32.000  
G11  21824151.523   114686618.963        1821.124          33.000  
G17  21868055.529   114917346.029       -1940.826          38.000  
G19  19989755.349   105046669.874        -658.140          24.000  
G22  23456555.633   123264955.218       -3212.900          37.000  
J02  37329937.891   196169982.536          79.065          30.000  
> 2025 05 21 04 35 49.9995217  0 15                     
C08  37131121.809   193351287.7891       1004.057           8.000  
C19  22864656.178   119062128.825        1602.512          37.000  
C20  23981359.400   124877205.9041      -1244.527          20.000  
C24  25354920.904   132029717.4741       -250.439          18.000  
C29  23464424.267   122185311.075       -1813.890          28.000  
C38  36367716.504   189376170.5841        750.437          18.000  
C40  35943219.377   187165517.199         -72.526          23.000  
E02  24254474.527   127458135.2571       -571.159          14.000  
E16  27492317.015   144473021.1811      -3087.381           9.000  
G04  23489498.608   123438061.052         557.177          32.000  
G11  21823836.123   114684940.868        1821.184          29.000  
G17  21868453.035   114919428.095       -1940.060          38.000  
G19  19989912.122   105047470.993        -659.735          21.000  
G22  23457196.571   123268309.806       -3215.291          37.000  
J02  37329952.562   196170048.064          77.009          31.000  
> 2025 05 21 04 35 50.9994606  0 14                     
C19  22864344.619   119060510.717        1602.142          37.000  
C20  23981601.558   124878432.2841      -1263.024          16.000  
C24  25354970.894   132029951.6281       -248.958          17.000  
C29  23464765.056   122187106.590       -1810.292          29.000  
C38  36367573.728   189375403.9771        751.449          18.000  
C40  35943233.093   187165846.020         -73.681          23.000  
E02  24254577.580   127458689.2631       -570.208          12.000  
E16  27492904.233   144476091.5981      -3085.478          10.000  
G04  23489391.807   123437489.011         556.649          30.000  
G11  21823487.389   114683103.012        1834.325          26.000  
G17  21868820.506   114921352.010       -1941.139          37.000  
G19  19990035.262   105048113.212        -661.058          23.000  
G22  23457806.274   123271511.064       -3219.588          36.000  
J02  37329935.398   196169956.704          73.771          32.000  
> 2025 05 21 04 35 52.0003995  0 14                     
C19  22864054.232   119058990.526        1601.694          35.000  
C20  23981862.490   124879778.766       -1262.266          23.000  
C24  25355038.759   132030282.4511       -247.626          17.000  
C26  25458173.361   132567388.4281      -2195.662          18.000  
C29  23465128.217   122189000.348       -1809.637          29.000  
C38  36367446.428   189374734.8401        752.659          18.000  
C40  35943265.882   187166004.127         -74.828          23.000  
E02  24254705.704   127459343.9261       -569.360          11.000  
G04  23489302.582   123437013.751         560.898          30.000  
G11  21823159.529   114681352.749        1823.141          26.000  
G17  21869207.050   114923380.584       -1943.250          35.000  
G19  19990179.574   105048858.204        -661.102          25.000  
G22  23458437.449   123274818.070       -3222.483          34.000  
J02  37329939.108   196169969.062          70.488          31.000  
> 2025 05 21 04 35 53.0003385  0 14                     
C19  22863775.088   119057530.654        1601.744          32.000  
C20  23982135.563   124881181.944       -1260.881          20.000  
C24  25355116.968   132030671.2521       -246.498          17.000  
C26  25458639.501   132569724.975       -2187.600          24.000  
C29  23465502.920   122190952.007       -1809.103          29.000  
C38  36367333.669   189374123.7281        753.749          18.000  
C40  35943305.717   187166220.068         -74.628          25.000  
E16  27494595.138   144485072.9411      -3055.520          15.000  
G04  23489223.399   123436594.467         563.819          31.000  
G11  21822842.910   114679673.642        1821.210          28.000  
G17  21869604.838   114925465.570       -1942.271          33.000  
G19  19990333.630   105049662.814        -662.312          24.000  
G22  23459079.567   123278184.291       -3224.737          33.000  
J02  37329955.260   196170043.275          67.380          30.000  
> 2025 05 21 04 35 54.0002775  0 13                     
C19  22863502.333   119056074.101        1600.216          30.000  
C20  23982408.730   124882584.0891      -1260.324          19.000  
C24  25355196.769   132031061.3661       -245.242          16.000  
C26  25459096.141   132572055.868       -2188.154          23.000  
C29  23465880.115   122192903.645       -1809.618          27.000  
C38  36367220.104   189373514.2381        753.804          18.000  
C40  35943346.545   187166436.374         -75.657          23.000  
G04  23489144.610   123436174.415         567.192          29.000  
G11  21822527.885   114677999.710        1819.575          29.000  
G17  21870003.618   114927550.560       -1941.181          36.000  
G19  19990488.379   105050469.522        -664.633          23.000  
G22  23459720.879   123281554.995       -3228.123          34.000  
J02  37329972.104   196170122.948          64.687          30.000  
> 2025 05 21 04 35 55.0002164  0 12                     
C19  22863193.828   119054458.251        1600.480          27.000  
C20  23982654.241   124883834.9551      -1267.102          18.000  
C26  25459519.729   132574226.589       -2184.665          23.000  
C29  23466219.462   122194696.290       -1808.311          29.000  
C38  36367074.086   189372744.0061        755.353          18.000  
C40  35943358.218   187166497.201         -76.554          22.000  
G04  23489037.265   123435591.492         567.478          27.000  
G11  21822180.406   114676165.812        1814.177          32.000  
G17  21870371.744   114929475.354       -1943.736          36.000  
G19  19990612.175   105051119.374        -666.009          23.000  
G22  23460333.636   123284768.028       -3232.162          36.000  
J02  37329956.197   196170042.595          63.982          29.000  
> 2025 05 21 04 35 56.0001554  0 13                     
C19  22862918.169   119052998.937        1600.898          25.000  
C20  23982929.301   124885234.8481      -1259.697          14.000  
C26  25459982.159   132576551.899       -2185.826          23.000  
C29  23466595.252   122196642.928       -1806.523          27.000  
C38  36366957.617   189372129.4041        756.647          18.000  
C40  35943403.637   187166715.2521        -90.528          19.000  
E02  24255423.257   127463110.0111       -560.539          22.000  
G04  23488956.771   123435167.422         567.215          23.000  
G11  21821862.177   114674496.031        1811.391          33.000  
G17  21870770.618   114931563.130       -1944.900          31.000  
G19  19990767.617   105052192.5461       -668.503          20.000  
G22  23460977.141   123288140.035       -3231.641          36.000  
J02  37329972.535   196170117.537          68.982          30.000  
> 2025 05 21 04 35 57.0000944  0 13                     
C19  22862642.959   119051542.223        1599.968          23.000  
C20  23983197.016   124886636.3291      -1258.085          15.000  
C26  25460445.338   132579219.565       -2186.319          23.000  
C29  23466978.986   122198592.060       -1805.523          27.000  
C38  36366845.794   189371516.2461        757.577          17.000  
C40  35943448.606   187166948.7741        -91.228          19.000  
E02  24255567.757   127463815.223        -564.431          21.000  
G04  23488879.425   123434745.890         565.828          22.000  
G11  21821547.095   114672829.999        1823.619          27.000  
G17  21871173.239   114933650.276       -1945.078          28.000  
G19  19990926.207   105053007.0741       -669.978          18.000  
G22  23461620.196   123291515.276       -3231.788          36.000  
J02  37329988.124   196170193.804          69.582          27.000  
> 2025 05 21 04 35 58.0000333  0 13                     
C19  22862344.253   119050225.799        1599.333          22.000  
C20  23983439.735   124887880.2601      -1257.491          14.000  
C26  25460876.027   132581392.393       -2191.539          24.000  
C29  23467325.134   122200384.975       -1806.975          27.000  
C38  36366702.980   189370745.8901        757.671          17.000  
C40  35943468.579   187167027.0451        -66.613          18.000  
E02  24255663.878   127464368.5691       -568.026          16.000  
G04  23488771.987   123434167.400         565.258          21.000  
G11  21821201.621   114671002.324        1807.926          34.000  
G17  21871543.371   114935581.410       -1944.716          25.000  
G19  19991054.106   105053662.2851       -670.597          19.000  
G22  23462233.759   123294732.905       -3232.663          32.000  
J02  37329974.222   196170112.586          70.026          28.000  
> 2025 05 21 04 35 58.9999723  0 13                     
C19  22862066.027   119048766.822        1599.406          21.000  
C20  23983707.131   124889276.7061      -1255.764          14.000  
C26  25461330.794   132583724.255       -2179.185          24.000  
C29  23467699.856   122202329.884       -1808.349          24.000  
C38  36366588.741   189370128.7021        758.292          17.000  
C40  35943509.333   187167233.0351        -68.067          18.000  
E02  24255801.165   127465079.6401       -567.967          18.000  
G04  23488694.621   123433743.955         566.026          22.000  
G11  21820883.823   114669339.159        1804.058          31.000  
G17  21871943.575   114937667.084       -1945.276          21.000  
G19  19991211.179   105054475.6411       -671.842          19.000  
G22  23462876.495   123298107.417       -3236.868          33.000  
J02  37329989.192   196170183.733          58.309          25.000  
> 2025 05 21 04 35 59.9999113  0 13                     
C19  22861788.270   119047311.439        1597.959          21.000  
C20  23983977.994   124890673.7281      -1248.833          13.000  
C26  25461782.131   132586046.847       -2182.281          23.000  
C29  23468075.646   122204280.518       -1809.835          21.000  
C38  36366477.068   189369788.6911        760.144          17.000  
C40  35943554.151   187167443.6521        -69.833          18.000  
E02  24255945.215   127465791.8741       -572.653          20.000  
G04  23488614.427   123433322.597         565.933          21.000  
G11  21820570.689   114667677.925        1817.993          26.000  
G17  21872343.048   114939756.4541      -1951.823          15.000  
G19  19991369.919   105055290.0501       -673.082          19.000  
G22  23463519.700   123301488.593       -3237.851          34.000  
J02  37330010.328   196170266.475          64.477          28.000  
> 2025 05 21 04 36 00.9998502  0 12                     
C19  22861477.778   119045700.5121       1597.363          19.000  
C26  25462203.433   132588215.0771      -2183.783          17.000  
C29  23468417.503   122206077.727       -1809.845          22.000  
C38  36366332.962   189369014.4421        761.501          16.000  
C40  35943563.839   187167500.3891        -71.385          17.000  
E02  24256060.429   127466351.3171       -575.319          18.000  
E16  27498971.508   144508070.6821      -3111.299          14.000  
G04  23488507.495   123432743.5001        565.554          18.000  
G11  21820223.024   114665845.837        1819.348          21.000  
G17  21872714.585   114941693.7761      -1939.448          13.000  
G22  23464134.368   123304712.547       -3237.781          30.000  
J02  37329994.533   196170186.942          67.298          25.000  
> 2025 05 21 04 36 01.9997892  0 12                     
C19  22861198.465   119044245.7891       1597.828          19.000  
C26  25462654.415   132590542.3491      -2185.012          16.000  
C29  23468799.232   122208028.965       -1810.855          21.000  
C38  36366216.736   189368395.6331        761.998          16.000  
C40  35943607.702   187167713.9171        -72.337          17.000  
E02  24256202.624   127467071.5751       -577.331          13.000  
E16  27499596.070   144511324.0801      -3111.956          13.000  
G04  23488432.640   123432320.4491        568.705          18.000  
G11  21819907.736   114664170.859        1818.771          21.000  
G17  21873117.300   114943775.0361      -1941.122          14.000  
G22  23464780.514   123308093.482       -3238.078          28.000  
J02  37330012.314   196170538.202          65.301          25.000  
> 2025 05 21 04 36 02.9997282  0 12                     
C19  22860924.324   119042791.5311       1597.674          19.000  
C26  25463109.069   132592870.0981      -2186.817          14.000  
C29  23469175.041   122209981.648       -1812.335          20.000  
C38  36366097.587   189367776.4961        762.452          16.000  
C40  35943648.343   187167928.6761        -73.610          16.000  
E02  24256346.993   127467792.5851       -579.220          12.000  
E16  27500216.509   144514581.1241      -3113.320          14.000  
G04  23488348.867   123431895.1641        570.838          15.000  
G11  21819589.825   114662496.4111       1819.278          20.000  
G17  21873516.492   114945860.4071      -1942.488          14.000  
G22  23465425.237   123311473.196       -3238.547          30.000  
J02  37330028.971   196170618.885          62.638          22.000  
> 2025 05 21 04 36 03.9996672  0 11                     
C19  22860648.815   119041334.2291       1598.150          18.000  
C29  23469547.083   122211934.3551      -1813.385          20.000  
C38  36365980.668   189367154.9781        726.958          15.000  
C40  35943694.511   187168143.5591        -75.215          16.000  
E02  24256485.797   127468513.1181       -576.855          12.000  
E16  27500845.473   144517835.7731      -3115.603          15.000  
G04  23488268.223   123431465.1901        572.951          15.000  
G11  21819271.745   114660819.369        1818.238          21.000  
G17  21873917.614   114948212.8001      -1942.396          14.000  
G22  23466070.990   123314854.924       -3242.654          26.000  
J02  37330048.758   196170698.991          61.455          21.000  
> 2025 05 21 04 36 04.9996061  0  9                     
C19  22860339.148   119039722.0311       1598.649          18.000  
C29  23469893.362   122213733.5891      -1814.207          19.000  
C40  35943708.620   187168204.0701        -95.483          16.000  
E16  27501443.278   144520936.9091      -3116.564          15.000  
G04  23488152.821   123430877.2341        574.617          19.000  
G11  21818924.604   114658987.8871       1817.176          20.000  
G17  21874285.479   114950139.2661      -1942.865          14.000  
G22  23466686.182   123318082.544       -3243.911          26.000  
J02  37330037.384   196170624.762          58.949          21.000  
> 2025 05 21 04 36 05.9995451  0  9                     
C19  22860063.339   119038266.9341       1599.674          17.000  
C29  23470272.300   122215691.4701      -1815.350          19.000  
C40  35943758.385   187168442.5081        -96.786          15.000  
E16  27502065.647   144524197.1851      -3119.552          19.000  
G04  23488068.580   123430448.1101        575.200          16.000  
G11  21818608.623   114657315.6611       1817.123          19.000  
G17  21874682.104   114952226.0041      -1943.734          15.000  
G22  23467332.535   123321472.018       -3244.826          28.000  
J02  37330054.772   196170711.505          57.882          20.000  
> 2025 05 21 04 36 06.9994841  0  9                     
C19  22859785.993   119036807.9471       1599.602          16.000  
C29  23470651.800   122217645.2641      -1815.455          13.000  
C40  35943806.314   187168680.0991        -98.288          15.000  
E16  27502680.184   144527457.8511      -3119.420          18.000  
G04  23487986.399   123430013.4641        576.970          15.000  
G11  21818290.206   114655641.1051       1815.164          19.000  
G17  21875082.889   114954312.0071      -1945.619          14.000  
G22  23467979.150   123324857.496       -3245.466          25.000  
J02  37330073.622   196170796.449          56.512          20.000  
> 2025 05 21 04 36 08.0004230  0  8                     
C19  22859495.888   119035289.9611       1600.176          16.000  
C29  23471010.445   122219544.8031      -1814.309          16.000  
E16  27503286.458   144530662.7001      -3116.545          18.000  
G04  23487892.358   123429519.9961        577.155          14.000  
G11  21817966.823   114654189.2261       1813.311          20.000  
G17  21875469.715   114956342.7801      -1946.373          15.000  
G22  23468614.204   123328189.712       -3245.190          23.000  
J02  37330082.709   196170824.0721         56.367          13.000  
> 2025 05 21 04 36 09.0003619  0  8                     
C19  22859191.299   119033674.5761       1600.094          16.000  
C29  23471360.003   122221341.4991      -1814.525          15.000  
E16  27503879.748   144533762.1561      -3113.764          20.000  
G04  23487777.537   123428933.0811        571.648          10.000  
G11  21817622.662   114652361.4061       1811.490          20.000  
G17  21875835.462   114958273.5231      -1940.277          14.000  
G22  23469232.376   123331416.777       -3243.441          21.000  
J02  37330070.717   196170751.9641         56.375          17.000  
> 2025 05 21 04 36 10.0003009  0  7                     
C19  22858910.056   119032218.6031       1599.532          16.000  
E16  27504499.082   144537018.4581      -3113.965          18.000  
G04  23487697.156   123428506.1351        572.236          10.000  
G11  21817313.538   114650695.3291       1810.914          19.000  
G17  21876235.347   114960358.4121      -1941.238          14.000  
G22  23469877.492   123334802.6921      -3240.721          20.000  
J02  37330088.368   196170840.1971         56.721          19.000  
> 2025 05 21 04 36 11.0002398  0  7                     
C19  22858601.869   119030605.8241       1598.623          16.000  
E16  27505094.170   144540118.1041      -3112.682          13.000  
G04  23487587.132   123427919.6661        572.921           9.000  
G11  21816968.177   114648870.9771       1810.064          19.000  
G17  21876603.493   114962285.1731      -1942.488          14.000  
G22  23470493.565   123338026.248       -3237.722          22.000  
J02  37330075.477   196170769.7201         55.986          18.000  
> 2025 05 21 04 36 12.0001788  0  7                     
C19  22858324.018   119029151.5501       1598.102          16.000  
E16  27505713.297   144543374.4381      -3108.977          12.000  
G04  23487508.343   123427491.8081        573.652           8.000  
G11  21816651.353   114647206.9911       1809.348          19.000  
G17  21877005.271   114964372.2391      -1943.727          13.000  
G22  23471138.475   123341406.616       -3235.041          21.000  
J02  37330095.619   196170859.3281         55.485          18.000  
> 2025 05 21 04 36 13.0001178  0  6                     
C19  22858047.965   119027695.7061       1598.121          16.000  
E16  27506333.324   144546624.5761      -3107.909          13.000  
G11  21816337.227   114645541.3451       1809.176          19.000  
G17  21877405.850   114966458.7681      -1944.635          11.000  
G22  23471781.886   123345045.461       -3233.179          21.000  
J02  37330114.262   196170947.1871         56.359          18.000  
> 2025 05 21 04 36 14.0000567  0  7                     
C19  22857739.497   119026083.9781       1597.736          16.000  
E16  27506923.035   144549718.0771      -3106.893          12.000  
G04  23487312.053   123426657.5801        558.017          20.000  
G11  21815994.582   114643718.4671       1809.146          19.000  
G17  21877774.913   114968388.2731      -1952.885          11.000  
G22  23472394.681   123348261.8051      -3232.262          19.000  
J02  37330103.189   196170876.3811         57.535          18.000  
> 2025 05 21 04 36 14.9999957  0  8                     
C19  22857463.951   119024629.3171       1594.829          16.000  
C29  23473532.355   122232842.0211      -1810.662          17.000  
E16  27507544.767   144552965.5071      -3109.810          12.000  
G04  23487240.066   123426242.728         556.483          21.000  
G11  21815680.662   114642053.0321       1808.948          19.000  
G17  21878173.899   114970485.2331      -1953.319          11.000  
G22  23473036.199   123351636.1411      -3231.401          17.000  
J02  37330122.638   196170961.6851         58.457          17.000  
> 2025 05 21 04 36 15.9999347  0  7                     
C19  22857172.871   119023181.597        1588.121          26.000  
C29  23473907.415   122234793.641       -1811.211          22.000  
G04  23487163.637   123425827.4021        556.090          18.000  
G11  21815365.899   114640385.8621       1809.921          19.000  
G17  21878568.145   114972577.771       -1949.493          23.000  
G22  23473681.371   123355013.9691      -3236.474          13.000  
J02  37330140.944   196171044.7231         59.294          15.000  
> 2025 05 21 04 36 16.9998737  0  7                     
C19  22856889.661   119021735.574        1586.566          29.000  
C29  23474283.148   122236746.710       -1812.349          22.000  
G04  23487084.286   123425413.4141        554.726          16.000  
G11  21815050.311   114638718.7381       1809.361          19.000  
G17  21878956.470   114974667.425       -1950.663          23.000  
G22  23474325.419   123358386.2631      -3231.043          16.000  
J02  37330158.126   196171127.8011         59.873          19.000  
> 2025 05 21 04 36 17.9998126  0 10                     
C19  22856580.818   119020135.106        1586.343          34.000  
C20  23988747.636   124915703.5901      -1267.524           4.000  
C29  23474629.652   122238545.595       -1813.197          22.000  
C40  35944096.420   187170342.3081        -76.812           9.000  
G04  23486976.904   123424844.3311        553.140          16.000  
G11  21814705.494   114636894.8771       1809.862          18.000  
G17  21879324.559   114976604.931       -1951.540          21.000  
G19  19993906.107   105068685.3171       -673.309          15.000  
G22  23474940.537   123361606.5211      -3236.078          14.000  
J02  37330144.579   196171053.6841         59.974          19.000  
> 2025 05 21 04 36 18.9997516  0  8                     
C19  22856301.955   119018694.554        1584.906          36.000  
C29  23475004.636   122240504.771       -1814.881          24.000  
C40  35944147.628   187170565.6311        -78.132          17.000  
G04  23486902.499   123424437.7251        551.031          16.000  
G11  21814393.054   114635231.0391       1810.870          18.000  
G17  21879725.625   114978701.783       -1953.386          25.000  
G19  19994066.440   105069504.4531       -672.817          16.000  
G22  23475588.332   123364988.5401      -3234.766          15.000  
> 2025 05 21 04 36 19.9996905  0 10                     
C08  37126445.553   193327144.1611        989.918           2.000  
C19  22855995.680   119017095.295        1584.411          37.000  
C29  23475352.808   122242304.306       -1816.560          23.000  
C40  35944161.231   187170629.6961        -79.190          18.000  
G04  23486797.984   123423872.084         549.318          22.000  
G11  21814049.304   114633404.8401       1811.636          18.000  
G17  21880092.084   114980638.168       -1953.359          28.000  
G19  19994196.362   105070162.4861       -672.558          15.000  
G22  23476206.617   123368205.9111      -3234.307          16.000  
J02  37330141.637   196171062.3121         62.436          22.000  
> 2025 05 21 04 36 20.9996295  0  9                     
C19  22855719.271   119015652.126        1583.528          37.000  
C29  23475731.446   122244263.461       -1818.189          22.000  
C40  35944204.401   187170850.4301        -79.699          18.000  
G04  23486723.636   123423464.042         548.230          23.000  
G11  21813735.421   114631734.5641       1812.629          18.000  
G17  21880491.707   114982733.200       -1953.775          27.000  
G19  19994353.154   105070977.5061       -672.966          16.000  
G22  23476849.971   123371581.8871      -3235.529          19.000  
J02  37330156.627   196171141.414          63.191          23.000  
> 2025 05 21 04 36 21.9995684  0  9                     
C19  22855413.464   119014056.808        1582.823          39.000  
C29  23476082.784   122246069.537       -1820.228          22.000  
C40  35944218.773   187170917.7841        -80.070          18.000  
G04  23486618.690   123422902.625         547.809          21.000  
G11  21813389.442   114629908.8581       1813.683          18.000  
G17  21880863.431   114984674.708       -1954.735          27.000  
G19  19994479.347   105071637.6181       -673.271          16.000  
G22  23477464.227   123374806.0741      -3238.534          18.000  
J02  37330142.817   196171065.304          63.517          22.000  
> 2025 05 21 04 36 22.9995074  0  9                     
C19  22855138.554   119012617.560        1583.221          40.000  
C29  23476462.621   122248034.4881      -1821.255          15.000  
C40  35944263.142   187171142.5841        -81.231          18.000  
G04  23486545.241   123422498.8731        547.044          16.000  
G11  21813076.159   114628239.9461       1814.722          17.000  
G17  21881263.054   114986772.962       -1953.479          26.000  
G19  19994640.336   105072455.1921       -673.179          16.000  
G22  23478109.381   123378189.1671      -3238.783          15.000  
J02  37330157.207   196171147.214          62.747          23.000  
> 2025 05 21 04 36 23.9994464  0 10                     
C19  22854862.708   119011175.805        1581.663          39.000  
C29  23476843.320   122249994.9231      -1822.235          16.000  
C40  35944305.675   187171363.1651        -81.964          18.000  
E02  24258979.958   127481800.2261       -586.880          11.000  
G04  23486472.054   123422092.7561        546.604          16.000  
G11  21812761.939   114626837.1091       1837.915          17.000  
G17  21881662.041   114988867.255       -1955.168          30.000  
G19  19994799.189   105073271.0491       -674.334          16.000  
G22  23478757.195   123381568.6381      -3239.761          17.000  
J02  37330173.359   196171226.372          62.587          24.000  
> 2025 05 21 04 36 25.0003853  0 10                     
C19  22854575.507   119009676.106        1581.055          40.000  
C29  23477209.666   122251902.8591      -1823.292          17.000  
C40  35944338.652   187171529.4821        -82.292          18.000  
E16  27513656.092   144585238.1521      -3111.941          16.000  
G04  23486386.013   123421629.0021        545.061          16.000  
G11  21812430.369   114625080.7551       1838.688          17.000  
G17  21882051.771   114990906.182       -1954.813          32.000  
G19  19994948.485   105074030.6691       -675.558          16.000  
G22  23479389.757   123384896.4521      -3242.294          18.000  
J02  37330179.654   196171248.033          62.333          21.000  
> 2025 05 21 04 36 26.0003242  0 10                     
C19  22854270.131   119008080.466        1580.639          39.000  
C29  23477557.837   122253710.6621      -1823.235          17.000  
C40  35944353.454   187171595.7271        -83.155          17.000  
E16  27514250.693   144588335.4251      -3109.534          16.000  
G04  23486281.498   123421068.4331        544.338          18.000  
G11  21812080.623   114623226.8961       1839.590           9.000  
G17  21882421.228   114992847.772       -1956.898          35.000  
G19  19995078.408   105074691.5871       -676.413          16.000  
G22  23480000.846   123388122.4521      -3241.516          19.000  
J02  37330165.077   196171170.930          62.234          21.000  
> 2025 05 21 04 36 27.0002632  0 10                     
C19  22853994.490   119006643.617        1578.555          39.000  
C20  23990984.368   124927351.2261      -1278.904          22.000  
C29  23477936.644   122255678.0111      -1824.047          18.000  
C40  35944400.391   187171822.7801        -84.276          17.000  
E16  27514863.937   144591588.6211      -3108.341          17.000  
G11  21811762.113   114621531.8031       1839.561          12.000  
G17  21882820.120   114994947.913       -1957.176          37.000  
G19  19995236.867   105075512.9661       -676.941          17.000  
G22  23480643.770   123391504.9601      -3240.064          17.000  
J02  37330182.334   196171253.170          61.954          24.000  
> 2025 05 21 04 36 28.0002022  0 12                     
C19  22853720.442   119005208.033        1579.786          38.000  
C20  23991261.339   124928772.504       -1278.953          20.000  
C29  23478307.450   122257645.374       -1824.007          24.000  
C40  35944442.624   187172051.3271        -84.680          17.000  
E02  24259584.883   127484978.9451       -583.296          10.000  
E16  27515471.879   144594840.2701      -3106.159          19.000  
G04  23486130.534   123420267.8551        541.873          24.000  
G11  21811440.997   114619837.5491       1839.485          12.000  
G17  21883221.805   114997049.866       -1958.474          38.000  
G19  19995399.017   105076334.2581       -677.934          16.000  
G22  23481286.188   123394884.1891      -3233.617          18.000  
J02  37330195.787   196171335.102          64.268          27.000  
> 2025 05 21 04 36 29.0001411  0 12                     
C19  22853415.366   119003613.950        1578.844          40.000  
C20  23991507.881   124930035.6491      -1278.324          19.000  
C29  23478649.625   122259454.261       -1823.925          23.000  
C40  35944453.829   187172121.8881        -84.184          17.000  
E02  24259692.920   127485285.1481       -583.696           5.000  
E16  27516055.387   144597930.0121      -3104.086          18.000  
G04  23486026.319   123419712.121         537.444          24.000  
G11  21811090.652   114617983.2371       1839.251          12.000  
G17  21883593.060   114998991.518       -1957.624          39.000  
G19  19995528.640   105076998.4061       -679.100          17.000  
G22  23481900.875   123398099.420       -3231.386          21.000  
J02  37330182.709   196171255.934          64.456          26.000  
> 2025 05 21 04 36 30.0000801  0 14                     
C19  22853139.988   119002178.366        1578.547          39.000  
C20  23991778.725   124931454.8871      -1279.132          18.000  
C24  25358101.139   132046286.7031       -334.628          21.000  
C29  23479028.994   122261421.304       -1822.780          23.000  
C38  36362741.785   189350338.0601        736.648          26.000  
C40  35944501.927   187172348.1281        -84.918          17.000  
E02  24259830.356   127486012.1671       -584.283           9.000  
E16  27516673.391   144601178.6521      -3104.353          17.000  
G04  23485952.701   123419318.780         536.760          24.000  
G11  21810776.901   114616288.4001       1838.852          12.000  
G17  21883994.613   115001092.597       -1958.074          39.000  
G19  19995692.458   105077822.5291       -680.667          17.000  
G22  23482544.960   123401475.0581      -3231.777          18.000  
J02  37330196.930   196171336.048          62.051          27.000  
> 2025 05 21 04 36 31.0000191  0 14                     
C19  22852867.008   119000741.670        1577.354          40.000  
C20  23992051.667   124932875.6401      -1279.180          18.000  
C24  25358192.707   132046761.4971       -333.708          20.000  
C29  23479405.964   122263383.706       -1818.729          26.000  
C38  36362627.995   189349741.4021        736.991          18.000  
C40  35944543.429   187172575.8671        -85.532          17.000  
E02  24259965.394   127486739.1111       -584.474           9.000  
E16  27517294.692   144604425.2921      -3106.838          17.000  
G04  23485876.984   123418921.724         540.137          27.000  
G11  21810458.053   114614592.7361       1837.490          12.000  
G17  21884394.068   115003192.129       -1958.203          40.000  
G19  19995851.479   105078647.2481       -682.763          17.000  
G22  23483189.045   123404853.225       -3238.084          20.000  
J02  37330216.847   196171417.836          59.551          26.000  
> 2025 05 21 04 36 31.9999581  0 14                     
C19  22852592.342   118999308.283        1576.205          39.000  
C20  23992327.420   124934295.3491      -1278.056          18.000  
C24  25358284.388   132047237.9961       -331.762          19.000  
C29  23479781.548   122265344.925       -1817.568          26.000  
C38  36362514.617   189349146.9341        737.069          19.000  
C40  35944586.843   187172805.0671        -86.239          17.000  
E02  24260100.844   127487465.9621       -584.912           9.000  
E16  27517918.504   144607675.4971      -3106.605          15.000  
G04  23485802.879   123418524.183         541.518          28.000  
G11  21810140.816   114612901.1771       1803.692          12.000  
G17  21884795.434   115005293.460       -1959.259          41.000  
G19  19996014.810   105079766.3981       -683.958          17.000  
G22  23483829.945   123408234.857       -3238.004          24.000  
J02  37330233.280   196171503.021          58.602          28.000  
> 2025 05 21 04 36 32.9998970  0 14                     
C19  22852286.704   118997717.017        1576.279          38.000  
C20  23992569.202   124935559.3001      -1278.403          18.000  
C24  25358343.896   132047553.928        -330.792          22.000  
C29  23480127.359   122267148.388       -1818.730          29.000  
C38  36362372.366   189348394.0361        737.517          18.000  
C40  35944604.680   187172877.3511        -87.104          17.000  
E02  24260211.318   127488036.8731       -585.055           9.000  
E16  27518509.545   144610766.4781      -3105.605          14.000  
G04  23485697.802   123417967.467         540.320          29.000  
G11  21809798.903   114611082.9941       1802.916          13.000  
G17  21885166.727   115007236.042       -1959.404          41.000  
G19  19996145.069   105080436.6281       -685.274          17.000  
G22  23484443.471   123411456.693       -3238.088          26.000  
J02  37330216.941   196171430.247          58.475          26.000  
> 2025 05 21 04 36 33.9998360  0 14                     
C19  22852012.506   118996284.195        1575.620          38.000  
C20  23992838.828   124936979.7851      -1279.839          18.000  
C24  25358430.949   132048026.365        -329.283          21.000  
C29  23480504.610   122269111.286       -1820.558          30.000  
C38  36362260.656   189347797.8791        738.668          17.000  
C40  35944650.661   187173106.6091        -87.201          17.000  
E02  24260349.035   127488764.3851       -585.623           9.000  
E16  27519132.926   144614015.0991      -3106.685          14.000  
G04  23485622.967   123417571.667         537.821          29.000  
G11  21809492.328   114609424.8311       1801.720          15.000  
G17  21885567.962   115009339.100       -1959.953          40.000  
G19  19996304.971   105081266.6671       -686.284          17.000  
G22  23485091.435   123414837.681       -3237.409          24.000  
J02  37330234.142   196171515.158          60.035          24.000  
> 2025 05 21 04 36 34.9997750  0 14                     
C19  22851739.826   118994850.254        1574.599          39.000  
C20  23993109.072   124938399.3311      -1281.135          19.000  
C24  25358523.116   132048496.361        -328.431          21.000  
C29  23480880.981   122271073.267       -1821.644          28.000  
C38  36362145.966   189347199.3921        738.641          17.000  
C40  35944699.059   187173334.5851        -86.831          17.000  
E02  24260484.972   127489491.9691       -586.055           9.000  
E16  27519746.432   144617264.965       -3106.514          22.000  
G04  23485548.749   123417176.703         535.784          30.000  
G11  21809189.968   114608066.368        1800.483          23.000  
G17  21885969.815   115011441.938       -1961.018          40.000  
G19  19996463.692   105082094.4481       -687.144          17.000  
G22  23485737.019   123418216.305       -3236.201          28.000  
J02  37330251.661   196171597.400          61.005          23.000  
> 2025 05 21 04 36 35.9997139  0 14                     
C19  22851435.480   118993261.604        1575.081          38.000  
C20  23993355.745   124939665.9451      -1282.808          19.000  
C24  25358586.316   132048808.893        -327.677          20.000  
C29  23481230.782   122272881.732       -1823.117          27.000  
C38  36362006.507   189346445.8741        738.504          17.000  
C40  35944714.892   187173407.6501        -86.041          17.000  
E02  24260592.541   127490062.2401       -586.280           9.000  
E16  27520338.466   144620356.1971      -3105.923          19.000  
G04  23485444.965   123416625.907         535.470          29.000  
G11  21808853.845   114606252.346        1799.837          21.000  
G17  21886341.801   115013387.655       -1961.144          39.000  
G19  19996594.646   105082768.3321       -687.774          17.000  
G22  23486350.338   123421439.322       -3239.107          29.000  
J02  37330240.512   196171521.135          61.516          28.000  
> 2025 05 21 04 36 36.9996529  0 14                     
C19  22851162.482   118991830.502        1572.609          40.000  
C20  23993629.868   124941092.3331      -1283.382          19.000  
C24  25358673.968   132049278.653        -328.193          20.000  
C29  23481615.528   122274845.538       -1822.277          26.000  
C38  36361890.000   189345848.7341        739.394          16.000  
C40  35944762.072   187173636.4551        -85.656          17.000  
E02  24260732.057   127490792.6751       -586.566           8.000  
E16  27520956.151   144623607.8091      -3109.416          15.000  
G04  23485371.028   123416233.212         535.746          28.000  
G11  21808547.269   114604596.639        1800.003          21.000  
G17  21886743.335   115015491.063       -1962.144          39.000  
G19  19996756.946   105083599.9051       -688.985          17.000  
G22  23486995.904   123424820.902       -3239.965          29.000  
J02  37330259.512   196171606.413          57.667          28.000  
> 2025 05 21 04 36 37.9995919  0 14                     
C19  22850889.052   118990400.022        1573.141          39.000  
C20  23993907.457   124942517.3961      -1284.493          19.000  
C24  25358762.688   132049748.802        -329.089          20.000  
C29  23481989.651   122276811.259       -1822.854          27.000  
C38  36361778.458   189345250.3591        739.869          16.000  
C40  35944808.820   187173864.2431        -86.486          17.000  
E02  24260869.343   127491522.0291       -587.037           8.000  
E16  27521575.204   144626859.5381      -3106.136          15.000  
G04  23485297.561   123415841.202         533.143          31.000  
G11  21808238.165   114602940.524        1799.439          22.000  
G17  21887145.039   115017596.408       -1962.737          39.000  
G19  19996916.716   105084433.6661       -690.166          17.000  
G22  23487638.340   123428202.575       -3238.221          32.000  
J02  37330275.981   196171692.360          57.987          31.000  
> 2025 05 21 04 36 38.9995308  0 14                     
C19  22850584.594   118988815.577        1572.066          40.000  
C20  23994149.821   124943789.2411      -1286.240          19.000  
C24  25358826.675   132050066.3591       -329.658          20.000  
C29  23482338.440   122278622.245       -1824.924          25.000  
C38  36361638.886   189344497.4661        740.288          16.000  
C40  35944826.040   187173938.0671        -86.119          17.000  
E02  24260976.500   127492095.9771       -587.082           8.000  
E16  27522163.827   144629953.4651      -3105.978          16.000  
G04  23485194.563   123415296.637         530.393          30.000  
G11  21807898.931   114601129.837        1798.627          25.000  
G17  21887517.512   115019546.649       -1963.196          39.000  
G19  19997047.557   105085112.7361       -691.687          17.000  
G22  23488252.446   123431426.740       -3235.693          35.000  
J02  37330261.423   196171621.272          60.860          31.000  
> 2025 05 21 04 36 39.9994698  0 14                     
C19  22850310.734   118987383.310        1572.680          39.000  
C20  23994426.679   124945215.150       -1287.454          21.000  
C24  25358919.161   132050534.8551       -330.415          20.000  
C29  23482714.830   122280587.649       -1827.205          25.000  
C38  36361526.014   189343896.1801        740.082          16.000  
C40  35944870.859   187174163.8341        -85.389          17.000  
E02  24261112.456   127492822.8731       -584.420           8.000  
E16  27522784.548   144633199.3601      -3106.548          15.000  
G04  23485120.664   123414907.225         529.094          28.000  
G11  21807589.695   114599472.201        1799.105          21.000  
G17  21887918.484   115021649.697       -1962.146          39.000  
G19  19997209.595   105085945.2751       -692.935          17.000  
G22  23488897.150   123434801.235       -3235.300          35.000  
J02  37330277.462   196171700.979          62.055          31.000  
> 2025 05 21 04 36 41.0004087  0 14                     
C19  22850025.538   118985893.148        1572.024          40.000  
C20  23994693.101   124946586.416       -1289.129          21.000  
C24  25359000.311   132050948.7431       -330.510          12.000  
C29  23483081.382   122282500.080       -1825.356          25.000  
C38  36361405.404   189343237.9471        740.743          16.000  
C40  35944899.845   187174334.0951        -84.859          17.000  
E02  24261239.774   127493491.2041       -584.613           8.000  
E16  27523393.932   144636394.7491      -3118.288          11.000  
G04  23485036.329   123414461.279         529.343          26.000  
G11  21807264.926   114597755.738        1798.936          23.000  
G17  21888309.620   115023697.192       -1962.908          38.000  
G19  19997359.697   105086723.8661       -693.505          17.000  
G22  23489530.518   123438124.220       -3236.218          34.000  
J02  37330282.165   196171724.417          60.908          31.000  
> 2025 05 21 04 36 42.0003477  0 14                     
C19  22849751.771   118984464.964        1570.580          39.000  
C20  23994973.650   124948018.855       -1291.222          21.000  
C24  25359091.391   132051422.2521       -330.903          10.000  
C29  23483461.463   122284469.385       -1827.250          24.000  
C38  36361293.226   189342639.2991        741.502          16.000  
C40  35944942.659   187174560.5991        -84.503          17.000  
E02  24261380.920   127494219.8331       -585.280           8.000  
E16  27524015.945   144639655.9641      -3118.673           9.000  
G04  23484964.922   123414076.167         527.701          26.000  
G11  21806953.086   114596101.284        1800.092          24.000  
G17  21888711.585   115025805.070       -1964.061          36.000  
G19  19997524.227   105087562.5691       -694.194          17.000  
G22  23490175.615   123441502.804       -3232.733          31.000  
J02  37330299.197   196171808.087          63.620          32.000  
> 2025 05 21 04 36 43.0002866  0 13                     
C19  22849450.199   118982878.383        1572.171          36.000  
C20  23995215.602   124949296.647       -1296.937          23.000  
C29  23483813.738   122286281.573       -1829.688          23.000  
C38  36361151.742   189341880.9631        742.546          16.000  
C40  35944953.170   187174630.4091        -84.255          17.000  
E02  24261492.462   127494789.5891       -585.745           8.000  
E16  27524611.052   144642758.4151      -3119.180           6.000  
G04  23484863.611   123413535.485         520.753          33.000  
G11  21806610.441   114594285.798        1800.443          22.000  
G17  21889083.646   115027752.573       -1963.055          36.000  
G19  19997655.255   105088241.834        -695.471          22.000  
G22  23490787.210   123444713.388       -3221.966          33.000  
J02  37330282.727   196171724.697          69.106          39.000  
> 2025 05 21 04 36 44.0002256  0 12                     
C19  22849177.556   118981448.156        1571.136          35.000  
C20  23995494.877   124950735.773       -1301.807          22.000  
C29  23484190.446   122288252.957       -1830.549          27.000  
C38  36361037.390   189341278.7691        742.515          16.000  
C40  35944992.312   187174855.9391        -83.285          17.000  
E02  24261629.036   127495517.1121       -586.278           8.000  
G04  23484792.429   123413159.471         517.593          36.000  
G11  21806297.327   114592628.983        1799.454          22.000  
G17  21889485.537   115029857.052       -1963.520          35.000  
G19  19997814.614   105089081.097        -695.561          22.000  
G22  23491428.035   123448076.261       -3221.528          31.000  
J02  37330297.585   196171798.510          68.540          42.000  
> 2025 05 21 04 36 45.0001646  0 12                     
C19  22848905.101   118980021.959        1569.568          34.000  
C20  23995773.141   124952182.185       -1303.057          26.000  
C29  23484567.341   122290229.302       -1831.309          28.000  
C38  36360922.326   189340679.2831        742.721          17.000  
C40  35945030.442   187175082.8131        -82.887          17.000  
E02  24261769.695   127496246.7541       -586.692           8.000  
G04  23484723.833   123413055.986         514.363          37.000  
G11  21805982.601   114590974.856        1799.833          24.000  
G17  21889889.114   115031965.106       -1965.258          34.000  
G19  19997979.556   105089922.232        -696.557          21.000  
G22  23492069.947   123451443.455       -3224.023          29.000  
J02  37330313.830   196171876.073          66.800          42.000  
> 2025 05 21 04 36 46.0001035  0 13                     
C08  37121547.431   193301638.4431        989.340           9.000  
C19  22848601.486   118978439.494        1566.384          32.000  
C20  23996019.345   124953469.627       -1304.683          26.000  
C29  23484918.173   122292046.624       -1835.004          29.000  
C38  36360777.002   189339920.3191        743.045          17.000  
C40  35945039.211   187175150.628         -82.698          22.000  
E02  24261877.995   127496817.6151       -583.506           8.000  
G04  23484624.077   123412526.490         512.361          35.000  
G11  21805639.114   114589158.961        1801.003          21.000  
G17  21890261.831   115033915.692       -1968.031          35.000  
G19  19998110.940   105090603.597        -697.828          23.000  
G22  23492681.898   123454650.951       -3224.061          26.000  
J02  37330300.714   196171794.721          66.189          40.000  
> 2025 05 21 04 36 47.0000425  0 13                     
C08  37121386.705   193300790.2311        990.987          11.000  
C19  22848328.637   118977015.477        1565.440          36.000  
C20  23996296.316   124954914.986       -1307.013          24.000  
C29  23485299.772   122294021.950       -1835.126          28.000  
C38  36360665.142   189339317.8291        743.924          18.000  
C40  35945087.140   187175375.741         -82.513          22.000  
E02  24262017.661   127497544.3971       -577.221           8.000  
G04  23484555.087   123412157.920         508.001          30.000  
G11  21805323.095   114587500.4361       1802.495          18.000  
G17  21890665.914   115036027.007       -1970.028          37.000  
G19  19998271.291   105091446.310        -699.340          24.000  
G22  23493326.415   123458017.450       -3222.731          22.000  
J02  37330316.866   196172138.339          67.299          36.000  
> 2025 05 21 04 36 47.9999815  0 13                     
C08  37121222.081   193299936.1321        996.462          12.000  
C19  22848057.288   118975592.439        1564.712          38.000  
C20  23996578.383   124956363.882       -1289.347          22.000  
C29  23485684.668   122296001.882       -1842.103          25.000  
C38  36360553.881   189338714.7811        744.476          18.000  
C40  35945128.774   187175600.263         -83.832          22.000  
E02  24262156.128   127498263.1601       -577.432           9.000  
G04  23484488.196   123411797.491         495.707          29.000  
G11  21805009.475   114585840.8321       1803.431          17.000  
G17  21891067.598   115038139.964       -1972.490          37.000  
G19  19998429.844   105092288.978        -701.520          24.000  
G22  23493967.334   123461380.433       -3215.417          20.000  
J02  37330331.818   196172211.176          73.786          33.000  
> 2025 05 21 04 36 48.9999204  0 14                     
C08  37121036.398   193298924.8591        997.302          13.000  
C19  22847753.486   118974013.783        1564.325          38.000  
C20  23996823.801   124957641.1631      -1293.196          20.000  
C29  23486038.610   122297832.785       -1845.994          27.000  
C38  36360408.669   189337954.0201        746.348          18.000  
C40  35945149.947   187175669.249         -84.217          22.000  
E02  24262259.444   127498823.9861       -577.392          16.000  
E16  27528427.822   144662864.3581      -3074.330           9.000  
G04  23484392.450   123411290.078         490.589          28.000  
G11  21804666.999   114584298.1011       1804.759          18.000  
G17  21891440.128   115040097.872       -1972.080          37.000  
G19  19998559.841   105092977.491        -701.396          27.000  
G22  23494576.699   123464577.633       -3210.954          25.000  
J02  37330317.315   196172120.428          77.005          31.000  
> 2025 05 21 04 36 49.9998594  0 14                     
C08  37120873.198   193298065.0881       1003.099          12.000  
C19  22847479.663   118972592.736        1563.817          37.000  
C20  23997102.196   124959077.3961      -1301.302          19.000  
C29  23486419.534   122299822.970       -1847.827          22.000  
C38  36360294.336   189337349.7331        747.579          18.000  
C40  35945197.801   187175897.564         -85.120          22.000  
E02  24262400.533   127499546.0621       -577.078          16.000  
E16  27529041.085   144666087.3121      -3074.444           3.000  
G04  23484325.783   123410941.036         494.671          30.000  
G11  21804355.702   114582637.1961       1806.186          18.000  
G17  21891842.936   115042212.634       -1972.932          37.000  
G19  19998719.818   105093822.211        -702.040          28.000  
G22  23495211.547   123467930.845       -3209.845          25.000  
J02  37330333.392   196172189.037          74.587          32.000  
> 2025 05 21 04 36 50.9997984  0 13                     
C08  37120711.516   193297205.7411       1002.085          13.000  
C19  22847211.255   118971172.338        1563.378          36.000  
C20  23997380.010   124960523.4811      -1321.555          19.000  
C29  23486807.072   122301815.0951      -1850.099          19.000  
C38  36360180.021   189336743.6021        748.615          18.000  
C40  35945242.976   187176127.094         -85.711          22.000  
E02  24262553.933   127500581.8321       -578.296          16.000  
G04  23484261.534   123410589.746         494.431          31.000  
G11  21804047.122   114580975.2021       1807.337          18.000  
G17  21892246.663   115044329.671       -1972.575          38.000  
G19  19998879.214   105094670.163        -702.623          25.000  
G22  23495847.014   123471283.932       -3211.066          25.000  
J02  37330348.587   196172260.098          72.940          33.000  
> 2025 05 21 04 36 51.9997373  0 13                     
C08  37120516.501   193296196.0281        996.347          13.000  
C19  22846906.816   118969596.433        1561.843          35.000  
C20  23997634.983   124961833.3491      -1326.311          19.000  
C29  23487161.876   122303652.8901      -1851.802          19.000  
C38  36360030.575   189335980.7021        749.509          18.000  
C40  35945259.315   187176199.790         -86.799          21.000  
E02  24262659.910   127501146.6361       -579.784          16.000  
G04  23484165.451   123410081.913         492.100          31.000  
G11  21803703.710   114579154.3341       1808.210          18.000  
G17  21892621.553   115046287.780       -1973.784          39.000  
G19  19999008.574   105095358.005        -703.633          25.000  
G22  23496459.939   123474481.428       -3213.481          27.000  
J02  37330331.649   196172173.359          73.763          34.000  
> 2025 05 21 04 36 52.9996763  0 14                     
C08  37120351.878   193295342.0381        995.640          13.000  
C19  22846638.164   118968439.823        1561.940          36.000  
C20  23997921.847   124963303.8571      -1330.468          19.000  
C29  23487540.776   122305642.094       -1836.292          27.000  
C38  36359916.016   189335371.9541        749.696          18.000  
C40  35945303.647   187176429.772         -88.592          21.000  
E02  24262798.077   127501869.2901       -578.098          16.000  
G04  23484100.958   123409731.944         494.006          31.000  
G06  20662167.741   108580518.8561          3.725          13.000  
G11  21803390.090   114577489.4391       1808.269          18.000  
G17  21893027.435   115048403.859       -1973.330          37.000  
G19  19999169.526   105096205.140        -703.694          26.000  
G22  23497101.458   123477839.436       -3214.899          27.000  
J02  37330346.002   196172244.504          71.377          34.000  
> 2025 05 21 04 36 53.9996152  0 15                     
C08  37120163.214   193294332.2311        995.118          13.000  
C19  22846336.179   118966863.445        1562.325          36.000  
C20  23998178.975   124964619.6691      -1334.725          19.000  
C26  25486194.943   132713304.6571      -2243.743          15.000  
C29  23487897.736   122307464.701       -1842.979          22.000  
C38  36359770.523   189334606.6641        750.067          18.000  
C40  35945314.945   187176504.138         -89.234          22.000  
E02  24262901.112   127502431.1961       -577.699          15.000  
G04  23484005.230   123409221.268         495.671          31.000  
G06  20662170.646   108580499.7791          3.241          10.000  
G11  21803045.834   114575666.6321       1808.761          18.000  
G17  21893399.384   115050361.036       -1973.627          38.000  
G19  19999301.041   105096894.452        -703.620          27.000  
G22  23497711.142   123481305.239       -3216.111          25.000  
J02  37330329.719   196172158.969          70.947          33.000  
> 2025 05 21 04 36 54.9995542  0 15                     
C08  37120002.975   193293478.5641        995.101          12.000  
C19  22846067.116   118965443.752        1560.758          36.000  
C20  23998467.825   124966097.2151      -1338.978          19.000  
C26  25486659.472   132715690.0501      -2243.962          13.000  
C29  23488285.817   122309449.174       -1842.770          20.000  
C38  36359655.553   189334267.5971        750.885          18.000  
C40  35945358.565   187176734.796         -91.334          21.000  
E02  24263036.168   127503150.4651       -578.875          15.000  
G04  23483940.925   123408868.608         491.995          32.000  
G06  20662202.873   108580638.4401          3.058          14.000  
G11  21802729.703   114574000.7341       1808.380          18.000  
G17  21893803.054   115052478.340       -1974.269          38.000  
G19  19999462.179   105097742.324        -705.702          26.000  
G22  23498352.848   123484663.322       -3214.155          28.000  
J02  37330346.058   196172230.118          72.071          33.000  
> 2025 05 21 04 36 55.9994932  0 15                     
C08  37119839.607   193292621.7111       1000.454          12.000  
C19  22845797.321   118964026.888        1559.985          36.000  
C20  23998752.947   124967581.1071      -1342.240          18.000  
C26  25487124.169   132718077.9371      -2243.630          13.000  
C29  23488668.970   122311435.955       -1842.842          22.000  
C38  36359544.049   189333659.1681        751.899          18.000  
C40  35945402.353   187176969.441         -90.603          21.000  
E02  24263168.096   127503873.6041       -579.041          15.000  
G04  23483875.589   123408521.807         490.044          31.000  
G06  20662232.572   108580780.0421          1.785          16.000  
G11  21802414.940   114572338.0281       1807.530          18.000  
G17  21894207.193   115054595.679       -1974.919          38.000  
G19  19999622.887   105098593.609        -705.662          24.000  
G22  23498993.223   123488019.637       -3213.923          31.000  
J02  37330362.265   196172302.478          73.226          32.000  
> 2025 05 21 04 36 57.0004321  0 15                     
C08  37119665.671   193291703.2921        999.669          13.000  
C19  22845510.064   118962547.645        1560.991          35.000  
C20  23999026.901   124969007.3111      -1345.714          14.000  
C26  25487577.698   132720406.5271      -2243.792          13.000  
C29  23489031.963   122313363.613       -1843.730          27.000  
C38  36359419.279   189332987.9831        752.495          18.000  
C40  35945435.574   187177143.111         -90.181          22.000  
E02  24263292.453   127504535.6751       -580.005          15.000  
G04  23483798.186   123408112.716         491.450          31.000  
G06  20662252.302   108580861.9321          0.432          16.000  
G11  21802090.208   114570613.391        1805.386          21.000  
G17  21894600.765   115056655.425       -1974.449          37.000  
G19  19999775.725   105099385.103        -707.690          23.000  
G22  23499623.031   123491320.256       -3215.750          31.000  
J02  37330364.907   196172313.013          71.579          34.000  
> 2025 05 21 04 36 58.0003710  0 15                     
C08  37119473.148   193290690.1331        998.398          12.000  
C19  22845207.217   118960973.219        1559.028          35.000  
C20  23999280.469   124970320.0521      -1327.455          16.000  
C26  25488010.842   132722636.3171      -2243.956          14.000  
C29  23489381.465   122315192.472       -1841.975          25.000  
C38  36359271.725   189332220.7161        751.647          18.000  
C40  35945447.809   187177218.092         -87.422          21.000  
E02  24263404.819   127505101.5741       -580.436          15.000  
G04  23483703.096   123407603.824         495.921          32.000  
G06  20662249.847   108580847.9081         -1.657          16.000  
G11  21801746.890   114568793.802        1805.289          21.000  
G17  21894976.048   115058613.536       -1974.578          36.000  
G19  19999909.376   105100077.005        -707.071          26.000  
G22  23500234.851   123494521.904       -3219.047          30.000  
J02  37330347.463   196172227.183          69.952          33.000  
> 2025 05 21 04 36 59.0003100  0 15                     
C08  37119309.799   193289835.0861        996.568          12.000  
C19  22844937.741   118959556.901        1559.011          35.000  
C20  23999563.211   124971790.3821      -1330.458          16.000  
C26  25488480.055   132725020.8041      -2243.804          14.000  
C29  23489759.540   122317175.452       -1841.298          26.000  
C38  36359153.045   189331611.296         750.351          21.000  
C40  35945492.216   187177446.964         -87.496          21.000  
E02  24263540.663   127505825.2711       -581.632          15.000  
G04  23483636.879   123407248.403         499.117          32.000  
G06  20662283.162   108580993.9671         -2.817          17.000  
G11  21801432.445   114567132.985        1803.713          22.000  
G17  21895379.607   115060995.813       -1974.153          36.000  
G19  20000072.800   105100927.506        -706.848          26.000  
G22  23500876.444   123497883.968       -3221.532          30.000  
J02  37330364.889   196172302.693          67.635          33.000  
> 2025 05 21 04 37 00.0002490  0 15                     
C08  37119147.499   193288978.7951        996.098          12.000  
C19  22844670.514   118958138.644        1557.883          37.000  
C20  23999844.004   124973254.4561      -1326.399          19.000  
C26  25488947.019   132727404.9181      -2243.804          14.000  
C29  23490143.462   122319157.145       -1843.942          28.000  
C38  36359035.713   189331000.2841        749.951          19.000  
C40  35945539.771   187177673.975         -85.715          21.000  
E02  24263688.348   127506547.0321       -582.562          15.000  
G04  23483571.112   123406893.006         491.264          31.000  
G06  20662314.228   108581136.6951         -3.978          16.000  
G11  21801119.949   114565471.189        1802.204          21.000  
G17  21895782.715   115063111.283       -1975.379          37.000  
G19  20000234.876   105101775.675        -707.223          26.000  
G22  23501516.389   123501245.377       -3219.190          28.000  
J02  37330377.967   196172375.338          70.467          31.000  
> 2025 05 21 04 37 01.0001879  0 15                     
C08  37118952.671   193287971.1541        995.225          12.000  
C19  22844369.260   118956568.294        1557.557          38.000  
C20  24000097.366   124974569.0041      -1330.204          19.000  
C26  25489384.754   132729915.2761      -2243.417          15.000  
C29  23490492.158   122320990.553       -1847.423          25.000  
C38  36358887.054   189330237.4821        749.928          19.000  
C40  35945550.601   187177746.482         -84.335          22.000  
E02  24263793.313   127507116.8041       -581.728          15.000  
G04  23483475.516   123406391.026         486.393          30.000  
G06  20662314.565   108581128.7471         -4.734          16.000  
G11  21800777.024   114563656.989        1802.006          20.000  
G17  21896160.191   115065073.792       -1976.604          38.000  
G19  20000372.218   105102471.838        -707.779          28.000  
G22  23502126.204   123504448.764       -3214.969          27.000  
J02  37330361.216   196172290.520          74.388          31.000  
> 2025 05 21 04 37 02.0001269  0 15                     
C08  37118788.985   193287120.6861        993.821          12.000  
C19  22844098.847   118955154.683        1557.684          38.000  
C20  24000379.770   124976043.6641      -1334.138          18.000  
C26  25489853.629   132732301.4861      -2243.303          16.000  
C29  23490873.794   122322983.929       -1847.993          25.000  
C38  36358770.434   189329631.189         748.564          22.000  
C40  35945592.572   187177975.297         -85.547          25.000  
E02  24263927.920   127507842.5551       -582.275          15.000  
G04  23483414.358   123406049.603         486.118          29.000  
G06  20662347.542   108581276.0461         -4.448          16.000  
G11  21800461.942   114562000.8441       1800.740          15.000  
G17  21896567.609   115067193.552       -1976.326          37.000  
G19  20000542.500   105103325.127        -707.429          27.000  
G22  23502760.265   123507806.947       -3212.919          30.000  
J02  37330373.508   196172361.390          73.012          33.000  
> 2025 05 21 04 37 03.0000659  0 15                     
C08  37118628.521   193286268.6961        994.266          13.000  
C19  22843828.959   118953739.101        1557.054          38.000  
C20  24000663.899   124977519.6231      -1334.805          18.000  
C26  25490321.530   132734686.1931      -2242.483          16.000  
C29  23491269.145   122324972.873       -1846.226          26.000  
C38  36358653.141   189329023.740         747.579          22.000  
C40  35945635.367   187178203.003         -85.448          24.000  
E02  24264066.948   127508567.9091       -583.086          15.000  
G04  23483351.626   123405704.963         487.553          30.000  
G06  20662374.448   108581423.4711         -4.315          15.000  
G11  21800149.483   114560343.8041       1799.972          15.000  
G17  21896973.153   115069313.132       -1976.499          37.000  
G19  20000708.810   105104175.987        -708.831          26.000  
G22  23503397.249   123511162.103       -3213.054          29.000  
J02  37330387.823   196172431.452          72.738          33.000  
> 2025 05 21 04 37 04.0000048  0 15                     
C08  37118436.579   193285260.1051        994.305          13.000  
C19  22843526.993   118952168.322        1556.118          37.000  
C20  24000910.553   124978837.912       -1333.288          24.000  
C26  25490755.255   132736913.6581      -2242.024          17.000  
C29  23491624.324   122326802.257       -1843.951          25.000  
C38  36358510.065   189328261.439         746.721          23.000  
C40  35945643.386   187178273.455         -84.775          24.000  
E02  24264181.094   127509136.6591       -584.131          15.000  
G04  23483258.616   123405202.555         486.414          31.000  
G06  20662373.174   108581413.3521         -4.427          15.000  
G11  21799805.546   114558529.8971       1798.722          15.000  
G17  21897347.819   115071274.450       -1977.458          37.000  
G19  20000841.843   105104871.469        -710.882          26.000  
G22  23504005.453   123514359.354       -3213.544          29.000  
J02  37330369.760   196172344.936          72.582          32.000  
> 2025 05 21 04 37 04.9999438  0 15                     
C08  37118275.403   193284406.4601        995.057          13.000  
C19  22843257.892   118950753.412        1556.276          37.000  
C20  24001193.070   124980311.091       -1332.562          26.000  
C26  25491221.545   132739295.634       -2241.936          22.000  
C29  23492007.572   122328791.234       -1847.703          29.000  
C38  36358400.153   189327655.042         746.443          23.000  
C40  35945683.071   187178500.916         -86.218          23.000  
E02  24264321.810   127509861.3231       -585.373          15.000  
G04  23483195.472   123404857.363         485.722          30.000  
G06  20662404.765   108581558.4321         -3.816          15.000  
G11  21799492.675   114556874.0781       1798.013          13.000  
G17  21897751.752   115073392.521       -1977.221          37.000  
G19  20001005.342   105105992.272        -709.493          26.000  
G22  23504645.622   123517714.992       -3213.883          29.000  
J02  37330382.164   196172414.283          73.658          33.000  
> 2025 05 21 04 37 05.9998828  0 14                     
C08  37118114.808   193283555.9291        994.720          13.000  
C19  22842988.472   118949342.054        1555.630          38.000  
C20  24001480.365   124981784.476       -1331.016          27.000  
C26  25491685.417   132741681.763       -2243.068          22.000  
C29  23492398.894   122331085.761       -1848.098          26.000  
C38  36358286.326   189327052.710         745.170          22.000  
C40  35945721.838   187178732.413         -87.275          23.000  
E02  24264458.009   127510591.8271       -585.872          15.000  
G04  23483131.110   123404516.693         485.827          29.000  
G06  20662434.238   108581706.9781         -3.884          15.000  
G17  21898156.565   115075515.384       -1977.654          37.000  
G19  20001165.825   105106847.416        -708.203          27.000  
G22  23505284.874   123521073.339       -3214.260          28.000  
J02  37330396.348   196172486.180          73.586          31.000  
> 2025 05 21 04 37 06.9998217  0 14                     
C08  37117924.065   193282545.2791        995.015          14.000  
C19  22842686.806   118947771.356        1554.474          37.000  
C20  24001735.113   124983098.543       -1331.258          27.000  
C26  25492117.343   132743909.165       -2244.118          21.000  
C29  23492752.275   122332917.564       -1849.028          25.000  
C38  36358142.950   189326290.903         744.896          22.000  
C40  35945735.854   187178803.065         -87.592          22.000  
E02  24264564.960   127511160.7111       -585.579          15.000  
G04  23483036.901   123404015.064         483.792          29.000  
G06  20662433.863   108581692.0311         -3.387          15.000  
G17  21898531.531   115077474.644       -1978.323          36.000  
G19  20001297.659   105107540.375        -709.237          26.000  
G22  23505892.178   123524269.781       -3214.788          27.000  
J02  37330379.785   196172397.512          72.062          27.000  
> 2025 05 21 04 37 07.9997607  0 14                     
C08  37117757.474   193281693.8711        996.231          14.000  
C19  22842416.786   118946361.117        1554.535          36.000  
C20  24002014.314   124984574.293       -1331.647          26.000  
C26  25492580.017   132746296.323       -2243.866          21.000  
C29  23493133.704   122334911.493       -1846.112          27.000  
C38  36358030.022   189325689.655         744.568          23.000  
C40  35945777.618   187179035.360         -88.110          22.000  
E02  24264702.359   127511892.8491       -586.856          15.000  
G04  23482973.738   123403676.015         482.953          29.000  
G06  20662466.035   108581839.5611         -2.226          15.000  
G17  21898936.644   115079597.101       -1977.410          36.000  
G19  20001456.043   105108395.385        -711.086          26.000  
G22  23506531.429   123527629.576       -3214.516          27.000  
J02  37330396.667   196172471.591          71.025          28.000  
> 2025 05 21 04 37 08.9996997  0 15                     
C08  37117589.084   193280838.8231        996.143          15.000  
C19  22842145.868   118944947.826        1554.843          36.000  
C20  24002295.613   124986044.553       -1329.488          25.000  
C26  25493045.688   132748978.460       -2243.830          21.000  
C29  23493519.331   122336898.049       -1847.791          28.000  
C38  36357917.993   189325085.545         744.896          22.000  
C40  35945823.580   187179262.784         -87.237          22.000  
E02  24264839.158   127512619.7671       -584.887          15.000  
G04  23482911.175   123403334.717         481.576          28.000  
G06  20662494.309   108581982.7331         -1.384          15.000  
G11  21798200.176   114550314.8541       1799.968          22.000  
G17  21899339.659   115081716.450       -1978.643          36.000  
G19  20001617.724   105109249.297        -711.553          25.000  
G22  23507171.580   123530984.261       -3214.651          27.000  
J02  37330412.350   196172542.749          71.633          28.000  
> 2025 05 21 04 37 09.9996386  0 16                     
C08  37117394.893   193279827.3561        996.300          15.000  
C19  22841844.651   118943379.023        1552.881          36.000  
C20  24002558.306   124987360.110       -1330.708          22.000  
C26  25493476.265   132751205.091       -2242.315          21.000  
C29  23493875.859   122338733.266       -1849.714          27.000  
C38  36357773.269   189324324.142         744.821          24.000  
C40  35945838.045   187179335.892         -87.592          23.000  
E02  24264947.158   127513188.1181       -585.758          15.000  
E16  27541192.460   144729942.8331      -3074.681           3.000  
G04  23482817.715   123402837.117         482.182          29.000  
G06  20662491.386   108581967.5171         -0.163          15.000  
G11  21797856.089   114548498.503        1800.060          21.000  
G17  21899712.975   115083680.787       -1980.421          36.000  
G19  20001749.408   105109946.985        -714.081          22.000  
G22  23507784.131   123534183.039       -3215.365          28.000  
J02  37330398.034   196172455.875          71.490          29.000  
> 2025 05 21 04 37 10.9995776  0 15                     
C08  37117231.956   193278974.0291        996.126          15.000  
C19  22841575.288   118941969.401        1552.829          37.000  
C20  24002833.665   124988832.743       -1331.550          22.000  
C26  25493937.795   132753589.744       -2243.222          20.000  
C29  23494258.844   122340724.877       -1848.591          25.000  
C38  36357655.300   189323721.453         744.652          23.000  
C40  35945888.860   187179566.609         -88.278          23.000  
E02  24265084.913   127513918.7651       -586.743          15.000  
G04  23482751.910   123402497.415         483.087          29.000  
G06  20662520.916   108582109.6841          1.634          15.000  
G11  21797542.057   114546841.928        1799.690          22.000  
G17  21900116.646   115085803.844       -1979.331          36.000  
G19  20001911.746   105110806.652        -715.202          24.000  
G22  23508426.736   123537542.775       -3215.581          28.000  
J02  37330412.574   196172528.148          72.450          30.000  
> 2025 05 21 04 37 11.9995166  0 15                     
C08  37117072.279   193278120.7411        996.403          16.000  
C19  22841303.788   118940559.873        1551.402          37.000  
C20  24003115.283   124990306.3391      -1332.270          18.000  
C26  25494397.190   132755974.1941      -2242.763          20.000  
C29  23494644.490   122342715.590       -1846.360          22.000  
C38  36357541.791   189323118.548         744.884          22.000  
C40  35945927.046   187179798.236         -89.091          22.000  
E02  24265222.030   127514649.7761       -590.413          15.000  
G04  23482687.867   123402158.815         481.050          30.000  
G06  20662548.309   108582250.1271          3.452          15.000  
G11  21797228.586   114545186.486        1797.337          23.000  
G17  21900520.879   115087925.049       -1980.291          35.000  
G19  20002074.346   105111665.118        -716.181          26.000  
G22  23509071.402   123540900.140       -3215.825          30.000  
J02  37330429.175   196172600.287          72.574          30.000  
> 2025 05 21 04 37 12.9994555  0 16                     
C08  37116878.426   193277110.9461        996.380          16.000  
C19  22841003.209   118938995.273        1551.386          36.000  
C20  24003373.217   124991625.182       -1333.455          21.000  
C26  25494827.504   132758202.9271      -2242.655          14.000  
C29  23494994.460   122344548.261       -1845.592          22.000  
C38  36357399.502   189322359.250         745.271          21.000  
C40  35945944.247   187179874.5181        -90.488          17.000  
E02  24265337.563   127515226.2211       -591.410          15.000  
G04  23482590.847   123401663.380         481.090          32.000  
G06  20662546.023   108582231.6691          4.523          15.000  
G09  22821730.451   119929002.9421       2116.458          26.000  
G11  21796883.937   114543375.376        1796.346          24.000  
G17  21900894.233   115089892.164       -1980.154          34.000  
G19  20002207.866   105112369.119        -716.202          26.000  
G22  23509684.890   123544101.673       -3216.488          30.000  
J02  37330416.097   196172514.672          71.414          30.000  
> 2025 05 21 04 37 14.0003944  0 16                     
C08  37116704.959   193276193.7721        996.336          16.000  
C19  22840726.913   118937522.961        1551.072          37.000  
C20  24003657.532   124993343.766       -1334.551          26.000  
C26  25495280.004   132760527.2841      -2242.777          18.000  
C29  23495359.420   122346476.384       -1847.248          24.000  
C38  36357271.903   189321692.436         745.551          21.000  
C40  35945980.934   187180045.6001        -91.161          18.000  
E02  24265462.988   127515896.3941       -589.417          15.000  
G04  23482513.613   123401260.895         481.709          30.000  
G06  20662559.626   108582306.6961          5.865          15.000  
G09  22821343.232   119926965.456        2116.861          25.000  
G11  21796554.878   114541658.200        1794.846          22.000  
G17  21901288.872   115091953.838       -1980.676          37.000  
G19  20002359.973   105113166.606        -716.065          27.000  
G22  23510313.967   123547401.574       -3217.540          31.000  
J02  37330418.308   196172524.337          70.829          31.000  
> 2025 05 21 04 37 15.0003334  0 16                     
C08  37116548.636   193275608.2251        996.229          16.000  
C19  22840455.769   118936117.727        1548.995          38.000  
C20  24003947.301   124994823.893       -1335.529          25.000  
C26  25495738.855   132762912.1471      -2242.211          19.000  
C29  23495738.226   122348467.382       -1847.863          23.000  
C38  36357151.855   189321091.211         745.357          24.000  
C40  35946038.063   187180282.594         -91.483          21.000  
E02  24265607.957   127516632.9281       -591.040          15.000  
G04  23482450.825   123400925.901         479.222          31.000  
G06  20662586.477   108582445.5811          6.351          14.000  
G09  22820976.454   119924994.614        2116.169          26.000  
G11  21796244.162   114540007.686        1796.218          24.000  
G17  21901696.758   115094079.450       -1982.225          37.000  
G19  20002524.128   105114027.889        -716.511          26.000  
G22  23510955.692   123550764.958       -3217.254          31.000  
J02  37330435.265   196172599.469          71.071          30.000  
> 2025 05 21 04 37 16.0002724  0 17                     
C08  37116391.338   193274753.4501        995.810          16.000  
C19  22840186.049   118934709.367        1549.557          38.000  
C20  24004234.895   124996299.623       -1336.567          23.000  
C26  25496197.631   132765294.4361      -2241.471          18.000  
C29  23496119.057   122350456.318       -1848.153          25.000  
C38  36357035.030   189320486.124         744.821          24.000  
C40  35946087.323   187180514.297         -91.132          20.000  
E02  24265744.156   127517364.8501       -591.317           7.000  
E16  27544660.610   144748168.9451      -3084.083          17.000  
G04  23482389.761   123400588.870         477.583          31.000  
G06  20662612.652   108582580.9061          7.589          14.000  
G09  22820604.206   119923021.133        2115.885          26.000  
G11  21795932.771   114538352.361        1797.718          26.000  
G17  21902100.373   115096202.827       -1981.113          38.000  
G19  20002688.208   105114887.840        -716.233          22.000  
G22  23511597.941   123554121.647       -3216.391          30.000  
J02  37330451.248   196172670.548          71.961          32.000  
> 2025 05 21 04 37 17.0002113  0 19                     
C07  35672270.944   185754875.3501       -107.097          20.000  
C08  37116199.134   193273746.0411        994.851          15.000  
C13  38047205.511   198121783.1211       1100.445          17.000  
C19  22839889.517   118933147.925        1548.635          38.000  
C20  24004490.581   124997622.944       -1337.202          23.000  
C26  25496631.093   132767521.4621      -2240.972          17.000  
C29  23496478.470   122352292.811       -1849.767          30.000  
C38  36356888.394   189319727.300         745.054          23.000  
C40  35946103.474   187180592.385         -90.999          21.000  
E02  24265855.342   127517943.2661       -591.976           6.000  
E16  27545237.972   144751238.9961      -3083.921          16.000  
G04  23482296.488   123400097.290         478.523          33.000  
G06  20662614.114   108582561.0841          6.654          15.000  
G09  22820197.650   119920893.025        2115.287          24.000  
G11  21795588.872   114536539.267        1800.643          23.000  
G17  21902476.875   115098171.504       -1982.134          39.000  
G19  20002822.778   105115590.444        -716.452          23.000  
G22  23512211.578   123557325.272       -3216.907          30.000  
J02  37330435.321   196172585.512          70.560          32.000  
> 2025 05 21 04 37 18.0001503  0 19                     
C07  35672315.407   185755122.1721       -108.088          16.000  
C08  37116044.535   193272890.8111        994.972          15.000  
C13  38047030.526   198120822.1311       1100.910          15.000  
C19  22839623.095   118931739.061        1548.402          38.000  
C20  24004772.779   124999099.620       -1338.231          21.000  
C26  25497096.165   132769900.9631      -2241.265          17.000  
C29  23496864.996   122354281.802       -1851.276          29.000  
C38  36356767.671   189319121.100         743.962          25.000  
C40  35946156.931   187180822.924         -90.061          25.000  
E02  24265997.537   127518674.5491       -592.618           7.000  
E16  27545839.150   144754462.7291      -3083.599          16.000  
G04  23482235.724   123399758.956         477.877          34.000  
G06  20662640.289   108582695.1691          6.774          15.000  
G09  22819822.403   119918918.908        2114.717          26.000  
G11  21795274.483   114534877.497        1802.354          22.000  
G17  21902882.587   115100293.138       -1982.406          39.000  
G19  20002991.355   105116448.033        -717.671          29.000  
G22  23512850.230   123560682.002       -3217.067          29.000  
J02  37330448.306   196172656.489          69.161          31.000  
> 2025 05 21 04 37 19.0000893  0 19                     
C07  35672362.362   185755372.0881       -108.172          15.000  
C08  37115884.333   193272038.9961        995.076          10.000  
C13  38046857.134   198119864.1761       1100.959          14.000  
C19  22839354.969   118930334.021        1548.517          37.000  
C20  24005063.765   125000578.9711      -1339.031          19.000  
C26  25497550.538   132772285.4871      -2242.146          17.000  
C29  23497250.417   122356274.888       -1849.030          24.000  
C38  36356654.537   189318519.408         743.952          26.000  
C40  35946205.984   187181326.835         -89.612          24.000  
E02  24266140.426   127519428.9191       -593.089           5.000  
E16  27546445.817   144757690.3431      -3083.460          16.000  
G04  23482174.454   123399424.781         477.802          34.000  
G06  20662670.156   108582833.1021          6.768          15.000  
G09  22819447.550   119916949.266        2113.998          25.000  
G11  21794961.387   114533219.863        1800.163          22.000  
G17  21903289.893   115102417.914       -1982.494          38.000  
G19  20003160.925   105117311.956        -718.750          30.000  
G22  23513488.376   123564042.523       -3216.456          29.000  
J02  37330464.082   196172731.025          70.185          28.000  
> 2025 05 21 04 37 20.0000282  0 17                     
C07  35672377.952   185755466.3321       -108.172          14.000  
C08  37115692.466   193271031.9861        994.385           9.000  
C13  38046652.975   198118750.9321       1100.860          13.000  
C19  22839056.075   118928773.259        1547.871          38.000  
C20  24005319.188   125001906.2161      -1339.670          18.000  
C26  25497983.738   132774513.4441      -2242.796          17.000  
C29  23497602.973   122358110.392       -1847.600          24.000  
C38  36356511.836   189317762.448         743.047          26.000  
C40  35946217.377   187181403.434         -88.453          21.000  
E16  27547025.916   144760759.1711      -3083.399          16.000  
G04  23482080.019   123398934.472         476.716          33.000  
G09  22819045.229   119914822.833        2114.115          25.000  
G11  21794618.425   114531406.888        1798.854          24.000  
G17  21903664.933   115104387.896       -1982.427          38.000  
G19  20003300.628   105118017.832        -719.133          30.000  
G22  23514097.254   123567244.305       -3216.913          31.000  
J02  37330447.294   196172646.925          72.793          27.000  
> 2025 05 21 04 37 20.9999672  0 18                     
C07  35672426.780   185755715.4801       -107.762          14.000  
C08  37115528.442   193270178.0851        994.385          10.000  
C13  38046479.958   198117790.5511       1100.544          13.000  
C19  22838783.826   118927366.360        1546.340          37.000  
C20  24005608.151   125003383.758       -1340.245          21.000  
C26  25498440.584   132776896.0451      -2242.788          17.000  
C29  23497988.169   122360099.018       -1847.410          27.000  
C38  36356392.781   189317158.748         743.038          27.000  
C40  35946259.010   187181633.333         -88.091          21.000  
E02  24266459.967   127521107.3801       -592.069          12.000  
E16  27547636.556   144763984.5621      -3083.299          16.000  
G04  23482016.426   123398598.821         475.628          33.000  
G09  22818665.954   119912850.431        2114.459          24.000  
G11  21794303.605   114529749.039        1798.223          22.000  
G17  21904072.314   115106510.074       -1983.415          39.000  
G19  20003461.879   105118878.537        -718.542          26.000  
G22  23514736.674   123570601.896       -3217.281          32.000  
J02  37330460.747   196172716.034          72.384          30.000  
> 2025 05 21 04 37 21.9999061  0 18                     
C07  35672436.093   185755810.2061       -106.737          13.000  
C08  37115336.294   193269173.1031        994.156          10.000  
C13  38046271.920   198116679.7801       1099.578          13.000  
C19  22838484.053   118925809.341        1546.685          36.000  
C20  24005868.689   125004713.0981      -1341.377          20.000  
C26  25498867.807   132779127.3761      -2243.201          17.000  
C29  23498334.748   122361937.034       -1850.200          29.000  
C38  36356252.197   189316404.500         743.064          28.000  
C40  35946274.019   187181708.907         -87.066          21.000  
E02  24266564.913   127521688.2211       -592.754          15.000  
E16  27548223.268   144767055.5851      -3082.983           9.000  
G04  23481925.008   123398112.350         473.846          33.000  
G09  22818260.353   119910725.349        2114.467          20.000  
G11  21793959.462   114527939.925        1796.407          21.000  
G17  21904449.172   115108481.753       -1984.874          38.000  
G19  20003597.704   105119586.597        -719.604          26.000  
G22  23515352.167   123573806.751       -3217.401          32.000  
J02  37330448.475   196172634.923          69.868          32.000  
> 2025 05 21 04 37 22.9998451  0 18                     
C07  35672483.385   185756053.3071       -101.074          12.000  
C08  37115173.731   193268320.9181        993.981          10.000  
C13  38046087.173   198115727.6121       1093.672          12.000  
C19  22838215.064   118924404.967        1545.978          37.000  
C20  24006155.216   125006195.6841      -1342.579          18.000  
C26  25499326.415   132781510.5771      -2243.777          17.000  
C29  23498725.602   122363931.215       -1851.211          26.000  
C38  36356139.400   189315802.274         742.470          28.000  
C40  35946316.514   187181938.956         -87.689          21.000  
E02  24266694.049   127522423.9331       -594.009          16.000  
E16  27548839.566   144770280.5981      -3083.046           9.000  
G04  23481861.677   123397780.483         474.481          32.000  
G09  22817885.538   119908754.7371       2113.667          19.000  
G11  21793645.804   114526285.747        1796.895          22.000  
G17  21904856.515   115110609.347       -1984.032          38.000  
G19  20003763.414   105120450.282        -722.683          26.000  
G22  23515995.147   123577167.310       -3217.673          32.000  
J02  37330463.689   196172707.375          70.175          32.000  
> 2025 05 21 04 37 23.9997841  0 18                     
C07  35672531.633   185756293.2491       -101.716          12.000  
C08  37115007.627   193267455.4241       1006.418          10.000  
C13  38045907.279   198114774.6361       1093.588          12.000  
C19  22837946.431   118923000.392        1544.475          37.000  
C20  24006444.197   125007679.6931      -1361.603          18.000  
C26  25499785.978   132783895.5901      -2244.934          17.000  
C29  23499118.911   122365923.700       -1852.357          25.000  
C38  36356029.057   189315199.084         742.464          28.000  
C40  35946363.263   187182167.145         -88.285          21.000  
E02  24266824.440   127523161.1781       -594.640          16.000  
E16  27549456.521   144773504.1981      -3083.298          10.000  
G04  23481801.699   123397447.947         472.598          32.000  
G09  22817510.479   119906783.3441       2113.086          18.000  
G11  21793334.601   114524629.896        1796.805          22.000  
G17  21905263.614   115112735.158       -1985.427          38.000  
G19  20003926.482   105121314.967        -722.443          26.000  
G22  23516636.384   123580526.129       -3218.231          33.000  
J02  37330479.559   196172779.657          69.613          32.000  
> 2025 05 21 04 37 24.9997230  0 18                     
C07  35672552.131   185756382.0001       -102.564          12.000  
C08  37114813.474   193266437.7921       1005.761          10.000  
C13  38045698.736   198113936.4611       1093.320          11.000  
C19  22837651.248   118921444.390        1544.831          38.000  
C20  24006707.827   125009028.6651      -1362.537          13.000  
C26  25500212.995   132786127.5421      -2245.378          17.000  
C29  23499476.076   122367764.923       -1852.774          23.000  
C38  36355887.068   189314443.335         742.352          26.000  
C40  35946375.367   187182244.715         -88.346          21.000  
E02  24266930.978   127523743.9631       -595.341          17.000  
E16  27550044.226   144776573.9771      -3083.231          10.000  
G04  23481711.275   123397225.353         473.625          32.000  
G09  22817106.171   119904658.7311       2112.440          19.000  
G11  21792990.552   114522819.660        1798.034          23.000  
G17  21905641.165   115114706.545       -1984.935          39.000  
G19  20004061.801   105122025.876        -720.913          25.000  
G22  23517249.872   123583730.940       -3217.946          35.000  
J02  37330464.082   196172697.741          69.159          32.000  
> 2025 05 21 04 37 25.9996620  0 18                     
C07  35672597.906   185756628.1981       -106.726          12.000  
C08  37114648.195   193265572.3811       1005.391          10.000  
C13  38045516.368   198112983.3001       1093.503          11.000  
C19  22837387.037   118920039.333        1545.161          39.000  
C20  24006998.232   125010530.7401      -1363.250          12.000  
C26  25500670.984   132788512.7821      -2245.976          17.000  
C29  23499856.119   122369755.361       -1850.693          25.000  
C38  36355766.758   189313840.650         743.001          25.000  
C40  35946419.943   187182472.103         -88.560          21.000  
E02  24267074.485   127524480.0291       -592.111          16.000  
E16  27550663.804   144779796.9251      -3083.511           9.000  
G04  23481650.623   123396891.912         473.244          33.000  
G09  22816731.337   119902687.9751       2111.978          19.000  
G11  21792677.175   114521163.657        1795.353          23.000  
G17  21906046.990   115116832.201       -1985.158          39.000  
G19  20004227.193   105122887.900        -721.008          26.000  
G22  23517891.933   123587355.843       -3218.529          33.000  
J02  37330476.580   196172769.083          70.297          31.000  
> 2025 05 21 04 37 26.9996010  0 18                     
C07  35672645.797   185756875.8371       -107.229          11.000  
C08  37114483.534   193264708.9851       1005.046          10.000  
C13  38045334.319   198112031.4781       1093.987          11.000  
C19  22837120.447   118918636.710        1544.263          39.000  
C20  24007288.656   125012034.0361      -1343.184          12.000  
C26  25501128.093   132790899.5281      -2246.298          17.000  
C29  23500234.083   122371748.171       -1850.868          28.000  
C38  36355647.665   189313238.509         742.744          26.000  
C40  35946462.738   187182702.889         -88.685          21.000  
E02  24267221.908   127525216.0101       -596.075          16.000  
E16  27551283.400   144783023.4291      -3083.376           9.000  
G04  23481589.390   123396561.852         472.158          32.000  
G09  22816358.020   119900719.605        2110.900          23.000  
G11  21792360.519   114519511.045        1794.673          22.000  
G17  21906452.835   115118959.311       -1983.902          38.000  
G19  20004392.004   105123751.650        -721.041          25.000  
G22  23518533.115   123590717.526       -3218.207          33.000  
J02  37330491.495   196172840.922          71.244          33.000  
> 2025 05 21 04 37 27.9995399  0 17                     
C07  35672666.371   185756970.3581       -107.568          11.000  
C08  37114288.856   193263691.4351       1004.471           9.000  
C13  38045119.855   198110918.8281       1100.858          10.000  
C19  22836822.940   118917079.988        1543.187          38.000  
C20  24007543.367   125013362.5541      -1339.247          13.000  
C29  23500586.826   122373584.974       -1849.384          27.000  
C38  36355500.055   189312483.315         740.888          26.000  
C40  35946477.615   187182778.735         -89.255          24.000  
E02  24267339.015   127525798.6101       -596.273          16.000  
E16  27551874.478   144786091.8731      -3083.443           9.000  
G04  23481496.642   123396075.763         472.141          33.000  
G09  22815954.987   119898596.352        2110.269          24.000  
G11  21792016.844   114517702.570        1794.391          22.000  
G17  21906828.962   115120929.491       -1986.208          38.000  
G19  20004526.798   105124460.325        -722.744          28.000  
G22  23519144.579   123593921.394       -3217.610          31.000  
J02  37330476.693   196172757.453          69.556          33.000  
> 2025 05 21 04 37 28.9994789  0 17                     
C07  35672718.891   185757217.9561       -107.713          12.000  
C08  37114124.926   193262829.6901       1003.806           9.000  
C13  38044936.738   198109960.0381       1101.641          10.000  
C19  22836555.582   118915679.841        1541.523          38.000  
C20  24007827.627   125014844.0291      -1340.392          12.000  
C29  23500975.713   122375576.633       -1848.936          24.000  
C38  36355386.490   189311884.316         740.993          27.000  
C40  35946526.238   187183011.422         -89.551          24.000  
E02  24267479.973   127526539.3951       -597.241          16.000  
E16  27552493.905   144789317.1571      -3083.424           9.000  
G04  23481436.140   123395747.976         469.473          33.000  
G09  22815580.003   119896630.586        2108.342          26.000  
G11  21791700.020   114516050.712        1794.698          22.000  
G17  21907234.037   115123059.264       -1987.104          38.000  
G19  20004693.839   105125327.545        -723.602          28.000  
G22  23519786.790   123597280.112       -3218.759          31.000  
J02  37330489.640   196172831.915          69.426          33.000  
> 2025 05 21 04 37 30.0004178  0 16                     
C07  35672761.517   185757408.1321       -108.064          12.000  
C08  37113949.903   193261906.8261       1003.272           9.000  
C13  38044741.630   198108938.6411       1102.495          10.000  
C19  22836276.831   118914485.912        1542.478          38.000  
C29  23501347.212   122377509.300       -1847.795          21.000  
C38  36355259.734   189311223.041         740.697          26.000  
C40  35946558.672   187183182.781         -90.585          23.000  
E02  24267612.538   127527221.2391       -598.045          16.000  
E16  27553103.140   144792485.7401      -3083.641          10.000  
G04  23481362.747   123395358.860         470.254          33.000  
G09  22815199.622   119894602.895        2107.788          25.000  
G11  21791373.602   114514336.561        1793.407          22.000  
G17  21907627.721   115125128.414       -1985.926          37.000  
G19  20004847.988   105126133.193        -725.376          27.000  
G22  23520417.010   123600584.042       -3217.305          30.000  
J02  37330493.893   196172843.647          71.040          33.000  
> 2025 05 21 04 37 31.0003568  0 15                     
C07  35672807.367   185757656.9131       -108.170          12.000  
C08  37113785.898   193261045.9781       1002.895           9.000  
C13  38044557.838   198107978.1451       1102.941           9.000  
C19  22836007.898   118913085.767        1542.605          38.000  
C29  23501727.630   122379497.431       -1847.743          21.000  
C38  36355143.695   189310623.287         742.508          24.000  
C40  35946606.919   187183416.309         -91.271          26.000  
E02  24267754.021   127527962.3811       -594.956          16.000  
E16  27553721.593   144795712.3941      -3083.742          10.000  
G04  23481303.369   123395030.558         470.992          32.000  
G09  22814830.559   119892638.326        2108.459          23.000  
G17  21908033.022   115127258.269       -1987.188          37.000  
G19  20005014.654   105127000.750        -725.235          28.000  
G22  23521054.350   123603941.649       -3217.069          31.000  
J02  37330507.965   196172916.008          70.131          32.000  
> 2025 05 21 04 37 32.0002957  0 16                     
C07  35672826.516   185757750.8651       -108.008          12.000  
C08  37113592.195   193260030.5451       1003.196           9.000  
C13  38044345.548   198106862.5761       1103.370           9.000  
C19  22835706.869   118911530.837        1541.805          38.000  
C29  23502080.148   122381333.0841      -1847.505          20.000  
C38  36355003.655   189309866.499         743.575          24.000  
C40  35946624.570   187183492.830         -91.351          25.000  
E02  24267867.305   127528544.0111       -596.683          15.000  
E16  27554310.947   144798780.8141      -3083.869           9.000  
G04  23481213.394   123394546.570         469.868          32.000  
G09  22814432.397   119890516.676        2108.967          26.000  
G11  21790720.298   114510879.2461       1793.981          21.000  
G17  21908408.924   115129231.600       -1986.961          37.000  
G19  20005152.821   105127712.379        -723.424          28.000  
G22  23521665.290   123607146.040       -3217.667          31.000  
J02  37330493.537   196172833.873          69.727          32.000  
> 2025 05 21 04 37 33.0002347  0 17                     
C07  35672877.293   185757998.7881       -108.283          13.000  
C08  37113428.021   193259168.9781       1002.203          17.000  
C13  38044158.290   198105900.6111       1102.964          11.000  
C19  22835438.367   118910131.093        1540.267          38.000  
C20  24008934.273   125020820.8341      -1335.607          24.000  
C29  23502462.796   122383322.6651      -1847.107          19.000  
C38  36354895.842   189309264.598         742.129          27.000  
C40  35946669.351   187183723.276         -89.156          26.000  
E02  24268004.722   127529284.9511       -598.590          15.000  
E16  27554928.333   144802008.1641      -3084.073           9.000  
G04  23481152.949   123394218.392         468.213          33.000  
G09  22814061.666   119888550.772        2108.192          27.000  
G11  21790407.128   114509226.700        1794.505          21.000  
G17  21908814.356   115131360.065       -1987.416          37.000  
G19  20005319.918   105128578.010        -724.048          28.000  
G22  23522306.658   123610505.217       -3219.455          31.000  
J02  37330509.239   196172907.031          69.720          32.000  
> 2025 05 21 04 37 34.0001737  0 17                     
C07  35672925.298   185758251.4611       -108.062          13.000  
C08  37113259.875   193258311.4891       1000.888          15.000  
C13  38043972.156   198104941.9001       1102.432          11.000  
C19  22835168.592   118908735.144        1539.770          38.000  
C20  24009204.723   125022303.381       -1338.955          23.000  
C29  23502846.568   122385311.7611      -1846.773          18.000  
C38  36354780.759   189308664.756         742.209          28.000  
C40  35946720.054   187183956.290         -89.726          25.000  
E02  24268145.363   127530028.9901       -598.899          18.000  
E16  27555545.942   144805234.3691      -3084.068          10.000  
G04  23481093.028   123393894.891         467.240          33.000  
G09  22813693.259   119886588.040        2107.982          26.000  
G11  21790096.880   114507575.920        1796.077          22.000  
G17  21909218.514   115133492.276       -1987.668          37.000  
G19  20005489.938   105129447.196        -724.787          28.000  
G22  23522948.552   123613869.713       -3219.720          32.000  
J02  37330525.465   196172982.847          69.762          33.000  
> 2025 05 21 04 37 35.0001126  0 17                     
C07  35672942.292   185758343.4861       -108.410          13.000  
C08  37113067.015   193257296.5401       1000.313          14.000  
C13  38043759.510   198103825.4081       1102.064          12.000  
C19  22834869.905   118907180.966        1540.324          39.000  
C20  24009456.455   125023629.390       -1343.866          23.000  
C29  23503197.831   122387144.6281      -1846.644          19.000  
C38  36354641.861   189307908.445         740.189          27.000  
C40  35946736.748   187184029.310         -89.709          24.000  
E02  24268248.397   127530613.1621       -598.773          16.000  
E16  27556131.044   144808302.9551      -3081.762          13.000  
G04  23481001.197   123393412.860         466.836          33.000  
G09  22813291.143   119884465.957        2107.249          25.000  
G11  21789754.423   114505763.917        1796.674          21.000  
G17  21909594.360   115135463.087       -1987.988          37.000  
G19  20005629.247   105130157.508        -727.573          29.000  
G22  23523558.536   123617074.465       -3218.866          32.000  
J02  37330510.681   196172898.286          70.489          33.000  
> 2025 05 21 04 37 36.0000516  0 17                     
C07  35672991.439   185758592.3311       -108.155          12.000  
C08  37112901.510   193256437.3111        999.450          13.000  
C13  38043576.318   198102863.8771       1102.469          13.000  
C19  22834601.572   118905782.014        1539.402          38.000  
C20  24009737.042   125025114.485       -1347.025          24.000  
C29  23503581.247   122389132.0471      -1847.113          19.000  
C38  36354530.020   189307577.573         740.303          27.000  
C40  35946774.803   187184259.199         -91.178          24.000  
E02  24268387.482   127531353.7651       -598.804          16.000  
E16  27556751.895   144811525.5021      -3082.574          12.000  
G04  23480940.621   123393086.905         467.385          35.000  
G09  22812918.183   119882501.171        2106.286          27.000  
G11  21789436.624   114504107.875        1797.276          21.000  
G17  21909999.361   115137592.999       -1988.565          36.000  
G19  20005797.112   105131026.103        -727.325          30.000  
G22  23524200.972   123620433.688       -3220.198          32.000  
J02  37330525.353   196173234.330          68.847          33.000  
> 2025 05 21 04 37 36.9999905  0 17                     
C07  35673017.596   185758685.7411       -107.703          14.000  
C08  37112709.418   193255424.7701        998.855          12.000  
C13  38043366.538   198101748.1031       1102.226          13.000  
C19  22834303.353   118904229.602        1538.478          38.000  
C20  24009996.738   125026450.498       -1348.413          25.000  
C29  23503935.976   122390966.398       -1848.559          21.000  
C38  36354385.295   189306823.077         739.114          27.000  
C40  35946791.966   187184333.898         -90.702          23.000  
E02  24268498.181   127531940.1061       -602.133          16.000  
E16  27557341.062   144814594.0421      -3085.767          12.000  
G04  23480851.957   123392604.426         468.116          34.000  
G09  22812515.637   119880381.366        2106.123          25.000  
G11  21789095.236   114502296.231        1796.756          21.000  
G17  21910378.373   115139565.789       -1988.895          37.000  
G19  20005930.895   105131737.793        -727.058          28.000  
G22  23524810.525   123623640.184       -3221.763          33.000  
J02  37330511.937   196173152.756          67.505          35.000  
> 2025 05 21 04 37 37.9999295  0 17                     
C07  35673070.172   185758933.5931       -108.033          14.000  
C08  37112541.647   193254569.5731        996.864          14.000  
C13  38043189.173   198100789.4041       1100.851          14.000  
C19  22834037.550   118902833.460        1538.876          38.000  
C20  24010282.552   125027940.790       -1347.980          24.000  
C29  23504318.024   122392957.963       -1849.716          25.000  
C38  36354270.887   189306225.242         739.474          22.000  
C40  35946846.341   187184567.129         -90.252          25.000  
E02  24268638.896   127532686.1991       -598.886          16.000  
E16  27557959.047   144817822.9201      -3086.276          10.000  
G04  23480792.111   123392277.343         472.486          34.000  
G09  22812143.107   119878419.083        2107.123          26.000  
G11  21788784.164   114500643.808        1794.099          24.000  
G17  21910786.503   115141959.546       -1988.081          38.000  
G19  20006098.291   105132608.181        -726.529          27.000  
G22  23525450.095   123627006.375       -3224.993          31.000  
J02  37330530.337   196173229.275          66.065          35.000  
> 2025 05 21 04 37 38.9998685  0 16                     
C07  35673122.018   185759183.7771       -109.401          14.000  
C08  37112381.239   193253715.6281        995.036          15.000  
C13  38043008.679   198099830.8811       1100.365          14.000  
C19  22833771.615   118901436.848        1538.529          38.000  
C20  24010568.536   125029431.249       -1346.640          22.000  
C29  23504701.740   122394950.025       -1850.407          28.000  
C38  36354162.943   189305627.388         738.466          21.000  
C40  35946893.989   187184796.536         -88.699          23.000  
E02  24268779.180   127533427.8901       -600.418          16.000  
G04  23480730.335   123391946.213         473.341          33.000  
G09  22811769.847   119876454.418        2108.638          27.000  
G11  21788472.061   114498992.709        1793.331          22.000  
G17  21911193.303   115144091.410       -1988.746          39.000  
G19  20006263.758   105133475.904        -727.516          29.000  
G22  23526091.632   123630373.873       -3227.660          30.000  
J02  37330548.305   196173307.316          64.982          34.000  
> 2025 05 21 04 37 39.9998074  0 16                     
C07  35673141.448   185759278.6871       -109.253          14.000  
C08  37112191.115   193252708.3671        994.579          15.000  
C13  38042798.768   198098717.9171       1100.452          15.000  
C19  22833473.265   118899886.308        1537.477          39.000  
C20  24010835.894   125030765.367       -1347.290          22.000  
C29  23505053.940   122396788.920       -1854.396          29.000  
C38  36354018.387   189304875.9461        737.349          20.000  
C40  35946904.426   187184872.487         -88.619          24.000  
E02  24268891.846   127534016.2951       -600.892          10.000  
G04  23480639.442   123391462.312         466.965          32.000  
G09  22811365.370   119874333.459        2107.696          27.000  
G11  21788132.040   114497186.542        1791.426          21.000  
G17  21911570.685   115146066.852       -1988.977          39.000  
G19  20006399.808   105134190.125        -727.558          27.000  
G22  23526703.752   123633585.074       -3220.983          31.000  
J02  37330534.159   196173227.554          69.018          33.000  
> 2025 05 21 04 37 40.9997464  0 16                     
C07  35673194.249   185759530.7721       -108.660          15.000  
C08  37112027.765   193251855.7301       1023.051          15.000  
C13  38042617.431   198097760.1121       1100.176          15.000  
C19  22833211.284   118898491.834        1535.888          38.000  
C20  24011122.833   125032254.087       -1348.354          23.000  
C29  23505442.508   122398786.187       -1855.690          31.000  
C38  36353904.203   189304280.2291        737.043          19.000  
C40  35946958.426   187185103.731         -90.658          21.000  
E02  24269034.884   127534760.5051       -601.517           7.000  
G04  23480580.120   123391140.667         462.988          30.000  
G09  22810991.866   119872370.607        2105.816          26.000  
G11  21787820.893   114495538.6021       1790.568          20.000  
G17  21911979.040   115148199.375       -1990.555          40.000  
G19  20006567.729   105135062.144        -729.764          29.000  
G22  23527345.045   123636946.612       -3219.068          32.000  
J02  37330549.186   196173301.991          68.630          32.000  
> 2025 05 21 04 37 41.9996854  0 16                     
C07  35673246.881   185759779.9691       -109.013          15.000  
C08  37111860.050   193250974.9021       1021.717          14.000  
C13  38042436.825   198096801.7971       1099.395          16.000  
C19  22832945.237   118897097.153        1535.911          38.000  
C20  24011404.807   125033743.412       -1348.157          23.000  
C29  23505827.910   122400782.934       -1854.483          31.000  
C38  36353791.650   189303683.8161        736.530          19.000  
C40  35947011.358   187185336.110         -92.590          20.000  
E02  24269179.253   127535505.2731       -602.072           9.000  
G04  23480518.532   123390819.355         462.380          31.000  
G09  22810617.894   119870408.485        2104.495          25.000  
G11  21787509.877   114493890.1601       1790.303          20.000  
G17  21912386.627   115150330.709       -1990.073          40.000  
G19  20006738.479   105135933.635        -729.380          29.000  
G22  23527987.969   123640307.210       -3218.595          33.000  
J02  37330563.745   196173374.947          70.766          33.000  
> 2025 05 21 04 37 42.9996243  0 16                     
C07  35673266.911   185759875.0141       -108.908          15.000  
C08  37111662.431   193249942.5151        987.221          14.000  
C13  38042227.514   198095690.0021       1099.075          16.000  
C19  22832648.087   118895548.388        1536.338          39.000  
C20  24011655.377   125035079.552       -1349.661          21.000  
C29  23506187.305   122402885.621       -1854.369          30.000  
C38  36353649.792   189302934.0441        736.153          19.000  
C40  35947030.489   187185415.196         -93.423          21.000  
E02  24269292.518   127536095.9711       -602.573           8.000  
G04  23480428.238   123390343.374         462.276          30.000  
G09  22810216.716   119868291.533        2104.305          26.000  
G11  21787168.957   114492086.661        1789.711          20.000  
G17  21912764.609   115152306.640       -1990.012          39.000  
G19  20006877.827   105136650.066        -729.985          28.000  
G22  23528599.789   123643512.410       -3218.769          33.000  
J02  37330545.101   196173291.882          70.552          31.000  
> 2025 05 21 04 37 43.9995633  0 16                     
C07  35673314.410   185760124.4151       -108.353          15.000  
C08  37111503.672   193249096.5141        987.465          15.000  
C13  38042045.971   198094732.0481       1099.521          16.000  
C19  22832380.203   118894153.655        1535.183          39.000  
C20  24011948.705   125036572.1421      -1350.997          18.000  
C29  23506574.169   122404881.394       -1854.152          30.000  
C38  36353533.004   189302337.7341        737.189          19.000  
C40  35947077.088   187185649.387         -94.084          21.000  
E02  24269435.051   127536841.5891       -603.055           9.000  
G04  23480366.312   123390022.887         461.506          29.000  
G09  22809845.704   119866330.161        2103.887          26.000  
G11  21786857.903   114490710.509        1789.537          21.000  
G17  21913171.258   115154437.689       -1992.167          39.000  
G19  20007046.441   105137522.449        -732.467          28.000  
G22  23529241.476   123646872.961       -3218.740          33.000  
J02  37330558.124   196173364.154          70.520          31.000  
> 2025 05 21 04 37 44.9995023  0 17                     
C07  35673361.084   185760374.4001       -107.292          15.000  
C08  37111344.388   193248251.3541        989.645          15.000  
C13  38041863.004   198093775.7431       1099.635          16.000  
C19  22832114.494   118892762.822        1533.480          38.000  
C20  24012234.913   125038067.6631      -1351.624          18.000  
C29  23506956.910   122406878.591       -1854.550          30.000  
C38  36353418.090   189301742.9331        736.903          18.000  
C40  35947121.063   187185885.364         -94.164          24.000  
E02  24269579.157   127537588.7181       -603.554          10.000  
G04  23480303.562   123389704.609         461.490          31.000  
G09  22809476.266   119864371.191        2103.226          25.000  
G11  21786546.026   114489065.098        1788.851          20.000  
G12  22752162.243   119563418.8461       1651.162          24.000  
G17  21913578.283   115156573.450       -1992.274          39.000  
G19  20007212.732   105138397.265        -732.002          27.000  
G22  23529882.939   123650236.586       -3220.806          32.000  
J02  37330571.521   196173439.003          68.513          31.000  
> 2025 05 21 04 37 45.9994412  0 17                     
C07  35673380.064   185760466.9921       -106.707          15.000  
C08  37111155.613   193247525.1731        992.721          18.000  
C13  38041654.742   198092662.6541       1099.991          16.000  
C19  22831817.193   118891215.281        1534.251          38.000  
C20  24012483.235   125039404.7881      -1351.002          18.000  
C29  23507312.857   122408717.957       -1854.630          32.000  
C38  36353276.382   189300991.5361        736.911          18.000  
C40  35947132.249   187185964.591         -94.237          25.000  
E02  24269692.573   127538179.3401       -603.838          11.000  
G04  23480213.418   123389229.340         460.029          31.000  
G09  22809078.535   119862255.098        2102.269          26.000  
G11  21786204.656   114487261.922        1788.495          21.000  
G12  22751848.754   119561753.336        1650.893          25.000  
G17  21913956.115   115158550.868       -1991.906          40.000  
G19  20007351.930   105139114.447        -732.255          28.000  
G22  23530494.309   123653444.376       -3221.627          34.000  
J02  37330557.524   196173356.553          69.051          30.000  
> 2025 05 21 04 37 47.0003801  0 18                     
C07  35673414.653   185760651.6971       -106.246          15.000  
C08  37110984.244   193246613.6411        990.453          16.000  
C13  38041465.685   198091641.8641       1099.684          16.000  
C19  22831539.698   118889761.677        1532.228          40.000  
C20  24012769.050   125040837.8831      -1352.660          18.000  
C29  23507686.511   122410655.250       -1856.812          31.000  
C38  36353153.279   189300333.2531        736.978          18.000  
C40  35947165.939   187186138.215         -92.851          24.000  
E02  24269817.699   127538864.8641       -605.492          16.000  
E16  27563383.810   144846559.1971      -3084.403          16.000  
G04  23480146.377   123388849.461         458.230          33.000  
G09  22808696.412   119860508.633        2101.014          27.000  
G11  21785880.692   114485551.823        1788.396          23.000  
G12  22751553.271   119560181.682        1649.702          23.000  
G17  21914351.654   115160625.591       -1993.234          40.000  
G19  20007506.435   105139928.369        -734.001          28.000  
G22  23531124.585   123656749.303       -3221.439          35.000  
J02  37330561.834   196173369.701          66.716          30.000  
> 2025 05 21 04 37 48.0003191  0 18                     
C07  35673465.336   185760898.6261       -106.103          10.000  
C08  37110822.375   193245767.4171        988.824          16.000  
C13  38041286.128   198090958.9691       1094.282          16.000  
C19  22831272.002   118888371.431        1532.883          39.000  
C20  24013070.360   125042332.9481      -1353.638          18.000  
C29  23508066.966   122412651.860       -1855.467          31.000  
C38  36353040.276   189299737.3341        737.111          18.000  
C40  35947211.526   187186370.761         -92.634          23.000  
E02  24269959.219   127539614.7021       -605.384          16.000  
E16  27563988.510   144849786.6041      -3083.866          14.000  
G04  23480089.735   123388532.799         460.200          33.000  
G09  22808328.585   119858551.319        2101.175          28.000  
G11  21785568.028   114483906.408        1787.954          21.000  
G12  22751269.686   119558675.2261       1648.757          19.000  
G17  21914758.491   115162761.478       -1992.352          40.000  
G19  20007672.539   105140806.803        -733.566          28.000  
G22  23531766.460   123660110.954       -3220.158          35.000  
J02  37330576.842   196173446.461          67.782          32.000  
> 2025 05 21 04 37 49.0002581  0 19                     
C07  35673514.802   185761147.2721       -105.487           9.000  
C08  37110660.787   193244921.9151        989.577          16.000  
C13  38041108.651   198090007.7961       1095.717          16.000  
C19  22831007.285   118886983.111        1530.686          39.000  
C20  24013355.163   125043830.7351      -1354.046          18.000  
C26  25511049.331   132842727.7641      -2256.192          23.000  
C29  23508449.502   122414650.821       -1857.026          30.000  
C38  36352924.856   189299142.5291        738.091          18.000  
C40  35947261.891   187186606.288         -93.084          22.000  
E02  24270101.321   127540364.1721       -605.020          17.000  
E16  27564599.188   144853015.6771      -3083.738          15.000  
G04  23480031.275   123388217.208         458.453          33.000  
G09  22807959.241   119856595.584        2100.541          28.000  
G11  21785258.042   114482262.749        1787.639          20.000  
G12  22750986.382   119557170.9971       1647.930          18.000  
G17  21915167.408   115164898.571       -1994.105          39.000  
G19  20007839.823   105141683.025        -733.852          28.000  
G22  23532408.015   123663475.894       -3221.871          35.000  
J02  37330593.930   196173523.345          68.237          33.000  
> 2025 05 21 04 37 50.0001970  0 18                     
C08  37110467.889   193243917.8241        989.851          16.000  
C13  38040897.466   198088897.0921       1096.228          11.000  
C19  22830712.158   118885438.456        1530.564          39.000  
C20  24013619.448   125045174.4291      -1360.124          13.000  
C26  25511470.108   132844967.731       -2254.450          23.000  
C29  23508805.224   122416493.359       -1858.712          29.000  
C38  36352782.923   189298388.7181        738.455          18.000  
C40  35947277.349   187186683.738         -92.712          21.000  
E02  24270213.912   127540955.3221       -606.581          17.000  
E16  27565183.352   144856083.2611      -3083.650          15.000  
G04  23479942.705   123387743.975         457.083          33.000  
G09  22807560.086   119854480.853        2099.826          29.000  
G11  21784916.747   114480459.4991       1787.361          15.000  
G12  22750672.668   119555507.5061       1647.720          19.000  
G17  21915545.615   115166876.228       -1994.520          39.000  
G19  20007978.496   105142402.620        -735.230          28.000  
G22  23533019.461   123666683.640       -3222.426          35.000  
J02  37330578.809   196173440.952          68.256          33.000  
> 2025 05 21 04 37 51.0001360  0 18                     
C08  37110298.937   193243069.3861        989.895          19.000  
C13  38040715.923   198087941.7741       1097.196          11.000  
C19  22830447.573   118884049.212        1530.105          39.000  
C20  24013910.978   125046677.3321      -1360.393          12.000  
C26  25511928.922   132847363.322       -2252.129          22.000  
C29  23509188.490   122418490.936       -1857.214          28.000  
C38  36352667.335   189297790.5751        738.897          18.000  
C40  35947323.948   187186915.959         -91.542          22.000  
E02  24270364.239   127541704.6501       -606.975          17.000  
E16  27565797.158   144859309.8381      -3084.237          15.000  
G04  23479882.278   123387428.495         457.352          33.000  
G09  22807187.575   119852523.637        2099.889          29.000  
G11  21784604.195   114478814.0471       1786.967          14.000  
G12  22750389.496   119554001.2781       1647.924          17.000  
G17  21915953.464   115169013.328       -1994.429          39.000  
G19  20008147.110   105143278.420        -737.006          28.000  
G22  23533661.148   123670045.699       -3221.374          34.000  
J02  37330593.331   196173515.265          67.574          32.000  
> 2025 05 21 04 37 52.0000749  0 17                     
C08  37110101.543   193242066.8161        989.562          16.000  
C13  38040503.838   198086831.4141       1097.451          11.000  
C19  22830152.745   118882506.710        1529.531          39.000  
C20  24014170.467   125048025.4251      -1360.929          11.000  
C26  25512358.093   132849602.371       -2251.499          21.000  
C29  23509539.416   122420333.935       -1856.635          28.000  
C38  36352527.500   189297037.7051        739.005          18.000  
C40  35947341.205   187186994.157         -91.592          22.000  
E02  24270470.834   127542299.8241       -607.838          18.000  
E16  27566386.719   144862380.4181      -3083.761          15.000  
G04  23479794.907   123386958.327         455.610          33.000  
G09  22806785.422   119850412.017        2097.363          29.000  
G11  21784258.703   114477013.1761       1786.852          14.000  
G17  21916332.570   115170993.871       -1995.239          39.000  
G19  20008284.884   105144002.860        -737.968          28.000  
G22  23534271.694   123673254.963       -3222.870          35.000  
J02  37330579.709   196173434.788          67.132          33.000  
> 2025 05 21 04 37 53.0000139  0 16                     
C08  37109945.463   193241221.3391        990.200          16.000  
C13  38040322.277   198085878.0311       1098.025          10.000  
C19  22829889.040   118881120.844        1529.583          38.000  
C26  25512815.089   132851996.650       -2251.476          21.000  
C29  23509923.862   122422334.064       -1855.964          27.000  
C38  36352414.591   189296442.0011        739.137          18.000  
C40  35947386.886   187187229.366         -91.855          22.000  
E02  24270613.947   127543053.2471       -607.741          17.000  
E16  27566992.712   144865610.4541      -3083.831          15.000  
G04  23479738.659   123386646.786         456.498          35.000  
G09  22806415.291   119848459.970        2098.830          30.000  
G11  21783946.132   114475371.2911       1786.429          13.000  
G17  21916741.599   115173131.715       -1995.088          38.000  
G19  20008451.681   105144885.561        -738.031          29.000  
G22  23534912.163   123676621.322       -3221.987          35.000  
J02  37330596.010   196173513.137          67.488          33.000  
> 2025 05 21 04 37 53.9999529  0 15                     
C08  37109787.772   193240371.5681        990.913          16.000  
C13  38040139.403   198084920.4331       1098.644           9.000  
C19  22829623.424   118879732.953        1527.797          39.000  
C26  25513277.669   132854388.351       -2249.936          20.000  
C29  23510307.596   122424330.934       -1857.530          27.000  
C38  36352298.571   189295842.0311        739.811          18.000  
C40  35947432.754   187187460.832         -91.786          22.000  
E02  24270756.049   127543802.7431       -608.383          18.000  
E16  27567605.787   144868834.4871      -3084.123          15.000  
G04  23479682.598   123386331.669         455.200          35.000  
G09  22806044.148   119846503.204        2098.437          29.000  
G17  21917149.917   115175268.543       -1996.018          38.000  
G19  20008618.965   105145762.701        -737.776          30.000  
G22  23535551.920   123679983.754       -3223.077          35.000  
J02  37330611.599   196173588.533          65.947          32.000  
> 2025 05 21 04 37 54.9998918  0 14                     
C08  37109592.364   193239366.9581        991.132          16.000  
C19  22829329.384   118878191.662        1527.742          39.000  
C26  25513712.424   132856623.5331      -2248.354          12.000  
C29  23510665.605   122426173.956       -1857.479          28.000  
C38  36352157.725   189295088.0221        739.232          18.000  
C40  35947446.001   187187537.691         -93.211          22.000  
E02  24270872.425   127544399.4191       -609.812          19.000  
E16  27568187.441   144871906.4001      -3083.765          15.000  
G04  23479597.213   123385862.334         455.595          36.000  
G09  22805642.482   119844391.885        2097.075          29.000  
G17  21917528.910   115177249.783       -1995.904          38.000  
G19  20008755.727   105146486.836        -738.547          30.000  
G22  23536162.654   123683193.144       -3223.664          35.000  
J02  37330598.464   196173508.454          67.319          32.000  
> 2025 05 21 04 37 55.9998308  0 14                     
C08  37109429.783   193238518.2001        990.097          16.000  
C19  22829064.274   118876805.582        1527.717          39.000  
C26  25514173.711   132859013.4161      -2247.163          11.000  
C29  23511046.847   122428173.598       -1859.303          28.000  
C38  36352040.412   189294490.9171        738.578          18.000  
C40  35947495.673   187188042.751         -93.276          22.000  
E02  24271022.527   127545151.9701       -609.469          18.000  
E16  27568808.217   144875131.4001      -3087.014          15.000  
G04  23479539.259   123385549.990         453.496          35.000  
G09  22805269.747   119842438.618        2095.527          28.000  
G17  21917937.134   115179387.959       -1995.462          38.000  
G19  20008922.617   105147368.020        -738.925          29.000  
G22  23536804.715   123686558.008       -3223.005          34.000  
J02  37330616.358   196173583.815          68.016          32.000  
> 2025 05 21 04 37 56.9997698  0 15                     
C08  37109263.735   193237672.9421        988.586          18.000  
C19  22828798.995   118875421.548        1528.037          39.000  
C20  24015548.725   125055264.0931      -1357.979          20.000  
C26  25514635.129   132861404.2161      -2246.353          10.000  
C29  23511432.118   122430174.195       -1857.668          31.000  
C38  36351928.028   189293896.0271        738.914          18.000  
C40  35947542.178   187188277.816         -93.873          22.000  
E02  24271167.364   127545907.1361       -609.849          17.000  
E16  27569435.421   144878364.1581      -3082.937          15.000  
G04  23479480.837   123385503.995         454.402          33.000  
G09  22804899.540   119840488.393        2096.573          30.000  
G17  21918345.489   115181527.560       -1997.181          39.000  
G19  20009090.838   105148252.166        -740.266          29.000  
G22  23537446.309   123689925.142       -3223.369          32.000  
J02  37330634.683   196173661.625          67.357          34.000  
> 2025 05 21 04 37 57.9997087  0 15                     
C08  37109066.434   193236671.1701        987.799          16.000  
C19  22828504.262   118873880.883        1525.971          39.000  
C20  24015809.507   125056609.3361      -1358.867          18.000  
C26  25515065.894   132863636.4901      -2244.991          10.000  
C29  23511792.131   122432018.280       -1858.803          28.000  
C38  36351789.186   189293143.8421        738.306          18.000  
C40  35947558.929   187188356.616         -93.524          22.000  
E02  24271287.244   127546503.8011       -613.323          13.000  
E16  27570019.079   144881432.5011      -3085.121          15.000  
G04  23479392.361   123385035.597         452.111          34.000  
G09  22804496.582   119838377.430        2097.522          28.000  
G17  21918722.291   115183511.051       -1997.219          38.000  
G19  20009231.703   105148976.434        -739.716          29.000  
G22  23538061.146   123693132.206       -3223.619          34.000  
J02  37330622.354   196173581.192          65.228          33.000  
> 2025 05 21 04 37 58.9996477  0 14                     
C08  37108907.338   193235824.7491        987.810          16.000  
C19  22828238.439   118872495.289        1526.711          39.000  
C20  24016103.098   125058109.1861      -1359.193          16.000  
C29  23512180.156   122434017.413       -1859.127          28.000  
C38  36351676.858   189292546.0611        738.603          18.000  
C40  35947604.591   187188590.593         -93.981          22.000  
E02  24271433.037   127547258.4431       -610.249          11.000  
E16  27570637.345   144884660.0261      -3084.936          15.000  
G04  23479333.696   123384724.988         452.340          34.000  
G09  22804122.235   119836422.555        2097.384          28.000  
G17  21919129.502   115185647.551       -1996.209          38.000  
G19  20009401.779   105149858.223        -739.028          30.000  
G22  23538703.994   123696498.377       -3223.154          35.000  
J02  37330638.936   196173656.861          68.155          33.000  
> 2025 05 21 04 37 59.9995866  0 14                     
C08  37108718.675   193234817.1391        993.127          16.000  
C19  22827943.350   118870954.750        1525.796          38.000  
C20  24016363.524   125059454.8881      -1360.254          15.000  
C29  23512538.315   122435860.286       -1859.002          28.000  
C38  36351529.866   189291793.6511        738.531          18.000  
C40  35947623.085   187188670.699         -94.540          21.000  
E02  24271547.763   127547856.6651       -611.851           9.000  
E16  27571226.343   144887730.4811      -3085.161          14.000  
G04  23479246.362   123384256.991         451.753          34.000  
G09  22803719.520   119834312.538        2094.371          28.000  
G17  21919507.147   115187630.085       -1998.764          37.000  
G19  20009542.888   105150857.442        -740.861          30.000  
G22  23539313.079   123699705.031       -3223.878          35.000  
J02  37330623.254   196173574.692          66.234          33.000  
> 2025 05 21 04 38 00.9995256  0 15                     
C08  37108559.654   193233967.9311        991.353          16.000  
C19  22827678.502   118869572.246        1525.649          37.000  
C20  24016652.692   125060957.2611      -1360.376          15.000  
C22  24921905.099   129774899.0541       3534.764          26.000  
C29  23512927.014   122437861.776       -1858.906          25.000  
C38  36351414.315   189291197.5381        738.426          18.000  
C40  35947672.119   187188907.313         -95.628          21.000  
E02  24271691.832   127548612.4231       -612.999          10.000  
E16  27571840.487   144890959.6591      -3085.182          14.000  
G04  23479187.772   123383948.905         451.482          33.000  
G09  22803348.246   119832362.486        2094.512          28.000  
G17  21919915.034   115189771.266       -1997.701          37.000  
G19  20009713.339   105151741.259        -741.583          29.000  
G22  23539954.504   123703072.386       -3223.742          33.000  
J02  37330640.211   196173652.199          67.376          33.000  
> 2025 05 21 04 38 01.9994646  0 15                     
C08  37108403.780   193233124.0261        985.855          16.000  
C19  22827414.404   118868189.972        1523.605          37.000  
C20  24016935.415   125062460.9551      -1360.016          15.000  
C22  24921254.868   129771506.682        3534.732          26.000  
C29  23513308.369   122439861.432       -1859.531          25.000  
C38  36351304.909   189290601.6621        737.850          18.000  
C40  35947719.805   187189144.341         -96.447          21.000  
E16  27572448.485   144894187.5471      -3085.712          14.000  
G04  23479127.832   123383639.795         451.677          33.000  
G09  22802976.222   119830412.318        2093.096          28.000  
G12  22747160.562   119537134.5991       1639.479          16.000  
G17  21920321.871   115191913.253       -1999.578          37.000  
G19  20009881.241   105152626.078        -742.410          30.000  
G22  23540596.678   123706437.901       -3222.572          32.000  
J02  37330657.018   196173729.437          65.230          33.000  
> 2025 05 21 04 38 03.0004035  0 15                     
C08  37108235.690   193232219.4131        986.871          16.000  
C19  22827141.386   118866747.009        1523.243          36.000  
C20  24017218.213   125063904.006       -1361.860          25.000  
C22  24920594.519   129768051.261        3534.436          25.000  
C29  23513682.904   122441804.451       -1860.734          23.000  
C38  36351182.388   189289944.8771        738.283          18.000  
C40  35947754.675   187189322.6781        -96.058          17.000  
E16  27573046.664   144897359.2761      -3084.653          14.000  
G04  23479057.774   123383270.149         449.956          33.000  
G09  22802593.481   119828400.106        2092.846          29.000  
G12  22746870.457   119535575.2831       1639.269          13.000  
G17  21920718.890   115193995.158       -1999.181          37.000  
G19  20010038.726   105153451.566        -742.850          29.000  
G22  23541228.134   123709746.244       -3224.226          34.000  
J02  37330663.107   196173746.987          65.053          33.000  
> 2025 05 21 04 38 04.0003424  0 15                     
C08  37108044.273   193231217.1881        987.321          17.000  
C19  22826848.039   118865208.454        1523.492          36.000  
C20  24017480.082   125065251.228       -1361.931          27.000  
C22  24919912.941   129764502.404        3534.225          24.000  
C29  23514032.012   122443648.392       -1859.488          23.000  
C38  36351039.237   189289192.1011        738.171          18.000  
C40  35947768.915   187189402.3201        -96.836          17.000  
E16  27573628.712   144900429.6641      -3084.929          14.000  
G04  23478970.684   123382805.650         448.332          33.000  
G09  22802194.307   119826292.648        2092.124          29.000  
G12  22746561.221   119533920.5411       1638.358          13.000  
G17  21921097.078   115195978.368       -1999.380          38.000  
G19  20010179.778   105154176.990        -743.218          29.000  
G22  23541841.660   123712955.914       -3224.432          33.000  
J02  37330649.467   196173666.301          66.164          34.000  
> 2025 05 21 04 38 05.0002814  0 15                     
C08  37107886.170   193230372.6731        987.841          17.000  
C19  22826587.108   118863829.429        1522.046          37.000  
C20  24017776.764   125066756.193       -1362.739          28.000  
C22  24919258.981   129761112.284        3533.491          24.000  
C29  23514408.439   122445650.530       -1860.808          27.000  
C38  36350925.503   189288597.3161        738.152          18.000  
C40  35947812.872   187189641.3011        -97.042          17.000  
E16  27574242.574   144903658.7701      -3085.291          14.000  
G04  23478916.010   123382501.796         446.124          32.000  
G09  22801823.651   119824344.808        2092.109          29.000  
G12  22746281.702   119532426.5071       1637.415          13.000  
G17  21921504.983   115198121.794       -2000.169          38.000  
G19  20010349.648   105155064.296        -744.798          30.000  
G22  23542484.302   123716589.244       -3225.387          32.000  
J02  37330665.243   196173745.453          65.108          34.000  
> 2025 05 21 04 38 06.0002204  0 14                     
C08  37107733.444   193229526.3451        988.050          18.000  
C19  22826323.459   118862448.502        1522.396          37.000  
C20  24018064.734   125068260.378       -1362.539          27.000  
C22  24918606.202   129757720.738        3532.807          23.000  
C29  23514794.440   122447650.595       -1860.208          24.000  
C40  35947861.007   187189880.2931        -97.125          17.000  
E16  27574857.317   144906886.2561      -3085.213          14.000  
G04  23478859.218   123382196.639         447.439          30.000  
G09  22801452.377   119822395.915        2091.958          29.000  
G12  22746000.066   119530931.5441       1636.868          17.000  
G17  21921913.469   115200263.897       -2000.146          38.000  
G19  20010519.499   105155951.251        -744.504          29.000  
G22  23543127.526   123719955.833       -3225.206          33.000  
J02  37330682.200   196173823.131          65.647          33.000  
> 2025 05 21 04 38 07.0001593  0 14                     
C08  37107544.931   193228525.8931        988.519          18.000  
C19  22826030.018   118860915.352        1520.735          38.000  
C20  24018322.311   125069613.026       -1364.469          27.000  
C22  24917924.530   129754176.330        3532.533          23.000  
C29  23515157.545   122449497.823       -1859.832          22.000  
C40  35947878.751   187189963.7021        -97.177          17.000  
E16  27575444.967   144909958.9351      -3084.574          14.000  
G04  23478770.236   123381736.872         445.687          31.000  
G09  22801051.910   119820291.668        2091.194          30.000  
G12  22745689.237   119529282.1111       1635.789          15.000  
G17  21922293.362   115202251.133       -2001.091          37.000  
G19  20010661.657   105156682.910        -744.954          29.000  
G22  23543739.458   123723167.217       -3225.690          34.000  
J02  37330670.864   196173745.033          65.943          33.000  
> 2025 05 21 04 38 08.0000983  0 15                     
C08  37107384.355   193227678.700         988.172          22.000  
C19  22825764.215   118859534.656        1523.254          38.000  
C20  24018612.623   125071119.177       -1365.775          28.000  
C22  24917274.992   129750785.013        3533.280          24.000  
C29  23515537.195   122451498.041       -1860.366          21.000  
C40  35947923.233   187190200.7891        -96.893          17.000  
E02  24272930.462   127555110.4691       -586.888          10.000  
E16  27576062.052   144913185.1021      -3084.409          14.000  
G04  23478710.090   123381431.734         447.806          31.000  
G09  22800679.680   119818344.050        2091.516          29.000  
G12  22745407.545   119527787.9611       1635.883          16.000  
G17  21922703.291   115204392.718       -1999.997          37.000  
G19  20010829.653   105157568.180        -743.664          29.000  
G22  23544381.426   123726532.211       -3224.371          33.000  
J02  37330687.765   196174087.483          66.878          34.000  
> 2025 05 21 04 38 09.0000373  0 16                     
C08  37107223.273   193226834.269         987.576          23.000  
C13  38037232.840   198069852.5361       1074.586          11.000  
C19  22825501.503   118858155.883        1520.655          36.000  
C20  24018903.328   125072627.202       -1361.460          29.000  
C22  24916627.047   129747395.185        3533.891          25.000  
C29  23515920.236   122453499.799       -1860.027          22.000  
C40  35947971.406   187190440.200         -97.051          21.000  
E02  24273070.971   127555842.0511       -586.425           7.000  
E16  27576677.732   144916413.6381      -3080.942          14.000  
G04  23478651.836   123381128.050         445.828          32.000  
G09  22800309.943   119816395.846        2093.260          29.000  
G12  22745125.646   119526295.9361       1635.622          16.000  
G17  21923113.313   115206535.974       -1999.927          37.000  
G19  20011000.441   105158455.814        -744.255          29.000  
G22  23545023.488   123729901.414       -3224.560          34.000  
J02  37330703.261   196174165.706          66.370          37.000  
> 2025 05 21 04 38 09.9999762  0 16                     
C08  37107032.117   193225833.528         987.340          23.000  
C13  38037020.100   198068763.1191       1076.276          15.000  
C19  22825204.521   118856622.403        1519.763          36.000  
C20  24019166.658   125073976.383       -1365.534          30.000  
C22  24915926.244   129743848.441        3532.847          27.000  
C29  23516277.701   122455346.727       -1861.130          25.000  
C40  35947987.108   187190522.452         -96.209          22.000  
E02  24273182.607   127556413.9521       -586.191           6.000  
E16  27577260.941   144919481.7431      -3084.611          14.000  
G04  23478566.808   123380668.026         445.232          32.000  
G09  22799909.233   119814289.512        2092.419          30.000  
G12  22744814.574   119524646.0861       1635.338           9.000  
G17  21923493.263   115208522.186       -2002.002          38.000  
G19  20011142.056   105159185.935        -746.017          30.000  
G22  23545636.376   123733110.069       -3224.918          34.000  
J02  37330689.283   196174086.497          65.642          37.000  
> 2025 05 21 04 38 10.9999152  0 16                     
C08  37106870.867   193224985.504         987.136          23.000  
C13  38036837.264   198067824.0531       1095.471          15.000  
C19  22824941.041   118855240.765        1520.767          36.000  
C20  24019456.595   125075483.071       -1367.360          29.000  
C22  24915268.237   129740455.175        3532.163          27.000  
C29  23516659.374   122457345.579       -1861.782          29.000  
C40  35948034.512   187190756.3531        -95.450          19.000  
E02  24273323.247   127557174.2131       -585.649           5.000  
E16  27577871.056   144922704.5571      -3084.321          14.000  
G04  23478511.683   123380362.676         445.072          32.000  
G09  22799538.727   119812338.545        2090.700          30.000  
G12  22744531.907   119523150.6301       1634.823           8.000  
G17  21923903.116   115210662.570       -2001.051          39.000  
G19  20011312.975   105160071.386        -746.410          30.000  
G22  23546277.670   123736474.948       -3224.874          34.000  
J02  37330705.809   196174160.689          66.072          37.000  
> 2025 05 21 04 38 11.9998542  0 16                     
C08  37106710.290   193224144.185         987.109          23.000  
C13  38036651.805   198066873.4191       1095.616          16.000  
C19  22824677.036   118853867.593        1517.981          37.000  
C20  24019751.104   125076996.377       -1369.372          28.000  
C22  24914613.903   129737069.292        3532.039          27.000  
C29  23517047.718   122459350.877       -1862.367          29.000  
C40  35948083.491   187190995.801         -95.075          21.000  
E02  24273463.662   127557904.7421       -585.455           5.000  
E16  27578481.246   144925934.4931      -3084.679          14.000  
G04  23478458.133   123380064.147         443.862          32.000  
G09  22799169.195   119810396.357        2087.993          31.000  
G12  22744249.015   119521662.4861       1634.130           8.000  
G17  21924313.645   115212811.128       -2002.263          39.000  
G19  20011483.669   105160967.346        -749.078          30.000  
G22  23546919.938   123739845.478       -3226.387          33.000  
J02  37330723.309   196174243.091          64.254          37.000  
> 2025 05 21 04 38 12.9997931  0 16                     
C08  37106520.728   193223143.091         986.526          23.000  
C13  38036437.360   198065762.4001       1096.104          17.000  
C19  22824382.246   118852334.436        1519.054          37.000  
C20  24020011.230   125078351.184       -1367.543          27.000  
C22  24913932.081   129733522.918        3532.146          27.000  
C29  23517402.279   122461197.570       -1861.835          28.000  
C40  35948101.385   187191076.9401        -95.386          19.000  
E02  24273573.892   127558491.5141       -585.390           4.000  
E16  27579058.253   144929003.9401      -3084.957          14.000  
G04  23478374.997   123379605.546         442.707          32.000  
G09  22798770.077   119808294.254        2087.644          30.000  
G12  22743937.137   119520013.1251       1633.615           9.000  
G17  21924693.388   115214797.701       -2001.535          39.000  
G19  20011624.478   105161698.820        -748.571          30.000  
G22  23547531.421   123743057.352       -3226.081          32.000  
J02  37330709.725   196174163.251          65.653          37.000  
> 2025 05 21 04 38 13.9997321  0 15                     
C08  37106360.657   193222299.339         985.701          22.000  
C13  38036250.608   198064807.5591       1096.754          17.000  
C19  22824118.748   118850957.776        1517.366          38.000  
C20  24020303.846   125079859.937       -1367.331          27.000  
C22  24913283.349   129730133.084        3532.252          26.000  
C29  23517784.533   122463200.665       -1861.488          25.000  
C40  35948149.670   187191313.3531        -94.000          19.000  
E02  24273716.312   127559240.5151       -585.390           3.000  
E16  27579674.945   144932231.6971      -3083.050          14.000  
G04  23478319.854   123379304.663         442.808          32.000  
G09  22798400.452   119806349.506        2089.296          30.000  
G17  21925103.223   115216942.165       -2002.539          39.000  
G19  20011794.479   105162591.138        -748.005          30.000  
G22  23548170.597   123746424.658       -3225.242          32.000  
J02  37330726.532   196174240.411          66.183          37.000  
> 2025 05 21 04 38 14.9996711  0 14                     
C08  37106196.708   193221455.062         985.834          22.000  
C13  38036064.474   198063851.1331       1095.322          17.000  
C19  22823856.167   118849581.106        1517.324          37.000  
C20  24020592.284   125081368.796       -1367.907          26.000  
C22  24912632.837   129726741.884        3533.074          26.000  
C29  23518173.701   122465202.213       -1859.610          23.000  
C40  35948200.372   187191546.9321        -94.075          19.000  
E16  27580298.251   144935455.6441      -3083.058          14.000  
G04  23478266.228   123379002.430         444.009          32.000  
G09  22798031.745   119804402.466        2088.290          30.000  
G17  21925513.676   115219351.631       -2003.707          39.000  
G19  20011964.799   105163479.847        -747.959          30.000  
G22  23548811.291   123749790.252       -3226.317          33.000  
J02  37330743.058   196174316.835          64.675          35.000  
> 2025 05 21 04 38 15.9996100  0 15                     
C08  37106005.909   193220457.097         986.107          21.000  
C13  38035852.090   198062744.6271       1093.280          17.000  
C19  22823563.139   118848052.914        1517.303          37.000  
C20  24020857.469   125082725.412       -1369.245          26.000  
C22  24911951.877   129723196.983        3533.144          25.000  
C29  23518533.620   122467049.461       -1859.781          22.000  
C40  35948219.728   187191627.7881        -94.572          19.000  
E16  27580883.015   144938525.9131      -3083.408          14.000  
G04  23478182.455   123378546.634         443.244          33.000  
G09  22797633.789   119802302.927        2088.229          30.000  
G12  22743021.496   119515383.6731       1631.115          20.000  
G17  21925894.881   115221343.407       -2003.355          38.000  
G19  20012105.270   105164216.317        -748.948          29.000  
G22  23549424.535   123753005.390       -3225.286          34.000  
J02  37330731.835   196174241.394          64.548          33.000  
> 2025 05 21 04 38 16.9995490  0 15                     
C08  37105844.565   193219611.3951        985.948          19.000  
C13  38035678.454   198061791.0361       1092.927          17.000  
C19  22823297.766   118846676.604        1516.108          37.000  
C20  24021153.608   125084233.314       -1368.974          25.000  
C22  24911302.171   129719804.499        3532.902          24.000  
C29  23518921.496   122469048.001       -1861.633          28.000  
C40  35948265.240   187191862.3381        -94.597          19.000  
E16  27581504.428   144941750.8341      -3084.129          14.000  
G04  23478127.837   123378245.426         441.040          32.000  
G09  22797263.789   119800356.539        2088.031          29.000  
G12  22742742.933   119513893.7571       1630.255          19.000  
G17  21926304.042   115223486.269       -2004.087          39.000  
G19  20012273.697   105165105.837        -749.314          29.000  
G22  23550063.037   123756369.203       -3224.709          31.000  
J02  37330746.768   196174317.764          65.442          35.000  
> 2025 05 21 04 38 17.9994879  0 16                     
C08  37105657.138   193218893.3601        985.495          18.000  
C13  38035464.046   198060683.7421       1091.338          17.000  
C19  22823003.613   118845145.704        1516.344          37.000  
C20  24021413.172   125085587.993       -1370.100          25.000  
C22  24910621.586   129716257.421        3533.162          23.000  
C29  23519278.193   122470894.792       -1861.706          29.000  
C40  35948283.771   187191940.5371        -94.042          19.000  
E16  27582097.961   144944819.0351      -3084.824          14.000  
G04  23478042.639   123377788.758         441.032          33.000  
G09  22796865.608   119798254.639        2087.200          30.000  
G11  21775891.214   114433080.5481       1780.249          21.000  
G12  22742434.090   119512248.5911       1629.436          18.000  
G17  21926682.923   115225475.351       -2002.937          39.000  
G19  20012413.045   105165838.814        -749.034          28.000  
G22  23550674.857   123759580.324       -3226.372          32.000  
J02  37330732.622   196174237.797          64.858          34.000  
> 2025 05 21 04 38 19.0004268  0 17                     
C08  37105483.652   193217990.5041        985.139          18.000  
C13  38035271.673   198059674.3121       1090.206          12.000  
C19  22822732.994   118843711.444        1515.007          37.000  
C20  24021692.672   125087042.301       -1369.504          24.000  
C22  24909960.337   129712804.300        3533.390          22.000  
C29  23519657.823   122472839.929       -1861.391          29.000  
C40  35948318.041   187192116.7461        -93.663          13.000  
E16  27582700.338   144947990.2371      -3083.410          14.000  
G04  23477977.078   123377430.294         441.072          33.000  
G06  20664098.086   108590567.7561        -46.324          22.000  
G09  22796486.465   119796250.285        2086.481          30.000  
G11  21775566.633   114431381.396        1780.703          20.000  
G12  22742145.784   119510701.0771       1628.455          18.000  
G17  21927081.441   115227563.007       -2004.229          38.000  
G19  20012571.429   105166671.931        -748.420          27.000  
G22  23551307.213   123762892.113       -3225.800          32.000  
J02  37330736.313   196174257.696          65.049          34.000  
> 2025 05 21 04 38 20.0003658  0 17                     
C08  37105315.450   193217148.0571        984.201          17.000  
C13  38035092.378   198058725.6511       1089.293          11.000  
C19  22822469.458   118842339.635        1513.835          36.000  
C20  24021978.355   125088551.988       -1369.193          22.000  
C22  24909307.670   129709413.545        3532.678          21.000  
C29  23520039.740   122474844.138       -1864.774          26.000  
C40  35948361.492   187192352.0271        -93.455          13.000  
E16  27583315.793   144951214.9671      -3083.568          13.000  
G04  23477920.699   123377133.671         437.127          32.000  
G06  20664135.841   108590754.8331        -44.258          19.000  
G09  22796119.500   119794307.770        2086.241          30.000  
G11  21775253.331   114429743.236        1781.048          20.000  
G12  22741868.457   119509214.9611       1629.082          19.000  
G17  21927490.939   115229711.571       -2005.495          38.000  
G19  20012741.692   105167564.678        -750.774          28.000  
G22  23551950.549   123766260.414       -3226.304          33.000  
J02  37330751.883   196174335.996          64.904          33.000  
> 2025 05 21 04 38 21.0003048  0 16                     
C08  37105158.171   193216305.2641        984.275          18.000  
C19  22822205.753   118840965.807        1516.013          34.000  
C20  24022268.967   125090061.800       -1371.390          23.000  
C22  24908657.833   129706022.815        3531.925          20.000  
C29  23520425.386   122476848.555       -1862.443          24.000  
C40  35948407.473   187192586.2561        -93.779          13.000  
E16  27583934.377   144954440.8451      -3083.662          13.000  
G04  23477861.752   123376837.129         438.616          32.000  
G06  20664169.531   108590937.0351        -41.057          19.000  
G09  22795750.568   119792364.425        2085.635          30.000  
G11  21774941.659   114428103.524        1781.920          21.000  
G12  22741588.563   119507727.5401       1629.221          19.000  
G17  21927900.868   115231856.546       -2004.681          38.000  
G19  20012912.686   105168456.780        -750.909          27.000  
G22  23552593.117   123769628.843       -3227.296          33.000  
J02  37330768.484   196174414.632          63.768          33.000  
> 2025 05 21 04 38 22.0002437  0 16                     
C08  37104966.641   193215308.7091        984.243          17.000  
C19  22821914.392   118839439.236        1512.499          34.000  
C20  24022526.826   125091420.898       -1371.653          21.000  
C22  24907979.140   129702478.9881       3531.811          20.000  
C29  23520786.973   122478696.602       -1862.704          25.000  
C40  35948422.200   187192666.8841        -93.659          14.000  
E16  27584518.710   144957511.1801      -3085.674          14.000  
G04  23477776.948   123376385.571         438.061          33.000  
G06  20664179.761   108590964.3481        -40.739          20.000  
G09  22795355.779   119790267.352        2083.821          30.000  
G11  21774601.132   114426308.487        1782.079          20.000  
G12  22741278.915   119506085.0021       1629.447          18.000  
G17  21928281.642   115233849.635       -2005.716          38.000  
G19  20013057.524   105169195.175        -752.776          28.000  
G22  23553205.630   123772841.799       -3227.759          33.000  
J02  37330755.331   196174338.068          65.472          32.000  
> 2025 05 21 04 38 23.0001827  0 16                     
C08  37104802.242   193214466.3341        983.481          17.000  
C19  22821654.360   118838342.572        1513.591          33.000  
C20  24022816.912   125092933.4061      -1372.097          20.000  
C22  24907329.677   129699089.231        3531.551          20.000  
C29  23521170.295   122480701.703       -1863.621          26.000  
C40  35948472.153   187192901.7411        -93.589          15.000  
E16  27585140.367   144960738.8451      -3086.612          13.000  
G04  23477721.374   123376090.054         437.145          33.000  
G06  20664219.221   108591147.2531        -40.628          19.000  
G09  22794988.420   119788326.542        2083.471          30.000  
G11  21774289.236   114424668.0101       1782.692          20.000  
G12  22740998.497   119504597.9151       1628.855          18.000  
G17  21928692.245   115235997.105       -2006.669          38.000  
G19  20013228.293   105170088.668        -752.195          28.000  
G22  23553846.474   123776212.358       -3226.151          33.000  
J02  37330771.107   196174416.437          64.355          33.000  
> 2025 05 21 04 38 24.0001217  0 16                     
C08  37104641.779   193213626.7991        982.337          17.000  
C19  22821390.767   118836972.235        1513.621          33.000  
C20  24023110.634   125094448.9531      -1373.351          19.000  
C22  24906685.348   129695701.537        3531.035          20.000  
C29  23521560.250   122482707.520       -1865.336          26.000  
C40  35948516.747   187193136.1641        -93.956          17.000  
E16  27585762.362   144963969.8371      -3086.537          13.000  
G04  23477667.337   123375796.966         435.645          33.000  
G06  20664260.218   108591331.667         -41.408          21.000  
G09  22794619.901   119786387.932        2083.377          30.000  
G11  21773976.477   114423028.8991       1782.959          20.000  
G12  22740717.816   119503112.7111       1629.047          12.000  
G17  21929102.586   115238146.062       -2006.284          37.000  
G19  20013399.399   105170985.266        -753.424          28.000  
G22  23554489.754   123779581.871       -3226.751          32.000  
J02  37330787.821   196174497.985          62.463          33.000  
> 2025 05 21 04 38 25.0000606  0 16                     
C08  37104452.984   193212631.1821        982.191          16.000  
C19  22821098.845   118835446.427        1511.053          34.000  
C20  24023370.629   125095807.8701      -1374.849          19.000  
C22  24906006.993   129692157.260        3530.951          20.000  
C29  23521921.875   122484819.573       -1864.640          26.000  
C40  35948533.611   187193215.5561        -93.867          17.000  
E16  27586345.533   144967040.2461      -3086.596          13.000  
G04  23477581.371   123375347.059         435.938          33.000  
G06  20664270.486   108591359.144         -41.783          20.000  
G09  22794221.251   119784291.009        2083.249          30.000  
G11  21773633.290   114421230.9611       1784.017          13.000  
G12  22740404.608   119501468.8461       1629.467          10.000  
G17  21929482.797   115240139.965       -2007.473          37.000  
G19  20013540.976   105171724.603        -754.190          28.000  
G22  23555101.405   123782793.411       -3228.078          33.000  
J02  37330772.606   196174421.635          63.080          33.000  
> 2025 05 21 04 38 25.9999996  0 16                     
C08  37104287.555   193211784.5841        987.248          16.000  
C19  22820836.283   118834078.197        1507.375          34.000  
C20  24023664.182   125097323.665       -1377.469          21.000  
C22  24905359.197   129688768.374        3528.813          20.000  
C29  23522303.267   122486824.232       -1865.574          26.000  
C40  35948578.935   187193450.9761        -94.719          17.000  
E16  27586964.361   144970268.5111      -3086.899          13.000  
G04  23477525.666   123375054.420         432.247          33.000  
G06  20664309.215   108591542.3111        -42.196          20.000  
G09  22793852.263   119782351.124        2080.140          30.000  
G11  21773324.260   114419588.2901       1784.619          14.000  
G12  22740125.258   119499980.5661       1629.587           9.000  
G17  21929893.569   115242289.654       -2011.574          38.000  
G19  20013715.812   105172623.142        -758.648          29.000  
G22  23555743.617   123786164.310       -3231.849          33.000  
J02  37330787.652   196174501.400          60.678          33.000  
> 2025 05 21 04 38 26.9999386  0 15                     
C08  37104123.756   193210933.1851        992.570          11.000  
C19  22820572.353   118832712.109        1510.578          34.000  
C20  24023967.160   125098841.821       -1378.090          23.000  
C22  24904710.334   129685381.9141       3528.308          20.000  
C29  23522684.491   122488831.830       -1865.208          28.000  
C40  35948628.888   187193685.8491        -95.782          18.000  
E16  27587573.127   144973497.5171      -3086.029          13.000  
G04  23477470.991   123374763.750         434.873          33.000  
G06  20664346.577   108591727.360         -42.911          20.000  
G09  22793485.505   119780414.853        2080.589          31.000  
G11  21773011.464   114417945.0701       1785.534          13.000  
G17  21930304.772   115244442.636       -2006.461          38.000  
G19  20013889.579   105173523.861        -758.038          29.000  
G22  23556384.760   123789538.651       -3229.337          33.000  
J02  37330803.429   196174583.808          63.357          33.000  
> 2025 05 21 04 38 27.9998775  0 16                     
C08  37103934.456   193209939.6711        979.954          11.000  
C13  38034359.536   198054890.4421       1091.357           7.000  
C19  22820282.322   118831186.212        1513.370          34.000  
C20  24024240.439   125100523.728       -1377.265          22.000  
C22  24904030.873   129681839.990        3535.103          20.000  
C29  23523042.911   122490680.895       -1861.201          27.000  
C40  35948647.944   187194043.2721        -96.826          18.000  
E16  27588154.893   144976567.8421      -3082.463          13.000  
G04  23477386.019   123374313.158         437.057          34.000  
G06  20664353.641   108591755.9471        -43.153          20.000  
G09  22793087.849   119778318.991        2085.087          30.000  
G11  21772669.869   114416145.4001       1786.031          14.000  
G17  21930684.778   115246433.360       -2005.005          38.000  
G19  20014033.348   105174263.797        -753.295          29.000  
G22  23556996.206   123792751.591       -3224.301          33.000  
J02  37330791.906   196174504.789          67.326          33.000  
> 2025 05 21 04 38 28.9998165  0 15                     
C08  37103774.404   193209102.2441        979.588          11.000  
C19  22820018.243   118829815.222        1513.379          33.000  
C20  24024536.972   125102042.486       -1375.979          21.000  
C22  24903378.262   129678448.1951       3533.849          19.000  
C29  23523425.484   122492683.049       -1860.757          26.000  
C40  35948694.749   187194279.846         -96.384          21.000  
E16  27588771.603   144979793.8861      -3082.503          13.000  
G04  23477330.295   123374019.118         436.037          33.000  
G06  20664393.251   108591941.600         -42.770          21.000  
G09  22792720.341   119776376.794        2086.623          31.000  
G11  21772357.823   114414501.9421       1786.239          15.000  
G17  21931095.831   115248580.347       -2006.295          38.000  
G19  20014203.967   105175161.307        -752.973          28.000  
G22  23557637.200   123796117.596       -3225.410          33.000  
J02  37330808.132   196174581.937          65.377          33.000  
> 2025 05 21 04 38 29.9997554  0 15                     
C19  22819724.839   118828288.193        1510.048          32.000  
C20  24024799.983   125103400.767       -1374.817          22.000  
C22  24902697.527   129674901.211        3531.616          21.000  
C29  23523782.630   122494529.741       -1862.979          28.000  
C40  35948710.732   187194361.080         -96.514          23.000  
E16  27589359.890   144982859.5191      -3081.882           6.000  
G04  23477245.547   123373568.274         434.633          31.000  
G06  20664402.038   108591966.8691        -42.334          20.000  
G09  22792324.109   119774276.643        2084.084          30.000  
G11  21772016.453   114412700.154        1784.928          21.000  
G12  22738911.585   119493785.9691       1630.684          19.000  
G17  21931476.061   115250571.176       -2006.741          38.000  
G19  20014347.961   105175897.371        -753.333          27.000  
G22  23558251.268   123799328.928       -3227.100          32.000  
J02  37330793.236   196174502.033          64.807          36.000  
> 2025 05 21 04 38 30.9996944  0 15                     
C13  38032953.209   198047567.3661       1089.653          21.000  
C19  22819465.088   118826921.439        1509.850          33.000  
C20  24025093.649   125104918.169       -1374.123          21.000  
C22  24902045.648   129671512.830        3531.700          22.000  
C29  23524168.332   122496535.904       -1863.903          27.000  
C40  35948757.968   187194601.497         -97.568          21.000  
G04  23477191.454   123373277.045         434.780          32.000  
G06  20664437.283   108592151.8641        -41.848          20.000  
G09  22791957.331   119772338.106        2082.375          30.000  
G11  21771706.037   114411059.0551       1784.291          19.000  
G12  22738631.748   119492299.7651       1628.167          16.000  
G17  21931885.746   115252721.501       -2007.212          37.000  
G19  20014520.211   105176796.188        -755.431          28.000  
G22  23558895.991   123802699.312       -3227.571          32.000  
J02  37330807.495   196174581.571          64.828          34.000  
> 2025 05 21 04 38 31.9996334  0 17                     
C08  37103254.920   193206384.2731        984.618          13.000  
C13  38032780.023   198046621.4651       1090.852          20.000  
C19  22819199.566   118825555.991        1509.989          34.000  
C20  24025389.038   125106433.9491      -1372.425          20.000  
C22  24901401.487   129668124.975        3532.413          21.000  
C29  23524554.559   122498542.265       -1864.354          22.000  
C38  36347608.843   189271537.1981        737.426          21.000  
C40  35948801.831   187194841.033         -97.758          21.000  
G04  23477136.685   123372988.070         432.596          33.000  
G06  20664474.251   108592338.2931        -42.084          20.000  
G09  22791590.779   119770402.351        2080.191          30.000  
G11  21771392.847   114409419.8131       1783.232          19.000  
G12  22738358.731   119490822.6911       1621.030          17.000  
G17  21932295.057   115254873.805       -2008.285          36.000  
G19  20014695.383   105177695.044        -756.268          29.000  
G22  23559539.439   123806068.824       -3227.216          33.000  
J02  37330823.477   196174661.603          65.055          33.000  
> 2025 05 21 04 38 32.9995723  0 17                     
C08  37103066.126   193205383.7711        984.373          15.000  
C13  38032571.442   198045515.067        1092.588          21.000  
C19  22818909.741   118824031.243        1510.067          35.000  
C20  24025655.628   125107790.467       -1374.599          22.000  
C22  24900727.329   129664578.1141       3532.043          19.000  
C29  23524912.586   122500391.388       -1864.880          22.000  
C38  36347462.019   189270784.9891        735.305          20.000  
C40  35948817.795   187194923.304         -96.904          21.000  
G04  23477052.818   123372539.520         432.790          33.000  
G06  20664481.221   108592365.6521        -41.840          20.000  
G09  22791193.329   119768307.342        2080.044          30.000  
G11  21771049.959   114407621.3811       1781.461          19.000  
G12  22738050.319   119489185.8431       1620.356          17.000  
G17  21932674.669   115256868.331       -2009.192          34.000  
G19  20014838.459   105178437.127        -758.209          28.000  
G22  23560151.990   123809281.038       -3227.386          32.000  
J02  37330809.462   196174582.347          64.024          33.000  
> 2025 05 21 04 38 33.9995113  0 17                     
C08  37102904.238   193204540.8461        983.934          17.000  
C13  38032392.466   198044563.140        1094.781          21.000  
C19  22818650.121   118822664.736        1507.138          35.000  
C20  24025943.729   125109307.756       -1376.450          24.000  
C22  24900078.878   129661188.2961       3532.268          20.000  
C29  23525303.215   122502397.144       -1865.719          21.000  
C38  36347347.499   189270191.7151        733.591          19.000  
C40  35948867.860   187195161.178         -96.948          20.000  
G04  23476996.457   123372249.364         432.693          33.000  
G06  20664521.093   108592550.231         -41.823          21.000  
G09  22790825.484   119766370.740        2080.650          31.000  
G11  21770737.876   114405982.9811       1780.697          19.000  
G12  22737772.411   119487708.7621       1618.845          19.000  
G17  21933083.586   115259017.839       -2009.011          34.000  
G19  20015009.641   105179338.727        -759.524          28.000  
G22  23560795.644   123812650.123       -3228.097          32.000  
J02  37330825.051   196174662.007          63.866          34.000  
> 2025 05 21 04 38 34.9994503  0 17                     
C08  37102746.322   193203696.4391        984.992          17.000  
C13  38032212.666   198043609.786        1093.910          21.000  
C19  22818386.379   118821298.719        1506.748          34.000  
C20  24026239.699   125110826.146       -1378.620          24.000  
C22  24899430.502   129657797.6121       3531.664          20.000  
C29  23525694.519   122504401.5231      -1865.523          20.000  
C38  36347231.554   189269599.1181        731.852          19.000  
C40  35948912.005   187195399.025         -99.142          20.000  
G04  23476943.169   123371959.840         429.882          33.000  
G06  20664561.041   108593000.732         -43.286          21.000  
G09  22790457.114   119764433.980        2078.543          30.000  
G11  21770426.766   114404344.6181       1779.152          19.000  
G12  22737490.981   119486231.4911       1618.022          18.000  
G17  21933493.477   115261169.183       -2010.167          34.000  
G19  20015180.598   105180239.540        -760.117          28.000  
G22  23561439.973   123816020.097       -3229.985          33.000  
J02  37330841.615   196174741.143          62.434          33.000  
> 2025 05 21 04 38 36.0003892  0 17                     
C08  37102573.716   193202792.7891        984.992          17.000  
C13  38032010.381   198042598.832        1092.777          21.000  
C19  22818112.743   118819873.775        1506.610          34.000  
C20  24026527.275   125112288.914       -1381.033          23.000  
C22  24898771.933   129654345.797        3531.849          21.000  
C29  23526069.934   122506351.8791      -1866.443          20.000  
C38  36347105.716   189268949.5891        730.767          18.000  
C40  35948954.351   187195580.628        -101.426          20.000  
G04  23476878.789   123371612.460         430.587          34.000  
G06  20664590.196   108593129.301         -44.984          21.000  
G09  22790078.251   119762437.257        2078.712          30.000  
G11  21770105.463   114402647.412        1778.031          22.000  
G12  22737200.258   119484695.465        1617.234          21.000  
G17  21933894.375   115263264.233       -2009.453          35.000  
G19  20015339.263   105181083.311        -760.555          29.000  
G22  23562074.409   123819336.207       -3228.354          33.000  
J02  37330846.187   196174761.870          64.727          33.000  
> 2025 05 21 04 38 37.0003281  0 17                     
C08  37102384.585   193201792.2411        983.820          17.000  
C13  38031804.761   198041491.298        1091.921          21.000  
C19  22817820.483   118818352.157        1505.846          34.000  
C20  24026787.532   125113653.451       -1381.221          23.000  
C22  24898094.739   129650798.937        3531.542          21.000  
C29  23526430.023   122508203.0161      -1866.414          20.000  
C38  36346963.352   189268202.8781        730.310          18.000  
C40  35948971.476   187195666.315        -102.415          21.000  
G04  23476794.884   123371165.490         430.199          33.000  
G06  20664600.426   108593157.113         -46.055          20.000  
G09  22789681.663   119760343.801        2078.564          31.000  
G11  21769765.836   114400853.913        1776.314          23.000  
G12  22736890.609   119483062.385        1616.489          22.000  
G17  21934274.549   115265257.714       -2010.726          36.000  
G19  20015481.402   105181825.472        -758.244          29.000  
G22  23562686.623   123822547.671       -3228.733          33.000  
J02  37330831.834   196174682.733          62.833          33.000  
> 2025 05 21 04 38 38.0002671  0 17                     
C08  37102230.660   193200950.3951        984.081          17.000  
C13  38031630.450   198040543.303        1090.638          21.000  
C19  22817561.631   118816990.078        1505.143          35.000  
C20  24027079.699   125115177.428       -1382.435          23.000  
C22  24897448.555   129647410.985        3531.176          23.000  
C29  23526821.121   122510210.3221      -1866.405          19.000  
C38  36346853.197   189267615.1821        729.205          18.000  
C40  35949013.316   187195911.883        -101.865          20.000  
G04  23476742.290   123370880.195         428.268          33.000  
G06  20664639.568   108593347.987         -46.267          20.000  
G09  22789316.085   119758408.755        2079.699          30.000  
G11  21769459.917   114399221.455        1775.775          24.000  
G12  22736613.470   119481589.736        1615.674          23.000  
G17  21934686.932   115267411.980       -2010.552          35.000  
G19  20015651.853   105182729.398        -760.250          29.000  
G22  23563329.546   123825918.808       -3227.920          34.000  
J02  37330847.292   196174764.394          62.389          34.000  
> 2025 05 21 04 38 39.0002061  0 17                     
C08  37102068.754   193200107.8491        982.875          17.000  
C13  38031443.661   198039595.296        1091.126          21.000  
C19  22817301.992   118815627.018        1504.791          36.000  
C20  24027381.271   125116700.956       -1380.642          23.000  
C22  24896798.886   129644022.066        3530.911          23.000  
C26  25533615.927   132960238.2531      -2269.975          21.000  
C29  23527208.134   122512218.541       -1866.860          22.000  
C40  35949056.767   187196153.736        -100.313          22.000  
G04  23476688.608   123370594.139         428.047          28.000  
G06  20664676.124   108593537.224         -46.901          20.000  
G09  22788947.621   119756473.218        2076.912          30.000  
G11  21769152.610   114397588.579        1775.171          25.000  
G12  22736335.244   119480116.5591       1615.460          20.000  
G17  21935098.529   115269563.825       -2010.880          37.000  
G19  20015822.416   105183630.796        -761.859          29.000  
G22  23563973.182   123829290.193       -3229.882          35.000  
J02  37330862.863   196174844.757          62.678          36.000  
> 2025 05 21 04 38 40.0001450  0 17                     
C08  37101880.859   193199111.0301        982.160          18.000  
C13  38031233.581   198038490.579        1092.079          21.000  
C19  22817009.169   118814108.943        1504.179          36.000  
C20  24027635.570   125118066.652       -1381.315          25.000  
C22  24896116.034   129640478.364        3529.793          24.000  
C26  25534037.510   132962495.235       -2268.474          20.000  
C29  23527572.457   122514069.479       -1865.816          20.000  
C40  35949078.427   187196237.539         -98.829          23.000  
G04  23476606.240   123370151.880         426.890          26.000  
G06  20664684.293   108593569.0871        -47.509          20.000  
G09  22788550.171   119754383.442        2075.225          30.000  
G11  21768815.119   114395798.704        1775.781          25.000  
G12  22736022.935   119478487.9851       1614.488          19.000  
G17  21935479.939   115271561.378       -2012.241          37.000  
G19  20015966.991   105184378.434        -761.344          29.000  
G22  23564586.333   123832505.750       -3229.993          35.000  
J02  37330847.348   196174768.240          62.427          36.000  
> 2025 05 21 04 38 41.0000840  0 17                     
C08  37101721.200   193198270.6711        982.246          18.000  
C13  38031050.239   198037541.636        1091.580          21.000  
C19  22816747.882   118812747.699        1503.762          36.000  
C20  24027929.198   125119590.788       -1381.907          24.000  
C22  24895468.913   129637092.358        3528.741          23.000  
C26  25534494.525   132964905.9341      -2267.647          19.000  
C29  23527958.421   122516077.537       -1865.488          21.000  
C40  35949126.525   187196478.854         -98.052          21.000  
G04  23476554.207   123369868.260         426.650          31.000  
G06  20664720.699   108593760.0401        -48.521          15.000  
G09  22788183.656   119752451.796        2075.949          31.000  
G11  21768505.565   114394166.385        1775.565          24.000  
G12  22735749.356   119477018.025        1614.115          21.000  
G17  21935893.185   115273716.318       -2011.899          38.000  
G19  20016139.802   105185283.479        -762.611          28.000  
G22  23565229.519   123835878.156       -3230.858          34.000  
J02  37330862.769   196174850.044          62.991          35.000  
> 2025 05 21 04 38 42.0000229  0 17                     
C08  37101528.378   193197275.0271        981.840          18.000  
C13  38030836.131   198036437.316        1092.070          20.000  
C19  22816456.727   118811232.129        1502.719          35.000  
C20  24028190.561   125120958.661       -1383.224          25.000  
C22  24894791.925   129633551.702        3527.942          22.000  
C26  25534926.469   132967159.9421      -2267.081          18.000  
C29  23528313.918   122517930.014       -1866.491          27.000  
C40  35949145.656   187196563.212         -98.103          21.000  
G04  23476473.207   123369699.071         426.149          34.000  
G06  20664725.140   108593795.1611        -49.055          14.000  
G09  22787789.673   119750642.498        2075.585          31.000  
G11  21768164.944   114392377.802        1774.512          23.000  
G12  22735441.113   119475391.781        1612.977          23.000  
G17  21936275.963   115275715.801       -2013.127          36.000  
G19  20016283.646   105186033.780        -763.417          28.000  
G22  23565843.737   123839094.225       -3230.037          33.000  
J02  37330848.323   196174774.636          61.954          35.000  
> 2025 05 21 04 38 42.9999619  0 17                     
C08  37101368.794   193196434.0791        981.257          18.000  
C13  38030662.458   198035487.773        1090.694          20.000  
C19  22816196.114   118809871.625        1502.216          34.000  
C20  24028482.765   125122483.538       -1383.941          26.000  
C22  24894150.276   129630165.566        3528.354          22.000  
C26  25535390.155   132969568.7591      -2266.383          18.000  
C29  23528707.452   122519937.177       -1868.162          25.000  
C40  35949192.629   187196800.863         -99.530          21.000  
G04  23476422.149   123369415.006         425.917          35.000  
G06  20664763.120   108593985.7861        -49.177          13.000  
G09  22787423.832   119748710.254        2075.063          31.000  
G11  21767855.765   114390745.787        1774.378          24.000  
G12  22735161.013   119473921.990        1612.844          23.000  
G17  21936688.084   115277870.381       -2013.130          36.000  
G19  20016461.629   105187215.383        -763.665          29.000  
G22  23566486.698   123842466.104       -3229.701          32.000  
J02  37330864.418   196174855.649          62.682          36.000  
> 2025 05 21 04 38 43.9999009  0 17                     
C08  37101206.794   193195595.1311        980.718          19.000  
C13  38030477.373   198034540.679        1089.503          20.000  
C19  22815936.081   118808514.024        1500.168          35.000  
C20  24028774.650   125124009.001       -1385.122          25.000  
C22  24893500.513   129626780.477        3529.162          21.000  
C26  25535852.922   132971977.7081      -2265.488          17.000  
C29  23529091.674   122521948.007       -1871.015          23.000  
C40  35949244.381   187197043.130         -99.414          21.000  
G04  23476371.071   123369133.441         424.427          35.000  
G06  20664802.280   108594179.4541        -49.666          14.000  
G09  22787057.973   119746780.514        2073.491          31.000  
G11  21767545.067   114389115.886        1774.067          23.000  
G12  22734881.794   119472454.237        1612.225          23.000  
G17  21937100.486   115280028.180       -2013.601          36.000  
G19  20016638.694   105188124.372        -764.829          30.000  
G22  23567130.540   123846106.193       -3230.866          33.000  
J02  37330880.194   196174938.796          61.362          36.000  
> 2025 05 21 04 38 44.9998398  0 17                     
C08  37101011.404   193194598.7621        980.196          20.000  
C13  38030262.197   198033436.1381       1089.709          20.000  
C19  22815648.355   118806997.777        1501.913          35.000  
C20  24029040.042   125125379.598       -1384.933          25.000  
C22  24892818.261   129623236.454        3529.194          22.000  
C26  25536281.400   132974227.3771      -2264.868          17.000  
C29  23529446.703   122523805.142       -1870.470          24.000  
C40  35949265.441   187197127.352         -99.425          21.000  
G04  23476289.903   123368692.827         423.882          35.000  
G06  20664810.150   108594212.8331        -50.162          14.000  
G09  22786660.823   119744691.976        2073.276          31.000  
G11  21767205.477   114387325.715        1774.073          23.000  
G12  22734574.282   119470827.224        1611.565          23.000  
G17  21937481.598   115282024.077       -2013.039          36.000  
G19  20016783.569   105188871.234        -764.399          30.000  
G22  23567745.190   123849320.865       -3231.073          33.000  
J02  37330867.378   196174861.516          62.589          36.000  
> 2025 05 21 04 38 45.9997788  0 17                     
C08  37100854.781   193193759.1911        980.256          19.000  
C13  38030081.891   198032487.7671       1090.032          19.000  
C19  22815389.803   118805638.056        1500.522          35.000  
C20  24029331.609   125126904.742       -1385.555          24.000  
C22  24892164.282   129619849.350        3528.451          22.000  
C26  25536739.952   132976632.1071      -2264.508          18.000  
C29  23529831.805   122525814.066       -1870.086          24.000  
C40  35949310.879   187197366.263         -99.393          20.000  
G04  23476239.107   123368410.928         423.963          35.000  
G06  20664847.193   108594404.2071        -50.331          14.000  
G09  22786295.245   119742761.299        2074.255          31.000  
G11  21766895.960   114385693.725        1774.058          22.000  
G12  22734298.342   119469359.260        1610.121          23.000  
G17  21937893.081   115284180.201       -2013.992          36.000  
G19  20016958.517   105189779.323        -766.584          30.000  
G22  23568388.713   123852692.039       -3230.168          33.000  
J02  37330883.136   196174942.672          61.510          36.000  
> 2025 05 21 04 38 46.9997178  0 17                     
C08  37100698.065   193192922.4361        979.687          19.000  
C13  38029902.390   198031542.0351       1089.619          18.000  
C19  22815130.258   118804282.724        1499.186          35.000  
C20  24029623.082   125128433.731       -1386.437          23.000  
C22  24891518.304   129616465.206        3528.571          23.000  
C26  25537202.606   132979041.6071      -2264.487          18.000  
C29  23530215.015   122527826.373       -1867.560          24.000  
C40  35949356.822   187197609.545         -99.896          20.000  
G04  23476188.517   123368131.832         422.231          34.000  
G06  20664885.341   108594599.9561        -50.450          14.000  
G09  22785930.772   119740833.545        2072.978          32.000  
G11  21766585.450   114384064.123        1774.491          23.000  
G12  22734020.509   119467895.178        1609.383          23.000  
G17  21938304.771   115286339.897       -2015.981          35.000  
G19  20017134.870   105190690.772        -766.600          30.000  
G22  23569032.742   123856067.096       -3231.056          33.000  
J02  37330900.299   196175026.815          61.743          36.000  
> 2025 05 21 04 38 47.9996567  0 17                     
C08  37100510.582   193191925.8501        979.624          18.000  
C13  38029689.725   198030436.6091       1089.219          18.000  
C19  22814843.544   118802767.956        1498.009          35.000  
C20  24029885.588   125129801.951       -1386.237          22.000  
C22  24890838.262   129612920.949        3528.375          23.000  
C26  25537635.394   132981289.0321      -2264.641          18.000  
C29  23530566.859   122529677.740       -1868.150          23.000  
C40  35949376.496   187197690.970         -99.077          20.000  
G04  23476104.462   123367693.387         420.678          34.000  
G06  20664896.321   108594633.9271        -50.512          15.000  
G09  22785534.334   119738744.621        2072.492          32.000  
G11  21766246.273   114382272.454        1775.142          23.000  
G12  22733711.610   119466270.279        1608.137          23.000  
G17  21938686.295   115288338.308       -2015.562          35.000  
G19  20017279.257   105191440.379        -767.402          30.000  
G22  23569646.305   123859282.673       -3230.812          34.000  
J02  37330886.097   196174948.829          61.284          36.000  
> 2025 05 21 04 38 48.9995957  0 17                     
C08  37100350.437   193191087.0711        979.786          19.000  
C13  38029507.095   198029488.9701       1089.798          17.000  
C19  22814585.666   118801411.458        1498.420          34.000  
C20  24030180.527   125131328.635       -1385.955          20.000  
C22  24890187.357   129609534.550        3528.257          23.000  
C26  25538097.618   132983695.2411      -2264.367          18.000  
C29  23530954.434   122531687.169       -1869.381          23.000  
C40  35949418.111   187197932.361         -98.949          20.000  
G04  23476052.842   123367414.106         422.003          34.000  
G06  20664934.638   108594825.5771        -50.124          15.000  
G09  22785167.931   119736815.098        2073.373          31.000  
G11  21765936.531   114380639.853        1774.212          22.000  
G12  22733436.345   119464805.364        1608.061          23.000  
G17  21939096.954   115290495.484       -2014.819          35.000  
G19  20017453.680   105192349.097        -767.962          30.000  
G22  23570288.704   123862653.872       -3230.921          33.000  
J02  37330901.030   196175030.853          60.864          36.000  
> 2025 05 21 04 38 49.9995347  0 17                     
C08  37100189.074   193190249.8301        979.599          18.000  
C13  38029320.849   198028542.8691       1089.023          17.000  
C19  22814326.870   118800057.010        1498.195          35.000  
C20  24030473.349   125132857.2351      -1385.345          19.000  
C22  24889541.229   129606149.960        3528.184          23.000  
C26  25538562.221   132986101.1301      -2264.043          18.000  
C29  23531338.993   122533698.540       -1868.440          26.000  
C40  35949460.007   187198173.024        -100.504          20.000  
G04  23476001.203   123367137.033         420.181          33.000  
G06  20664974.136   108595020.7001        -50.164          15.000  
G09  22784800.911   119734887.502        2072.178          32.000  
G11  21765625.271   114379010.2351       1773.065          20.000  
G12  22733158.662   119463342.436        1607.964          23.000  
G17  21939509.394   115292654.841       -2016.625          36.000  
G19  20017628.984   105193260.307        -768.679          29.000  
G22  23570930.185   123866029.728       -3232.661          33.000  
J02  37330918.943   196175115.390          59.437          36.000  
> 2025 05 21 04 38 50.9994736  0 18                     
C08  37099996.982   193189256.4311        979.100          19.000  
C13  38029112.568   198027440.9371       1088.119          17.000  
C19  22814042.142   118798545.716        1496.943          37.000  
C20  24030732.745   125134228.7941      -1388.935          20.000  
C22  24888862.274   129602608.400        3528.487          23.000  
C26  25538995.796   132988350.4731      -2264.081          19.000  
C29  23531695.821   122535551.601       -1868.242          24.000  
C40  35949480.468   187198258.472         -99.062          20.000  
E16  27602476.878   145051994.8361      -3084.039          13.000  
G04  23475919.434   123366702.593         419.516          32.000  
G06  20664986.503   108595055.4621        -50.108          16.000  
G09  22784403.760   119732802.803        2070.528          32.000  
G11  21765284.482   114377222.8111       1772.610          20.000  
G12  22732851.150   119461721.408        1607.161          22.000  
G17  21939890.205   115294655.807       -2015.650          38.000  
G19  20017772.360   105194016.439        -768.926          28.000  
G22  23571544.834   123869248.426       -3232.861          34.000  
J02  37330905.827   196175041.569          61.430          36.000  
> 2025 05 21 04 38 52.0004125  0 17                     
C08  37099829.210   193188357.0971        978.648          18.000  
C13  38028913.618   198026434.2481       1087.041          17.000  
C19  22813773.641   118797128.967        1497.713          37.000  
C20  24031014.063   125135698.9811      -1389.326          19.000  
C22  24888200.145   129599158.495        3528.563          23.000  
C26  25539449.195   132990697.0261      -2263.633          19.000  
C29  23532076.370   122537504.5901      -1871.923          19.000  
C40  35949513.857   187198439.405        -100.035          22.000  
G04  23475855.691   123366364.013         420.772          33.000  
G06  20665009.699   108595186.6941        -50.352          16.000  
G09  22784024.036   119730812.952        2070.530          32.000  
G11  21764961.118   114375529.6791       1773.117          20.000  
G12  22732565.560   119460195.948        1606.150          23.000  
G17  21940289.641   115296755.508       -2016.036          38.000  
G19  20017933.760   105194866.056        -769.188          28.000  
G22  23572176.609   123872563.084       -3230.252          34.000  
J02  37330911.635   196175062.682          61.344          37.000  
> 2025 05 21 04 38 53.0003515  0 18                     
C07  35676057.848   185774595.1451       -119.541          13.000  
C08  37099668.203   193187520.9901        978.717          18.000  
C13  38028728.928   198025491.8121       1085.733          16.000  
C19  22813514.301   118795775.471        1496.951          37.000  
C20  24031308.440   125137231.8201      -1390.088          19.000  
C22  24887551.076   129595773.920        3528.098          23.000  
C26  25539912.355   132993104.1061      -2263.633          19.000  
C29  23532465.782   122539519.8111      -1874.769          19.000  
C40  35949560.006   187198683.405        -100.963          21.000  
G04  23475802.309   123366087.540         419.260          33.000  
G06  20665048.054   108595382.2291        -50.246          16.000  
G09  22783657.971   119728887.854        2070.511          32.000  
G11  21764651.114   114373900.6001       1773.353          20.000  
G12  22732291.231   119458735.357        1605.597          23.000  
G17  21940701.237   115298915.032       -2016.890          37.000  
G19  20018106.722   105195780.269        -769.706          27.000  
G22  23572821.144   123875938.039       -3231.975          34.000  
J02  37330929.004   196175146.032          60.988          36.000  
> 2025 05 21 04 38 54.0002904  0 20                     
C01  38200562.432   198920352.3091        132.412          37.000  
C07  35676080.295   185774698.5591       -119.206          13.000  
C08  37099472.701   193186525.9011        978.261          18.000  
C13  38028511.840   198024390.7291       1084.964          16.000  
C19  22813224.365   118794263.759        1496.090          37.000  
C20  24031571.620   125138606.4381      -1390.755          19.000  
C22  24886872.608   129592230.358        3528.095          23.000  
C26  25540347.916   132995351.5171      -2263.824          19.000  
C29  23532823.696   122541379.2651      -1876.613          18.000  
C40  35949576.457   187198766.740        -102.293          21.000  
E02  24278908.193   127586524.0711       -638.740          16.000  
G04  23475717.430   123365652.927         417.492          32.000  
G06  20665056.111   108595414.7101        -50.724          17.000  
G09  22783262.207   119726802.066        2069.697          32.000  
G11  21764310.513   114372110.8241       1772.827          20.000  
G12  22731986.005   119457392.043        1606.014          21.000  
G17  21941083.135   115300916.449       -2018.014          38.000  
G19  20018248.486   105196533.751        -769.111          26.000  
G22  23573434.482   123879154.217       -3232.706          34.000  
J02  37330914.877   196175069.938          59.816          36.000  
> 2025 05 21 04 38 55.0002294  0 20                     
C01  38200566.760   198920364.298         134.594          37.000  
C07  35676129.592   185774960.9291       -118.483          12.000  
C08  37099315.741   193185697.1031        972.213          14.000  
C13  38028331.496   198023450.7941       1084.159          12.000  
C19  22812965.775   118792912.004        1495.954          38.000  
C20  24031867.347   125140140.5851      -1391.193          18.000  
C22  24886224.588   129588846.783        3528.314          23.000  
C26  25540815.724   132997756.9941      -2264.144          18.000  
C29  23533209.061   122543399.4131      -1877.635          19.000  
C40  35949628.153   187199014.697        -103.538          20.000  
E02  24279049.526   127587308.7061       -639.702          14.000  
G04  23475664.498   123365380.181         418.254          32.000  
G06  20665093.416   108595611.7751        -51.921          17.000  
G09  22782896.591   119724878.049        2070.612          32.000  
G11  21764000.958   114370482.7051       1773.252          19.000  
G12  22731709.727   119455932.641        1604.505          22.000  
G17  21941495.181   115303077.721       -2016.835          38.000  
G19  20018421.897   105197446.802        -769.986          27.000  
G22  23574080.066   123882530.987       -3231.348          34.000  
J02  37330932.696   196175155.502          60.439          36.000  
> 2025 05 21 04 38 56.0001684  0 20                     
C01  38200568.765   198920369.110         133.700          37.000  
C07  35676184.360   185775217.5861       -117.843          12.000  
C08  37099154.359   193184863.2831        973.789          13.000  
C13  38028150.028   198022507.0761       1083.731          12.000  
C19  22812706.361   118791557.020        1494.624          37.000  
C20  24032159.851   125141670.1731      -1391.544          18.000  
C22  24885570.647   129585458.710        3528.359          23.000  
C26  25541277.011   133000161.5381      -2264.704          18.000  
C29  23533587.905   122545416.942       -1877.461          23.000  
C40  35949672.129   187199257.874        -103.934          20.000  
E02  24279197.530   127588090.6191       -638.164          14.000  
G04  23475612.540   123365102.655         418.165          32.000  
G06  20665132.295   108595804.0061        -52.088          17.000  
G09  22782527.453   119722948.871        2070.404          32.000  
G11  21763690.579   114368849.9401       1773.452          19.000  
G12  22731432.326   119454470.281        1603.133          21.000  
G17  21941907.602   115305501.804       -2018.020          38.000  
G19  20018595.084   105198358.666        -770.983          27.000  
G22  23574723.927   123885902.175       -3232.413          33.000  
J02  37330949.990   196175236.093          60.077          36.000  
> 2025 05 21 04 38 57.0001073  0 20                     
C01  38200541.597   198920224.389         131.995          37.000  
C07  35676206.058   185775322.8671       -117.832          12.000  
C08  37098965.002   193183871.3551        979.555          15.000  
C13  38027943.284   198021411.6231       1084.041          13.000  
C19  22812416.274   118790051.132        1493.710          37.000  
C20  24032426.778   125143049.5321      -1391.778          20.000  
C22  24884890.230   129581919.004        3527.525          22.000  
C26  25541709.124   133002413.7631      -2265.190          18.000  
C29  23533940.573   122547280.989       -1876.604          23.000  
C40  35949692.327   187199348.345        -104.218          20.000  
E02  24279313.962   127588716.5871       -638.023          14.000  
G04  23475534.407   123364672.685         416.271          32.000  
G06  20665141.701   108595842.562         -52.597          22.000  
G09  22782130.640   119720867.871        2068.180          32.000  
G11  21763353.125   114367063.6511       1773.364          19.000  
G12  22731121.553   119452855.573        1602.369          21.000  
G17  21942290.550   115307506.237       -2019.169          38.000  
G19  20018738.797   105199116.192        -771.873          27.000  
G22  23575339.513   123889122.228       -3233.322          33.000  
J02  37330937.211   196175164.214          60.405          36.000  
> 2025 05 21 04 38 58.0000463  0 20                     
C01  38200543.601   198920233.338         132.201          37.000  
C07  35676253.931   185775578.2011       -117.645          11.000  
C08  37098809.316   193183032.2441        978.665          15.000  
C13  38027761.516   198020467.7621       1084.198          13.000  
C19  22812155.361   118788697.215        1494.912          37.000  
C20  24032728.576   125144581.0171      -1391.052          20.000  
C22  24884238.987   129578532.210        3527.069          22.000  
C26  25542170.711   133004817.6351      -2265.192          18.000  
C29  23534329.910   122549295.372       -1876.623          21.000  
C40  35949741.999   187199592.407        -105.049          20.000  
E02  24279467.362   127589495.1531       -639.911          15.000  
G04  23475485.747   123364397.025         416.501          31.000  
G06  20665177.883   108596035.950         -52.664          22.000  
G09  22781763.901   119718940.853        2069.314          32.000  
G11  21763043.946   114365430.6221       1773.812          19.000  
G12  22730842.952   119451394.301        1602.365          22.000  
G17  21942702.371   115309665.845       -2018.375          37.000  
G19  20018914.981   105200028.542        -771.631          27.000  
G22  23575983.674   123892496.092       -3231.927          33.000  
J02  37330953.007   196175244.966          61.575          36.000  
> 2025 05 21 04 38 58.9999853  0 20                     
C01  38200545.850   198920243.006         132.591          37.000  
C07  35676304.746   185775836.5291       -117.748          11.000  
C08  37098642.782   193182193.5001        979.180          15.000  
C13  38027584.489   198019519.1411       1090.078          12.000  
C19  22811894.691   118787344.669        1492.993          37.000  
C20  24033029.118   125146112.1521      -1390.881          19.000  
C22  24883588.588   129575146.621        3527.085          22.000  
C26  25542633.141   133007222.5591      -2265.726          18.000  
C29  23534719.790   122551312.871       -1876.863          21.000  
C40  35949791.615   187199838.248        -103.014          20.000  
E02  24279625.203   127590276.8271       -639.052          15.000  
G04  23475437.031   123364122.941         415.017          32.000  
G06  20665216.706   108596230.840         -52.304          23.000  
G09  22781398.603   119717014.757        2067.284          32.000  
G11  21762735.309   114363798.7491       1773.785          19.000  
G12  22730564.595   119449934.732        1602.110          23.000  
G17  21943116.534   115311824.879       -2019.118          38.000  
G19  20019091.109   105200942.225        -772.277          28.000  
G22  23576625.979   123895869.329       -3233.438          33.000  
J02  37330970.245   196175326.043          61.043          36.000  
> 2025 05 21 04 38 59.9999242  0 19                     
C01  38200519.150   198920097.477         129.517          37.000  
C07  35676327.211   185775939.7801       -116.877          11.000  
C08  37098455.992   193181199.4161        978.629          15.000  
C19  22811605.073   118785838.057        1492.433          37.000  
C20  24033297.413   125147487.562       -1392.074          20.000  
C22  24882910.139   129571605.769        3527.209          22.000  
C26  25543068.420   133009473.2581      -2266.715          18.000  
C29  23535075.025   122553174.804       -1876.482          20.000  
C40  35949810.783   187199926.174        -102.221          22.000  
E02  24279748.399   127590902.0861       -639.780          15.000  
G04  23475357.867   123363692.597         413.563          33.000  
G06  20665223.582   108596267.228         -52.519          22.000  
G09  22781002.259   119714933.775        2066.311          32.000  
G11  21762394.726   114362010.7191       1772.490          19.000  
G12  22730257.589   119448318.452        1602.285          23.000  
G17  21943500.549   115313828.483       -2019.400          38.000  
G19  20019237.089   105201700.134        -773.107          28.000  
G22  23577239.336   123899086.865       -3233.030          34.000  
J02  37330957.934   196175252.094          59.683          36.000  
> 2025 05 21 04 39 00.9998632  0 20                     
C01  38200523.946   198920111.258         129.573          37.000  
C07  35676377.277   185776199.1121       -117.289          10.000  
C08  37098305.196   193180363.7381        978.014          15.000  
C13  38027240.308   198017818.7601       1087.163           9.000  
C19  22811348.451   118784489.427        1491.880          37.000  
C20  24033593.908   125149023.6431      -1392.895          19.000  
C22  24882258.989   129568222.648        3526.707          22.000  
C26  25543533.399   133011883.3431      -2266.509          18.000  
C29  23535466.854   122555193.275       -1875.643          20.000  
C40  35949861.448   187200170.495        -102.025          22.000  
E02  24279897.396   127591685.9021       -640.727          16.000  
G04  23475307.502   123363422.986         413.908          33.000  
G06  20665262.555   108596463.954         -52.849          22.000  
G09  22780639.510   119713012.987        2066.987          32.000  
G11  21762085.940   114360383.0171       1771.666          19.000  
G12  22729982.379   119446861.338        1601.927          23.000  
G17  21943915.162   115315992.885       -2019.611          38.000  
G19  20019413.367   105202616.363        -774.125          29.000  
G22  23577881.491   123902464.029       -3233.217          34.000  
J02  37330974.123   196175337.368          59.452          36.000  
> 2025 05 21 04 39 01.9998022  0 20                     
C01  38200528.593   198920125.349         131.189          37.000  
C07  35676428.391   185776459.3091       -116.749          11.000  
C08  37098147.056   193179529.7591        977.028          15.000  
C13  38027059.383   198016875.2511       1086.850          11.000  
C19  22811088.081   118783142.896        1491.116          36.000  
C20  24033893.550   125150559.8481      -1393.305          19.000  
C22  24881609.189   129564840.655        3526.921          22.000  
C26  25544001.225   133014292.3011      -2266.583          18.000  
C29  23535857.034   122557211.374       -1874.908          20.000  
C40  35949911.663   187200414.330        -101.447          23.000  
E02  24280049.240   127592471.1181       -642.713          16.000  
G04  23475257.586   123363154.749         413.044          32.000  
G06  20665296.881   108596664.473         -54.539          21.000  
G09  22780276.611   119711092.716        2066.248          32.000  
G11  21761777.903   114358756.4511       1771.405          19.000  
G12  22729707.020   119445406.635        1600.421          22.000  
G17  21944328.726   115318157.383       -2020.663          38.000  
G19  20019589.196   105203536.566        -774.769          29.000  
G22  23578525.595   123905842.900       -3234.591          34.000  
J02  37330990.462   196175423.594          60.072          36.000  
> 2025 05 21 04 39 02.9997411  0 20                     
C01  38200500.637   198919979.494         133.054          37.000  
C07  35676446.304   185776562.7591       -116.984          13.000  
C08  37097958.711   193178806.0671        976.744          16.000  
C13  38026847.655   198015773.4891       1086.418          16.000  
C19  22810797.207   118781637.452        1491.453          36.000  
C20  24034157.892   125151938.235       -1394.561          22.000  
C22  24880925.288   129561299.949        3526.078          21.000  
C26  25544435.549   133016544.1981      -2266.534          18.000  
C29  23536217.310   122559070.975       -1874.894          20.000  
C40  35949932.274   187200501.711        -100.195          23.000  
E02  24280168.483   127593100.4461       -642.175          16.000  
G04  23475179.265   123362726.983         412.646          33.000  
G06  20665305.201   108596702.5381        -53.954          16.000  
G09  22779882.010   119709012.115        2066.301          32.000  
G11  21761439.063   114356971.0801       1770.982          19.000  
G12  22729401.157   119443792.564        1599.404          23.000  
G17  21944712.385   115320163.165       -2020.406          38.000  
G19  20019735.719   105204295.680        -775.425          29.000  
G22  23579139.495   123909060.819       -3234.947          34.000  
J02  37330978.395   196175615.184          59.534          36.000  
> 2025 05 21 04 39 03.9996801  0 20                     
C01  38200504.010   198919988.975         131.833          37.000  
C07  35676495.845   185776819.4671       -116.932          15.000  
C08  37097800.496   193177968.7771        976.853          18.000  
C13  38026668.754   198014827.0311       1086.507          17.000  
C19  22810539.161   118780287.756        1490.099          36.000  
C20  24034453.863   125153473.567       -1394.469          22.000  
C22  24880276.012   129557915.204        3526.574          21.000  
C26  25544899.103   133018951.5281      -2266.783          18.000  
C29  23536605.916   122561086.1101      -1874.807          20.000  
C40  35949983.913   187200741.017        -100.542          24.000  
E02  24280325.649   127593882.8461       -643.029          19.000  
G04  23475131.973   123362455.765         411.823          34.000  
G06  20665344.848   108596897.5921        -54.053          15.000  
G09  22779519.036   119707089.203        2064.497          33.000  
G11  21761129.153   114355342.4041       1771.247          19.000  
G12  22729124.823   119442336.264        1598.184          22.000  
G17  21945124.075   115322325.532       -2021.237          38.000  
G19  20019912.372   105205213.224        -775.705          30.000  
G22  23579783.824   123912436.744       -3235.818          34.000  
J02  37330995.259   196175697.950          60.012          36.000  
> 2025 05 21 04 39 04.9996190  0 20                     
C01  38200476.617   198919844.244         130.724          37.000  
C07  35676520.315   185776922.2081       -117.161          15.000  
C08  37097612.713   193176978.2261        976.729          18.000  
C13  38026457.887   198013726.9531       1085.901          17.000  
C19  22810252.147   118778784.801        1489.273          36.000  
C20  24034720.565   125154853.057       -1394.261          24.000  
C22  24879594.172   129554376.630        3526.033          22.000  
C26  25545337.287   133021204.2421      -2267.930          18.000  
C29  23536969.451   122562947.406       -1874.313          22.000  
C40  35950002.687   187201097.422        -101.952          24.000  
E02  24280446.953   127594513.1781       -643.587          19.000  
G04  23475053.015   123362030.383         410.058          33.000  
G06  20665353.130   108596938.9881        -54.305          14.000  
G09  22779127.395   119705011.656        2065.303          32.000  
G11  21760793.572   114353558.4321       1770.603          19.000  
G12  22728821.021   119440725.320        1597.622          23.000  
G17  21945507.098   115324332.422       -2021.029          38.000  
G19  20020060.657   105205974.888        -776.600          29.000  
G22  23580397.087   123915657.579       -3234.328          33.000  
J02  37330982.855   196175625.133          59.692          35.000  
> 2025 05 21 04 39 05.9995580  0 19                     
C01  38200480.551   198919855.736         131.394          37.000  
C07  35676573.716   185777179.8971       -117.738          16.000  
C08  37097456.559   193176142.6961        977.211          18.000  
C13  38026279.248   198012782.9791       1085.442          18.000  
C19  22809995.263   118777438.131        1489.405          35.000  
C20  24035020.995   125156661.147       -1394.099          25.000  
C22  24878946.058   129550993.510        3525.596          22.000  
C26  25545802.603   133023613.5501      -2268.245          18.000  
C29  23537360.418   122564962.740       -1873.480          20.000  
C40  35950053.689   187201340.410        -103.583          24.000  
E02  24280602.882   127595299.485        -643.944          20.000  
G04  23475000.889   123361763.140         410.403          31.000  
G09  22778763.184   119703090.362        2064.624          32.000  
G11  21760483.624   114351931.6821       1770.302          19.000  
G12  22728546.149   119439271.604        1597.334          23.000  
G17  21945919.350   115326495.809       -2021.359          38.000  
G19  20020236.972   105206894.784        -776.633          30.000  
G22  23581041.079   123919034.466       -3233.861          32.000  
J02  37330999.680   196175709.154          58.490          33.000  
> 2025 05 21 04 39 06.9994970  0 20                     
C01  38200484.486   198919868.059         127.850          38.000  
C07  35676627.116   185777440.7781       -118.661          17.000  
C08  37097297.107   193175306.9701        977.177          18.000  
C13  38026098.511   198011839.2571       1084.914          18.000  
C19  22809734.481   118776091.980        1488.458          34.000  
C20  24035317.227   125158197.202       -1395.641          23.000  
C22  24878301.841   129547610.745        3525.274          22.000  
C26  25546265.520   133026024.1321      -2268.857          19.000  
C29  23537740.892   122566976.821       -1872.676          22.000  
C38  36343334.065   189249277.3491        724.191          20.000  
C40  35950103.492   187201585.828        -104.466          26.000  
E02  24280751.017   127596087.4251       -644.447          20.000  
G04  23474950.561   123361495.486         410.748          32.000  
G09  22778398.074   119701169.992        2064.071          32.000  
G11  21760175.175   114350304.9991       1770.691          19.000  
G12  22728267.079   119437818.202        1596.989          21.000  
G17  21946332.202   115328660.015       -2023.196          38.000  
G19  20020412.988   105207814.337        -777.370          29.000  
G22  23581684.771   123922410.960       -3234.903          33.000  
J02  37331015.307   196175794.065          59.225          35.000  
> 2025 05 21 04 39 08.0004359  0 20                     
C01  38200477.610   198919821.306         129.211          38.000  
C07  35676665.209   185777639.9411       -119.265          17.000  
C08  37097127.143   193174409.0411        977.432          18.000  
C13  38025910.260   198010833.3211       1085.278          18.000  
C19  22809466.185   118774683.671        1488.343          34.000  
C20  24035602.649   125159676.271       -1395.971          22.000  
C22  24877637.820   129544163.119        3526.654          22.000  
C26  25546717.925   133028374.8671      -2269.617          19.000  
C29  23538120.748   122568930.553       -1872.326          21.000  
C38  36343216.265   189248632.2301        725.256          20.000  
C40  35950139.187   187201769.587        -103.273          26.000  
E02  24280884.144   127596812.667        -644.887          21.000  
G04  23474887.923   123361165.136         410.106          32.000  
G09  22778021.254   119699186.791        2063.035          31.000  
G11  21759851.718   114348615.0341       1770.321          19.000  
G12  22727979.897   119436302.571        1595.985          21.000  
G17  21946734.242   115330766.504       -2021.809          38.000  
G19  20020576.693   105208672.871        -777.970          29.000  
G22  23582317.351   123925730.028       -3234.711          33.000  
J02  37331021.622   196175816.845          58.942          35.000  
> 2025 05 21 04 39 09.0003748  0 20                     
C01  38200451.359   198919680.073         128.582          38.000  
C07  35676687.225   185777745.7821       -120.076          17.000  
C08  37096935.707   193173417.9751        976.443          18.000  
C13  38025697.539   198009734.1311       1085.049          18.000  
C19  22809181.513   118773181.997        1487.535          35.000  
C20  24035867.197   125161057.776       -1396.607          22.000  
C22  24876960.120   129540623.405        3526.732          22.000  
C26  25547149.757   133030630.6901      -2269.853          19.000  
C29  23538480.630   122570788.662       -1871.786          24.000  
C38  36343075.194   189247892.2721        726.215          20.000  
C40  35950160.003   187201859.308        -103.803          26.000  
E02  24281008.089   127597444.370        -645.804          20.000  
G04  23474811.607   123360741.659         408.913          32.000  
G09  22777625.959   119697110.223        2063.721          30.000  
G11  21759517.281   114346831.7551       1769.723          19.000  
G12  22727674.839   119434693.884        1594.886          22.000  
G17  21947117.508   115332773.395       -2022.723          38.000  
G19  20020723.423   105209438.019        -778.765          30.000  
G22  23582930.558   123928950.916       -3235.542          32.000  
J02  37331008.562   196175744.124          59.357          34.000  
> 2025 05 21 04 39 10.0003138  0 20                     
C01  38200455.181   198919694.260         127.732          37.000  
C07  35676736.016   185778006.2311       -120.117          17.000  
C08  37096779.140   193172582.6921        975.959          18.000  
C13  38025519.387   198008789.8631       1085.570          18.000  
C19  22808927.514   118771836.973        1486.840          37.000  
C20  24036154.623   125162593.730       -1396.592          21.000  
C22  24876316.691   129537509.022        3524.335          21.000  
C26  25547615.860   133033041.5171      -2270.044          19.000  
C29  23538870.285   122573074.215       -1872.286          23.000  
C38  36342969.892   189247306.4981        727.091          19.000  
C40  35950209.394   187202102.835        -102.610          25.000  
E02  24281161.208   127598233.701        -646.461          21.000  
G04  23474762.067   123360474.643         408.343          33.000  
G09  22777260.437   119695190.696        2061.671          30.000  
G11  21759207.221   114345205.5091       1769.214          11.000  
G12  22727401.054   119433242.247        1594.295          22.000  
G17  21947529.348   115334940.107       -2023.173          38.000  
G19  20020901.724   105210358.864        -779.344          30.000  
G22  23583574.138   123932327.149       -3236.527          31.000  
J02  37331023.776   196175827.473          59.668          33.000  
> 2025 05 21 04 39 11.0002528  0 20                     
C01  38200457.542   198919707.054         128.702          37.000  
C07  35676787.543   185778265.1941       -120.374          17.000  
C08  37096623.511   193171746.2691        975.759          18.000  
C13  38025338.874   198007843.6621       1086.153          18.000  
C19  22808671.454   118770490.847        1485.748          37.000  
C20  24036448.382   125164131.737       -1397.863          22.000  
C22  24875664.005   129534126.267        3522.641          21.000  
C26  25548082.299   133035450.8101      -2270.381          19.000  
C29  23539259.379   122575085.305       -1871.881          23.000  
C38  36342859.830   189246718.6001        727.541          20.000  
C40  35950256.724   187202346.698        -104.431          25.000  
E02  24281311.966   127599021.248        -646.545          22.000  
G04  23474712.863   123360207.864         407.135          32.000  
G09  22776893.154   119693271.616        2060.360          31.000  
G11  21758900.795   114343578.3681       1768.703          11.000  
G12  22727124.608   119431790.268        1593.268          23.000  
G17  21947941.525   115337103.173       -2024.076          38.000  
G19  20021077.665   105211279.698        -780.065          30.000  
G22  23584216.555   123935706.582       -3237.139          31.000  
J02  37331039.328   196175910.690          58.290          32.000  
> 2025 05 21 04 39 12.0001917  0 20                     
C01  38200431.273   198919565.439         131.757          36.000  
C07  35676808.341   185778374.9711       -121.106          17.000  
C08  37096435.653   193170759.8191        975.138          18.000  
C13  38025128.233   198006746.2881       1086.120          18.000  
C19  22808385.864   118768995.371        1485.363          37.000  
C20  24036713.811   125165519.262       -1399.894          22.000  
C22  24874986.287   129530594.020        3521.901          21.000  
C26  25548514.713   133037708.7961      -2270.787          19.000  
C29  23539619.542   122576945.617       -1871.607          23.000  
C38  36342719.640   189245979.686         727.899          21.000  
C40  35950277.822   187202438.723        -103.947          24.000  
E02  24281427.499   127599656.318        -647.357          21.000  
G04  23474633.531   123359789.407         407.747          33.000  
G09  22776498.439   119691201.310        2060.464          31.000  
G11  21758560.943   114341799.7251       1767.910          11.000  
G12  22726820.731   119430187.457        1592.086          22.000  
G17  21948324.772   115339115.534       -2024.050          38.000  
G19  20021223.477   105212047.787        -780.467          30.000  
G22  23584830.043   123938931.043       -3235.588          31.000  
J02  37331025.350   196175843.379          56.849          32.000  
> 2025 05 21 04 39 13.0001307  0 19                     
C01  38200433.821   198919574.040         132.092          36.000  
C07  35676857.657   185778637.6801       -121.654          17.000  
C08  37096276.314   193169925.3251        975.041          18.000  
C13  38024947.608   198005800.6671       1085.640          17.000  
C19  22808128.792   118767651.548        1484.486          36.000  
C20  24037009.556   125167060.8101      -1401.099          19.000  
C22  24874330.790   129527213.190        3522.867          21.000  
C26  25548976.543   133040120.0151      -2271.193          19.000  
C29  23540009.122   122578957.900       -1872.068          24.000  
C38  36342606.768   189245393.080         728.559          21.000  
C40  35950327.138   187202683.101        -104.130          23.000  
E02  24281579.943   127600447.418        -648.410          21.000  
G04  23474583.615   123359523.472         406.304          33.000  
G09  22776133.142   119689282.381        2062.183          31.000  
G12  22726543.273   119428738.710        1591.162          20.000  
G17  21948738.036   115341282.822       -2024.636          38.000  
G19  20021399.305   105212970.615        -780.978          29.000  
G22  23585473.847   123942307.139       -3235.563          31.000  
J02  37331038.991   196175928.965          56.453          31.000  
> 2025 05 21 04 39 14.0000697  0 19                     
C01  38200436.838   198919584.581         132.673          36.000  
C07  35676909.539   185778900.9261       -121.837          16.000  
C08  37096116.843   193169091.9601        974.326          18.000  
C13  38024764.753   198004856.1581       1086.223          17.000  
C19  22807874.587   118766587.788        1484.334          37.000  
C20  24037305.170   125168602.1521      -1402.307          18.000  
C22  24873680.559   129523832.9011       3522.711          15.000  
C26  25549442.739   133042533.6041      -2271.759          19.000  
C29  23540396.772   122580971.567       -1874.424          25.000  
C38  36342495.264   189244806.968         728.380          20.000  
C40  35950374.524   187202928.396        -102.589          22.000  
E02  24281734.355   127601239.205        -647.858          20.000  
G04  23474532.969   123359260.779         405.020          34.000  
G09  22775768.613   119687364.902        2060.253          29.000  
G12  22726265.684   119427291.7041       1590.375          18.000  
G17  21949151.768   115343450.277       -2025.363          39.000  
G19  20021576.201   105213893.735        -781.486          30.000  
G22  23586117.221   123945686.223       -3236.685          31.000  
J02  37331055.198   196176015.754          56.933          31.000  
> 2025 05 21 04 39 15.0000086  0 19                     
C01  38200411.131   198919440.711         129.510          37.000  
C07  35676930.600   185779008.3841       -121.689          16.000  
C08  37095931.946   193168103.1151        974.563          18.000  
C13  38024549.577   198003755.8611       1085.533          17.000  
C19  22807590.758   118765090.587        1483.057          37.000  
C20  24037560.668   125169991.2681      -1401.895          18.000  
C22  24873000.405   129520296.5761       3523.828          14.000  
C26  25549878.112   133044791.2281      -2271.738          18.000  
C29  23540758.697   122582833.067       -1876.594          25.000  
C38  36342355.336   189244064.831         728.391          20.000  
C40  35950388.689   187203017.435        -103.021          23.000  
E02  24281853.448   127601871.7291       -649.051          19.000  
G04  23474455.697   123358841.680         404.484          33.000  
G09  22775374.162   119685291.573        2059.028          30.000  
G12  22725960.870   119425688.0261       1589.906          18.000  
G17  21949535.878   115345459.807       -2026.060          38.000  
G19  20021722.875   105214660.987        -782.403          30.000  
G22  23586727.373   123948907.397       -3236.363          29.000  
J02  37331042.082   196175944.912          56.796          31.000  
> 2025 05 21 04 39 15.9999476  0 19                     
C01  38200414.616   198919451.959         130.874          37.000  
C07  35676976.356   185779269.3131       -121.227          16.000  
C08  37095777.740   193167269.3681        974.343          18.000  
C13  38024368.390   198002811.8661       1083.502          17.000  
C19  22807330.726   118763749.525        1482.345          36.000  
C20  24037855.851   125171533.5091      -1402.431          18.000  
C22  24872344.047   129516914.1051       3524.802          15.000  
C26  25550341.179   133047203.6671      -2272.134          18.000  
C29  23541147.115   122584850.471       -1877.091          25.000  
C38  36342242.801   189243478.041         727.949          21.000  
C40  35950435.944   187203262.901        -104.460          24.000  
E02  24282002.632   127602663.8001       -649.720          20.000  
G04  23474409.717   123358855.176         403.166          31.000  
G09  22775012.799   119683376.792        2056.584          31.000  
G12  22725685.548   119424241.477        1589.100          20.000  
G17  21949950.678   115347627.363       -2026.186          38.000  
G19  20021900.239   105215585.774        -783.384          30.000  
G22  23587371.815   123952283.392       -3236.788          32.000  
J02  37331061.157   196176029.596          57.779          32.000  
> 2025 05 21 04 39 16.9998866  0 19                     
C01  38200418.832   198919463.434         126.863          37.000  
C07  35677031.836   185779530.0251       -120.303          11.000  
C08  37095621.567   193166435.2071        973.566          18.000  
C13  38024193.330   198001868.4931       1082.423          17.000  
C19  22807074.122   118762408.904        1480.132          37.000  
C20  24038151.765   125173076.1231      -1403.667          18.000  
C22  24871689.319   129513531.109        3521.856          20.000  
C26  25550802.279   133049615.1671      -2271.990          18.000  
C29  23541535.965   122586866.831       -1877.082          23.000  
C38  36342130.997   189242891.711         726.150          21.000  
C40  35950483.330   187203507.486        -105.617          23.000  
E02  24282159.742   127603456.0821       -651.063          19.000  
G04  23474363.568   123358594.856         400.917          34.000  
G09  22774652.168   119681462.187        2057.223          31.000  
G12  22725413.055   119422795.232        1587.408          23.000  
G17  21950365.609   115349796.848       -2027.884          38.000  
G19  20022078.035   105216510.294        -785.195          31.000  
G22  23588016.687   123955663.786       -3239.891          32.000  
J02  37331077.364   196176115.494          53.692          32.000  
> 2025 05 21 04 39 17.9998255  0 19                     
C01  38200392.918   198919323.126         126.188          38.000  
C07  35677053.290   185779630.7521       -114.819          11.000  
C08  37095434.065   193165448.0641        972.853          17.000  
C13  38023981.246   198000772.7151       1081.070          13.000  
C19  22806792.486   118760915.684        1480.090          37.000  
C20  24038423.546   125174465.8001      -1404.664          17.000  
C22  24871014.355   129509996.5331       3521.953          19.000  
C26  25551230.251   133051873.2841      -2271.384          18.000  
C29  23541891.088   122588731.262       -1878.355          24.000  
C38  36341982.469   189242153.221         724.534          22.000  
C40  35950498.788   187203599.102        -107.014          21.000  
E02  24282277.429   127604092.1281       -651.947          18.000  
G04  23474286.090   123358180.877         400.513          33.000  
G09  22774259.908   119679392.732        2055.483          28.000  
G12  22725115.530   119421194.963        1587.008          24.000  
G17  21950751.011   115351810.625       -2028.158          39.000  
G19  20022228.400   105217282.485        -785.690          32.000  
G22  23588632.030   123958889.828       -3239.711          30.000  
J02  37331067.040   196176047.886          56.142          32.000  
> 2025 05 21 04 39 18.9997645  0 19                     
C01  38200397.040   198919339.897         128.050          38.000  
C07  35677104.779   185779887.7021       -115.612          11.000  
C08  37095275.400   193164618.2051        972.274          13.000  
C13  38023802.794   197999834.7781       1079.824          13.000  
C19  22806536.988   118759578.822        1480.256          36.000  
C20  24038737.054   125176012.8821      -1405.722          17.000  
C22  24870384.416   129506618.1301       3521.492          20.000  
C26  25551699.352   133054285.6171      -2272.098          18.000  
C29  23542282.242   122590751.210       -1878.267          23.000  
C38  36341869.073   189241572.678         723.303          22.000  
C40  35950546.080   187203847.036        -105.647          22.000  
E02  24282427.850   127604889.2851       -652.664          17.000  
G04  23474235.050   123357924.427         401.325          31.000  
G09  22773899.183   119677482.589        2055.119          28.000  
G12  22724845.342   119419753.095        1586.135          24.000  
G17  21951164.950   115353981.731       -2028.293          38.000  
G19  20022409.699   105218212.075        -786.195          30.000  
G22  23589277.708   123962270.565       -3239.702          28.000  
J02  37331086.751   196176138.010          53.419          32.000  
