     3.04           OBSERVATION DATA    M: Mixed            RINEX VERSION / TYPE
RTKCONV demo5 b34k                      20250410 083352 UTC PGM / RUN BY / DATE 
format: RINEX                                               COMMENT             
log: E:\Proj-ES\GNSS-SPP\RTKLIB-py\data\beijing\Íû¾©\rover.oCOMMENT             
  bs                                                        COMMENT             
Geo++                                                       MARKER NAME         
                                                            MARKER NUMBER       
                                                            MARKER TYPE         
                                                            OBSERVER / AGENCY   
unknown             UNISOC              uis7865_6h10_go_a32bREC # / TYPE / VERS 
unknown             uis7865_6h10_go_a32b                    ANT # / TYPE        
 -2181939.4492  4379692.9449  4077514.8036                  APPROX POSITION XYZ 
        0.0000        0.0000        0.0000                  ANTENNA: DELTA H/E/N
G    4 C1C L1C D1C S1C                                      SYS / # / OBS TYPES 
E    4 C1C L1C D1C S1C                                      SYS / # / OBS TYPES 
J    4 C1C L1C D1C S1C                                      SYS / # / OBS TYPES 
C    4 C2I L2I D2I S2I                                      SYS / # / OBS TYPES 
  2025    04    09    08    11   47.7430057     GPS         TIME OF FIRST OBS   
  2025    04    09    08    50   47.0001706     GPS         TIME OF LAST OBS    
G L1C                                                       SYS / PHASE SHIFT   
E L1C  0.00000                                              SYS / PHASE SHIFT   
J L1C                                                       SYS / PHASE SHIFT   
C L2I                                                       SYS / PHASE SHIFT   
 24 R01  1 R02 -4 R03  5 R04  6 R05  1 R06 -4 R07  5 R08  6 GLONASS SLOT / FRQ #
    R09 -2 R10 -5 R11  0 R12 -1 R13 -2 R14 -7 R15  0 R16 -1 GLONASS SLOT / FRQ #
    R17  4 R18 -3 R19  3 R20  2 R21  4 R22 -3 R23  3 R24  2 GLONASS SLOT / FRQ #
 C1C    0.000 C1P    0.000 C2C    0.000 C2P    0.000        GLONASS COD/PHS/BIS 
                                                            END OF HEADER       
> 2025 04 09 08 11 47.7430057  0 15                     
C10  36090533.793   187932879.9851       -170.783          39.000  
C19  22496201.054   117143621.9931        -34.515          28.000  
C29  24644608.543   128330943.7091      -2402.235          36.000  
C35  21629048.371   112628130.0461        -40.558          29.000  
C38  36023477.416   187583699.7541        272.361          42.000  
E24  26966028.057   141707434.0101       1276.932          32.000  
E26  25177169.458   132306918.0881      -1534.161          20.000  
E31  24934284.204   131030548.0921      -1311.619          30.000  
G06  20817608.520   109397270.5661       -631.624          31.000  
G11  21136541.527   111073274.9361       1137.120          43.000  
G12  22393534.429   117678817.0121       -157.131          29.000  
G17  23096781.881   121374407.7831      -2835.840          32.000  
G19  20685644.976   108703797.2741      -2061.954          37.000  
G20  21434066.055   112636777.2841       2202.537          30.000  
G25  23785067.890   124991374.6241       1486.310          26.000  
> 2025 04 09 08 11 48.7429446  0 15                     
C10  36090563.810   187933035.873        -172.717          39.000  
C19  22496208.586   117143642.138         -35.733          28.000  
C29  24645072.059   128333331.860       -2405.204          38.000  
C35  21629063.698   112628156.729         -40.781          29.000  
C38  36023424.090   187583414.231         270.307          41.000  
E24  26965784.963   141706143.243        1276.358          33.000  
E26  25177449.502   132308437.403       -1534.083          28.000  
E31  24934525.275   131031845.305       -1312.448          33.000  
G06  20817730.573   109397887.046        -634.117          31.000  
G11  21136323.615   111072124.742        1134.854          42.000  
G12  22393563.546   117678958.942        -155.881          29.000  
G17  23097318.846   121377229.540       -2836.254          35.000  
G19  20686034.144   108705845.954       -2063.482          36.000  
G20  21433649.381   112634562.054        2199.781          32.000  
G25  23784782.225   124989874.280        1485.816          25.000  
> 2025 04 09 08 11 49.7428835  0 15                     
C10  36090595.138   187933192.253        -171.223          39.000  
C19  22496215.032   117143665.684         -36.632          28.000  
C29  24645531.491   128335721.660       -2403.798          39.000  
C35  21629071.943   112628183.685         -40.617          28.000  
C38  36023371.177   187583129.685         270.970          41.000  
E24  26965541.382   141704853.705        1276.275          34.000  
E26  25177739.551   132309955.682       -1533.233          28.000  
E31  24934770.055   131033143.183       -1311.007          33.000  
G06  20817853.338   109398506.770        -633.101          31.000  
G11  21136105.516   111070975.247        1136.920          41.000  
G12  22393600.271   117679101.425        -159.635          28.000  
G17  23097854.426   121380051.127       -2836.196          35.000  
G19  20686424.324   108707894.592       -2063.322          36.000  
G20  21433230.421   112632348.877        2199.470          31.000  
G25  23784492.776   124988376.042        1485.294          24.000  
> 2025 04 09 08 11 50.7428224  0 15                     
C10  36090626.242   187933349.629        -169.815          38.000  
C19  22496221.852   117143685.704         -35.997          28.000  
C29  24645992.497   128338107.604       -2401.475          40.000  
C35  21629081.761   112628207.447         -40.571          26.000  
C38  36023317.139   187582843.257         273.632          41.000  
E24  26965296.976   141703562.636        1276.909          34.000  
E26  25178032.973   132311473.236       -1532.362          28.000  
E31  24935017.609   131034439.468       -1311.964          33.000  
G06  20817973.779   109399122.793        -631.691          31.000  
G11  21135886.293   111069823.608        1137.768          41.000  
G12  22393632.573   117679246.189        -158.686          29.000  
G17  23098390.080   121382870.212       -2834.895          35.000  
G19  20686814.279   108709942.093       -2061.971          36.000  
G20  21432813.335   112630134.825        2201.989          31.000  
G25  23784205.200   124986875.201        1487.120          23.000  
> 2025 04 09 08 11 51.7427614  0 15                     
C10  36090688.599   187933661.262        -167.726          38.000  
C19  22496260.525   117143864.619         -34.948          27.000  
C29  24646482.957   128340651.707       -2400.395          40.000  
C35  21629118.935   112628391.637         -40.060          26.000  
C38  36023292.256   187582713.002         275.185          41.000  
E24  26965080.526   141702430.353        1277.616          34.000  
E26  25178348.055   132313149.237       -1531.510          28.000  
E31  24935292.818   131035894.603       -1310.708          33.000  
G06  20818122.476   109399899.661        -630.037          30.000  
G11  21135698.023   111068831.282        1137.463          41.000  
G12  22393694.630   117679549.517        -157.451          28.000  
G17  23098956.987   121385848.103       -2833.929          35.000  
G19  20687234.288   108712147.933       -2061.878          36.000  
G20  21432426.303   112628077.929        2202.870          30.000  
G25  23783951.276   124985533.256        1487.981          21.000  
> 2025 04 09 08 11 52.7427003  0 15                     
C10  36090718.840   187933813.693        -168.258          38.000  
C19  22496266.484   117143882.679         -34.071          26.000  
C29  24646942.202   128343036.190       -2399.735          40.000  
C35  21629124.893   112628414.964         -38.989          25.000  
C38  36023238.256   187582423.927         274.844          41.000  
E24  26964834.958   141701138.242        1277.946          34.000  
E26  25178638.816   132314663.469       -1529.797          28.000  
E31  24935540.709   131037187.594       -1309.965          33.000  
G06  20818243.855   109400514.089        -630.404          30.000  
G11  21135479.737   111067678.101        1139.769          41.000  
G12  22393728.769   117679691.662        -157.546          27.000  
G17  23099495.977   121388667.321       -2833.020          35.000  
G19  20687624.581   108714193.159       -2060.612          36.000  
G20  21432008.354   112625861.308        2202.717          30.000  
G25  23783670.932   124984031.017        1488.044          21.000  
> 2025 04 09 08 11 53.7426392  0 15                     
C10  36090747.845   187933962.812        -163.825          39.000  
C19  22496272.105   117143901.759         -32.253          27.000  
C29  24647400.510   128345418.015       -2395.793          39.000  
C35  21629131.114   112628437.420         -36.952          25.000  
C38  36023182.420   187582131.702         279.399          41.000  
E24  26964591.152   141699844.308        1279.743          33.000  
E26  25178929.840   132316176.840       -1527.362          29.000  
E31  24935790.661   131038478.825       -1306.552          33.000  
G06  20818360.699   109401126.947        -628.524          30.000  
G11  21135261.413   111066523.332        1141.530          42.000  
G12  22393757.175   117679832.242        -154.840          30.000  
G17  23100035.228   121391481.471       -2828.772          35.000  
G19  20688015.435   108716237.616       -2058.720          37.000  
G20  21431586.771   112623642.820        2205.342          28.000  
G25  23783391.451   124982528.033        1489.460          21.000  
> 2025 04 09 08 11 54.7425782  0 15                     
C10  36090807.541   187934268.295        -165.163          39.000  
C19  22496305.719   117144073.331         -31.866          31.000  
C29  24647890.408   128347955.296       -2397.325          39.000  
C35  21629165.328   112628614.868         -36.028          28.000  
C38  36023156.675   187581993.642         277.569          41.000  
E24  26964378.037   141698705.634        1280.734          34.000  
E26  25179253.953   132317845.065       -1526.455          29.000  
E31  24936066.508   131039928.666       -1307.873          32.000  
G06  20818505.836   109401897.703        -628.234          33.000  
G11  21135072.881   111065524.000        1142.328          43.000  
G12  22393812.674   117680128.471        -155.673          32.000  
G17  23100604.872   121394451.323       -2829.763          35.000  
G19  20688433.083   108718439.222       -2059.315          38.000  
G20  21431190.183   112621579.416        2206.157          28.000  
G25  23783146.858   124981180.133        1490.845          21.000  
> 2025 04 09 08 11 55.7425171  0 15                     
C10  36090837.633   187934417.316        -163.160          39.000  
C19  22496309.729   117144089.424         -30.993          31.000  
C29  24648348.603   128350334.908       -2395.084          39.000  
C35  21629171.136   112628633.063         -35.799          31.000  
C38  36023101.026   187581700.622         279.730          41.000  
E24  26964136.517   141697408.808        1281.904          35.000  
E26  25179555.357   132319354.604       -1525.405          31.000  
E31  24936317.547   131041218.579       -1307.137          32.000  
G06  20818618.071   109402508.473        -626.073          32.000  
G11  21134854.745   111064366.851        1141.964          43.000  
G12  22393842.465   117680266.636        -154.837          32.000  
G17  23101142.212   121397263.910       -2828.690          35.000  
G19  20688823.825   108720480.140       -2058.442          37.000  
G20  21430763.991   112619357.311        2208.006          28.000  
G25  23782868.463   124979673.715        1491.716          21.000  
> 2025 04 09 08 11 56.7424560  0 15                     
C10  36090867.650   187934566.882        -163.829          39.000  
C19  22496312.464   117144106.993         -30.822          30.000  
C29  24648805.824   128352717.978       -2396.347          39.000  
C35  21629176.270   112628656.244         -35.805          31.000  
C38  36023045.002   187581408.829         279.465          42.000  
E24  26963891.624   141696115.144        1281.204          35.000  
E26  25179843.195   132320867.588       -1525.717          31.000  
E31  24936568.510   131042513.769       -1307.263          33.000  
G06  20818731.430   109403121.133        -626.317          31.000  
G11  21134636.233   111063212.375        1142.469          43.000  
G12  22393868.885   117680408.361        -154.987          32.000  
G17  23101682.476   121400079.888       -2829.933          36.000  
G19  20689214.792   108722525.707       -2058.951          37.000  
G20  21430336.824   112617138.658        2205.172          27.000  
G25  23782582.798   124978169.848        1491.307          20.000  
> 2025 04 09 08 11 57.7423950  0 15                     
C10  36090928.358   187934874.117        -164.340          39.000  
C19  22496345.592   117144283.246         -32.889          30.000  
C29  24649295.235   128355256.988       -2396.593          39.000  
C35  21629212.096   112628835.752         -35.654          32.000  
C38  36023020.569   187581274.601         278.503          42.000  
E24  26963679.221   141694979.692        1281.393          36.000  
E26  25180159.026   132322538.698       -1525.552          31.000  
E31  24936850.165   131043965.405       -1307.433          33.000  
G06  20818877.578   109403891.579        -626.614          31.000  
G11  21134447.814   111062215.372        1142.269          43.000  
G12  22393927.494   117680709.340        -157.247          32.000  
G17  23102251.332   121403054.462       -2829.388          36.000  
G19  20689633.752   108724728.517       -2058.183          37.000  
G20  21429938.250   112615079.597        2204.945          26.000  
G25  23782329.623   124976824.789        1490.384          22.000  
> 2025 04 09 08 11 58.7423339  0 15                     
C10  36090958.075   187935023.578        -164.673          39.000  
C19  22496348.927   117144301.599         -33.185          30.000  
C29  24649753.955   128357638.465       -2397.346          39.000  
C35  21629218.129   112628855.744         -35.599          32.000  
C38  36022963.946   187580981.075         278.141          41.000  
E24  26963433.728   141693685.374        1280.738          35.000  
E26  25180440.569   132324048.843       -1525.005          32.000  
E31  24937099.330   131045257.045       -1307.133          33.000  
G06  20818994.235   109404502.493        -626.488          32.000  
G11  21134229.303   111061058.253        1143.046          43.000  
G12  22393959.010   117680850.246        -156.468          32.000  
G17  23102788.297   121405868.435       -2830.163          36.000  
G19  20690022.021   108726773.020       -2058.909          37.000  
G20  21429510.484   112612860.917        2204.753          26.000  
G25  23782046.057   124975321.433        1489.066          22.000  
> 2025 04 09 08 11 59.7422728  0 15                     
C10  36090988.429   187935169.973        -162.911          39.000  
C19  22496352.000   117144318.365         -32.832          30.000  
C29  24650212.413   128360018.205       -2396.078          38.000  
C35  21629221.202   112628874.109         -35.180          31.000  
C38  36022907.960   187580686.222         280.588          41.000  
E24  26963188.573   141692389.675        1280.709          35.000  
E26  25180731.442   132325556.041       -1524.189          32.000  
E31  24937351.831   131046548.339       -1306.169          33.000  
G06  20819111.829   109405112.131        -625.909          32.000  
G11  21134009.630   111059900.507        1143.197          43.000  
G12  22393989.064   117680989.400        -155.416          31.000  
G17  23103321.403   121408680.886       -2827.892          37.000  
G19  20690410.627   108728815.935       -2058.451          37.000  
G20  21429085.753   112610640.289        2205.115          27.000  
G25  23781681.285   124973817.792        1488.679          24.000  
> 2025 04 09 08 12 00.7422118  0 15                     
C10  36091048.724   187935474.432        -162.798          39.000  
C19  22496386.213   117144490.861         -32.800          30.000  
C29  24650698.714   128362555.657       -2395.013          38.000  
C35  21629254.516   112629050.243         -35.127          31.000  
C38  36022882.815   187580548.249         280.472          42.000  
E24  26962974.559   141691251.725        1281.656          36.000  
E26  25181048.360   132327223.550       -1524.507          33.000  
E31  24937630.675   131047997.666       -1307.009          33.000  
G06  20819259.064   109405879.165        -626.494          33.000  
G11  21133819.898   111058900.214        1142.863          42.000  
G12  22394044.263   117681285.657        -154.027          29.000  
G17  23103883.852   121411651.346       -2828.500          36.000  
G19  20690830.673   108731015.968       -2059.749          38.000  
G20  21428691.863   112608576.954        2207.889          27.000  
G25  23781278.401   124971461.014        1487.999          24.000  
> 2025 04 09 08 12 01.7421507  0 15                     
C10  36091078.329   187935620.855        -162.240          39.000  
C19  22496387.338   117144510.331         -32.737          30.000  
C29  24651156.122   128364934.219       -2394.369          38.000  
C35  21629257.439   112629073.286         -34.665          31.000  
C38  36022827.278   187580254.006         281.100          41.000  
E24  26962727.155   141689957.783        1280.732          36.000  
E26  25181337.285   132328733.451       -1524.086          34.000  
E31  24937876.130   131049289.637       -1306.061          33.000  
G06  20819376.808   109406494.096        -627.241          33.000  
G11  21133601.275   111057744.070        1143.128          43.000  
G12  22394071.769   117681427.742        -156.489          30.000  
G17  23104418.307   121414466.935       -2828.138          36.000  
G19  20691220.928   108733061.057       -2058.930          38.000  
G20  21428269.380   112606357.199        2205.349          28.000  
G25  23781010.312   124969959.976        1490.438          24.000  
> 2025 04 09 08 12 01.7421507  0 15                     
C10  36091078.329   187935620.855        -162.240          39.000  
C19  22496387.338   117144510.331         -32.737          30.000  
C29  24651156.122   128364934.219       -2394.369          38.000  
C35  21629257.439   112629073.286         -34.665          31.000  
C38  36022827.278   187580254.006         281.100          41.000  
E24  26962727.155   141689957.783        1280.732          36.000  
E26  25181337.285   132328733.451       -1524.086          34.000  
E31  24937876.130   131049289.637       -1306.061          33.000  
G06  20819376.808   109406494.096        -627.241          33.000  
G11  21133601.275   111057744.070        1143.128          43.000  
G12  22394071.769   117681427.742        -156.489          30.000  
G17  23104418.307   121414466.935       -2828.138          36.000  
G19  20691220.928   108733061.057       -2058.930          38.000  
G20  21428269.380   112606357.199        2205.349          28.000  
G25  23781010.312   124969959.976        1490.438          24.000  
> 2025 04 09 08 12 02.7420897  0 16                     
C10  36091138.737   187935925.790        -163.789          40.000  
C19  22496422.563   117144683.281         -33.364          31.000  
C22  23278283.992   121216133.1111       2918.988          37.000  
C29  24651641.636   128367471.084       -2395.095          38.000  
C35  21629289.967   112629248.036         -35.927          32.000  
C38  36022801.946   187580115.800         279.410          41.000  
E24  26962511.754   141688821.356        1279.255          35.000  
E26  25181649.220   132330400.507       -1523.966          33.000  
E31  24938146.993   131050740.661       -1309.146          34.000  
G06  20819525.055   109407261.128        -625.892          33.000  
G11  21133412.555   111056744.649        1141.630          43.000  
G12  22394126.182   117681727.770        -159.246          31.000  
G17  23104981.467   121417436.131       -2829.329          36.000  
G19  20691642.586   108735262.799       -2059.852          38.000  
G20  21427882.798   112604295.625        2203.423          29.000  
G25  23780769.129   124968612.927        1487.707          24.000  
> 2025 04 09 08 12 03.7420286  0 16                     
C10  36091167.405   187936071.100        -162.529          39.000  
C19  22496426.048   117144699.169         -31.132          31.000  
C22  23277722.968   121213197.855        2920.001          36.000  
C29  24652097.208   128369845.378       -2388.839          37.000  
C35  21629299.148   112629267.198         -34.692          31.000  
C38  36022747.571   187579819.433         280.466          42.000  
E24  26962264.013   141687526.626        1278.468          34.000  
E26  25181939.006   132331903.355       -1521.373          34.000  
E31  24938396.307   131052034.199       -1310.619          32.000  
G06  20819643.361   109407871.311        -626.136          32.000  
G11  21133193.894   111055587.158        1140.645          43.000  
G12  22394150.053   117681870.674        -162.244          32.000  
G17  23105518.582   121420247.102       -2824.906          37.000  
G19  20692034.902   108737304.304       -2057.941          39.000  
G20  21427468.073   112602076.854        2200.578          32.000  
G25  23780495.006   124967108.802        1489.334          23.000  
> 2025 04 09 08 12 05.6419126  0 17                     
C10  36091254.195   187936506.032        -171.690          39.000  
C19  22496461.874   117144869.432         -27.573          29.000  
C22  23276684.337   121207773.146        2913.593          36.000  
C29  24652992.838   128374488.277       -2377.219          35.000  
C35  21629343.367   112629446.311         -34.660          34.000  
C38  36022671.573   187579414.146         270.429          41.000  
E24  26961836.359   141685234.891        1263.381          34.000  
E26  25182514.458   132334895.078       -1511.505          31.000  
E31  24938895.612   131054661.663       -1328.358          34.000  
E33  23619092.293   124119167.5041        205.391          36.000  
G06  20819894.737   109409174.975        -626.052          28.000  
G11  21132807.912   111053548.788        1129.833          42.000  
G12  22394233.545   117682314.235        -183.209          31.000  
G17  23106565.907   121425723.280       -2819.480          35.000  
G19  20692804.919   108741327.501       -2054.701          38.000  
G20  21426707.949   112598027.158        2185.647          32.000  
G25  23779993.903   124964710.9341       1485.081          19.000  
> 2025 04 09 08 12 06.5418577  0 17                     
C10  36091308.382   187936788.853        -175.040          38.000  
C19  22496490.878   117145016.375         -21.362          29.000  
C22  23276206.393   121205279.839        2911.832          36.000  
C29  24653428.362   128376751.449       -2370.147          34.000  
C35  21629374.171   112629604.224         -33.181          34.000  
C38  36022651.412   187579299.567         268.188          41.000  
E24  26961637.822   141684233.067        1252.005          33.000  
E26  25182796.188   132336375.064       -1504.074          32.000  
E31  24939150.660   131055991.050       -1335.163          32.000  
E33  23619083.224   124119113.298         203.960          35.000  
G06  20820028.369   109409864.642        -621.223          30.000  
G11  21132640.253   111052662.903        1126.534          42.000  
G12  22394289.531   117682608.726        -187.823          30.000  
G17  23107073.381   121428386.474       -2813.112          34.000  
G19  20693182.583   108743301.691       -2051.902          37.000  
G20  21426361.913   112596191.947        2180.070          31.000  
G25  23779771.981   124963503.4101       1485.260          19.000  
> 2025 04 09 08 12 07.4418027  0 17                     
C10  36091335.064   187936917.851        -172.643          38.000  
C19  22496491.478   117145009.944         -25.545          29.000  
C22  23275697.945   121202632.870        2913.136          37.000  
C29  24653836.079   128378857.937       -2373.143          33.000  
C35  21629375.670   112629607.347         -35.039          33.000  
C38  36022599.848   187579032.002         269.320          40.000  
E24  26961424.669   141683079.248        1254.816          34.000  
E26  25183050.412   132337700.770       -1504.664          32.000  
E31  24939372.806   131057168.169       -1335.371          31.000  
E33  23619041.553   124118903.911         203.689          36.000  
G06  20820131.498   109410394.964        -621.984          33.000  
G11  21132443.889   111051622.974        1127.988          42.000  
G12  22394316.212   117682752.406        -189.471          27.000  
G17  23107551.250   121430890.264       -2816.182          32.000  
G19  20693530.342   108745120.670       -2053.306          37.000  
G20  21425986.873   112594204.350        2180.428          30.000  
G25  23779519.856   124962140.4261       1484.601          19.000  
> 2025 04 09 08 12 08.3417477  0 17                     
C10  36091360.846   187937044.242        -170.830          38.000  
C19  22496491.478   117145005.697         -30.467          28.000  
C22  23275191.295   121199983.029        2912.997          37.000  
C29  24654238.101   128380966.513       -2377.034          31.000  
C35  21629377.469   112629610.250         -35.142          33.000  
C38  36022548.284   187578760.501         271.184          40.000  
E24  26961201.923   141681918.957        1257.781          35.000  
E26  25183303.137   132339027.609       -1506.579          33.000  
E31  24939597.351   131058340.248       -1332.802          32.000  
E33  23619000.181   124118691.814         204.514          37.000  
G06  20820234.327   109410925.845        -622.645          31.000  
G11  21132245.426   111050578.524        1129.557          42.000  
G12  22394343.494   117682891.366        -187.056          30.000  
G17  23108029.719   121433398.058       -2819.688          34.000  
G19  20693876.902   108746940.582       -2054.339          38.000  
G20  21425609.734   112592211.154        2184.780          33.000  
G25  23779268.030   124960776.4481       1484.243          19.000  
> 2025 04 09 08 12 09.2416928  0 17                     
C10  36091417.169   187937324.774        -172.603          39.000  
C19  22496520.221   117145158.260         -26.833          28.000  
C22  23274712.489   121197487.603        2911.966          38.000  
C29  24654675.761   128383230.542       -2375.395          29.000  
C35  21629408.909   112629768.355         -33.311          33.000  
C38  36022526.661   187578642.629         270.242          40.000  
E24  26961012.117   141680914.573        1257.407          34.000  
E26  25183585.804   132340509.030       -1504.379          32.000  
E31  24939853.936   131059666.312       -1335.205          32.000  
E33  23618989.951   124118634.641         204.802          35.000  
G06  20820366.797   109411613.451        -622.778          29.000  
G11  21132077.205   111049690.059        1126.565          42.000  
G12  22394399.218   117683186.545        -187.089          32.000  
G17  23108538.729   121436060.752       -2814.701          35.000  
G19  20694254.303   108748914.997       -2052.965          38.000  
G20  21425261.038   112590373.158        2181.057          33.000  
G25  23779043.748   124959568.5051       1484.227          19.000  
> 2025 04 09 08 12 10.1416378  0 17                     
C10  36091441.977   187937454.360        -173.111          38.000  
C19  22496521.045   117145152.962         -18.455          29.000  
C22  23274203.067   121194841.756        2912.631          38.000  
C29  24655086.701   128385339.115       -2369.754          25.000  
C35  21629409.734   112629770.662         -31.729          32.000  
C38  36022476.521   187578375.501         268.327          41.000  
E24  26960789.896   141679760.230        1253.341          32.000  
E26  25183835.756   132341830.322       -1496.857          30.000  
E31  24940079.605   131060846.550       -1340.556          32.000  
E33  23618953.002   124118424.817         205.711          35.000  
G06  20820469.851   109412146.346        -621.608          25.000  
G11  21131880.166   111048650.814        1126.532          42.000  
G12  22394429.122   117683334.772        -197.278          30.000  
G17  23109016.823   121438564.873       -2809.402          33.000  
G19  20694601.988   108750734.346       -2049.268          37.000  
G20  21424884.424   112588387.190        2175.477          31.000  
G25  23778788.250   124958207.5031       1483.699          19.000  
> 2025 04 09 08 12 11.0415829  0 18                     
C10  36091497.551   187937736.687        -176.669          37.000  
C19  22496552.935   117145293.040         -18.902          27.000  
C22  23273726.809   121192348.249        2909.949          39.000  
C29  24655524.211   128387595.334       -2364.531          22.000  
C35  21629440.725   112629923.146         -30.818          32.000  
C38  36022455.948   187578260.850         266.553          41.000  
E24  26960607.435   141678761.549        1251.542          31.000  
E26  25184114.375   132343298.685       -1493.128          30.000  
E31  24940332.742   131062181.344       -1344.981          31.000  
E33  23618942.921   124118366.727         204.794          36.000  
G06  20820600.373   109412829.806        -618.043          28.000  
G09  22186661.369   116591691.9521        629.071          34.000  
G11  21131712.695   111047765.797        1121.610          42.000  
G12  22394484.996   117683638.052        -196.276          27.000  
G17  23109524.484   121441216.894       -2802.869          28.000  
G19  20694978.340   108752703.812       -2050.638          39.000  
G20  21424536.477   112586558.475        2170.217          34.000  
G25  23778568.614   124956998.583        1485.885          23.000  
> 2025 04 09 08 12 11.9995243  0 19                     
C10  36091507.669   187937787.328        -174.419          36.000  
C19  22496534.873   117145195.267         -20.152          28.000  
C22  23273171.519   121189446.936        2908.223          39.000  
C29  24655942.646   128389742.334       -2361.903          24.000  
C35  21629428.059   112630106.905         -31.245          31.000  
C38  36022386.920   187577890.620         265.970          41.000  
E24  26960359.432   141677447.750        1249.314          32.000  
E26  25184368.824   132344607.324       -1489.766          31.000  
E31  24940556.312   131063354.714       -1345.865          30.000  
E33  23618883.787   124118054.373         205.196          35.000  
G06  20820692.035   109413303.859        -617.039          31.000  
G09  22186526.987   116590974.908         626.535          31.000  
G11  21131486.876   111046574.137        1121.843          42.000  
G12  22394496.313   117683706.156        -205.903          27.000  
G17  23110017.268   121443781.436       -2798.418          23.000  
G19  20695331.120   108754551.067       -2050.673          40.000  
G20  21424120.590   112584362.803        2168.138          34.000  
G25  23778289.133   124955752.690        1490.327          22.000  
J03  39194633.020   205969186.0641        352.604          34.000  
> 2025 04 09 08 12 12.9994633  0 19                     
C10  36091570.288   187938108.106        -179.194          36.000  
C19  22496566.913   117145357.424         -20.252          29.000  
C22  23272641.448   121186683.724        2907.865          38.000  
C29  24656429.472   128392246.998       -2375.934          28.000  
C35  21629460.399   112630281.785         -32.194          31.000  
C38  36022364.698   187577770.304         263.653          41.000  
E24  26960154.636   141676346.734        1244.386          28.000  
E26  25184683.269   132346241.181       -1491.758          29.000  
E31  24940843.776   131064847.819       -1349.663          30.000  
E33  23618873.557   124117996.320         202.491          36.000  
G06  20820839.795   109414066.401        -617.467          33.000  
G09  22186436.412   116590494.495         624.086          27.000  
G11  21131302.766   111045597.899        1119.051          43.000  
G12  22394563.129   117684048.815        -149.152          25.000  
G17  23110583.239   121446722.010       -2796.379          23.000  
G19  20695750.493   108756744.991       -2049.308          40.000  
G20  21423736.219   112582338.471        2167.153          33.000  
G25  23778037.570   124954406.448        1491.703          21.000  
J03  39194594.309   205968978.012         352.705          34.000  
> 2025 04 09 08 12 14.0004021  0 19                     
C10  36091592.473   187938211.711        -179.173          37.000  
C19  22496554.622   117145302.212         -20.675          30.000  
C22  23272069.144   121183697.685        2909.397          38.000  
C29  24656879.160   128394839.640       -2380.209          29.000  
C35  21629453.204   112630239.428         -35.012          31.000  
C38  36022299.943   187577432.685         263.224          41.000  
E24  26959903.410   141675027.603        1239.285          22.000  
E26  25184953.982   132347660.598       -1498.069          24.000  
E31  24941092.304   131066124.624       -1353.030          32.000  
E33  23618823.491   124117720.573         200.314          38.000  
G06  20820943.823   109414608.242        -620.823          35.000  
G09  22186306.302   116589797.350         618.878          24.000  
G11  21131076.722   111044403.132        1117.113          43.000  
G12  22394586.513   117684119.624        -143.900          27.000  
G17  23111108.175   121449449.007       -2824.828          30.000  
G19  20696127.032   108758720.860       -2050.090          39.000  
G20  21423311.413   112580091.961        2181.327          29.000  
G25  23777745.872   124952837.0451       1493.210          17.000  
J03  39194513.665   205968549.067         353.012          32.000  
> 2025 04 09 08 12 15.0003411  0 19                     
C10  36091655.692   187938534.232        -178.841          38.000  
C19  22496586.962   117145467.433         -21.231          32.000  
C22  23271542.072   121180932.654        2910.369          34.000  
C29  24657360.589   128397364.957       -2384.441          25.000  
C35  21629487.043   112630418.253         -35.643          32.000  
C38  36022278.321   187577313.360         263.456          41.000  
E24  26959699.214   141673933.6091       1238.728          17.000  
E26  25185266.028   132349303.897       -1498.738          20.000  
E31  24941376.170   131067622.533       -1353.342          35.000  
E33  23618812.661   124117665.978         199.825          38.000  
G06  20821091.583   109415374.532        -621.056          36.000  
G09  22186219.325   116589324.368         617.087          20.000  
G11  21130892.912   111043431.595        1115.697          43.000  
G12  22394651.231   117684685.656        -138.843          25.000  
G17  23111686.138   121452729.748       -2835.754          32.000  
G19  20696546.104   108760914.395       -2049.777          40.000  
G20  21422926.741   112578062.235        2168.142          31.000  
G25  23777497.606   124951488.3851       1493.974          16.000  
J03  39194475.554   205968343.563         350.038          31.000  
> 2025 04 09 08 12 16.0002800  0 19                     
C10  36091688.444   187938696.291        -176.921          39.000  
C19  22496587.337   117145471.303         -19.501          33.000  
C22  23270995.325   121178004.698        2919.630          30.000  
C29  24657820.246   128399734.587       -2386.278          24.000  
C35  21629492.514   112630436.874         -34.665          32.000  
C38  36022225.632   187577034.252         264.745          41.000  
E24  26959456.157   141672679.9031       1238.881          12.000  
E26  25185554.204   132350783.8451      -1496.291          19.000  
E31  24941630.768   131068958.059       -1351.721          36.000  
E33  23618773.463   124117450.928         199.891          39.000  
G06  20821207.378   109415977.565        -619.855          36.000  
G09  22186099.783   116588693.9871        613.276          15.000  
G11  21130678.636   111042299.315        1118.954          42.000  
G12  22394692.077   117684815.186        -205.949          27.000  
G17  23112229.137   121455550.719       -2835.384          33.000  
G19  20696935.010   108762946.533       -2048.944          41.000  
G20  21422513.403   112575880.842        2166.932          33.000  
G25  23777222.172   124949978.6801       1495.489          16.000  
J03  39194405.478   205967976.864         354.270          31.000  
> 2025 04 09 08 12 17.0002189  0 18                     
C10  36091721.646   187938859.390        -176.888          39.000  
C19  22496588.761   117145478.431         -21.928          32.000  
C22  23270445.431   121175075.306        2912.128          29.000  
C29  24658279.154   128402108.294       -2387.055          23.000  
C35  21629495.437   112630458.145         -35.287          32.000  
C38  36022173.993   187576756.523         265.795          42.000  
E24  26959221.644   141671428.8241       1237.585          12.000  
E26  25185833.235   132352266.724       -1494.671          24.000  
E31  24941885.517   131070295.041       -1351.248          36.000  
E33  23618734.415   124117237.880         200.107          40.000  
G06  20821323.623   109416584.645        -622.515          36.000  
G09  22185989.384   116588072.5031        608.157          14.000  
G11  21130464.209   111041168.086        1118.474          43.000  
G17  23112771.986   121458372.134       -2837.351          31.000  
G19  20697323.766   108764982.550       -2050.718          41.000  
G20  21422099.014   112573699.071        2173.533          34.000  
G25  23776945.388   124948469.0591       1498.132          16.000  
J03  39194336.450   205967609.207         354.794          30.000  
> 2025 04 09 08 12 18.0001579  0 19                     
C10  36091783.628   187939176.302        -175.810          38.000  
C19  22496622.862   117145643.774         -28.213          33.000  
C22  23269927.614   121172618.847        2893.283          31.000  
C29  24658767.141   128404636.023       -2386.926          22.000  
C35  21629531.937   112630634.999         -39.691          31.000  
C38  36022151.733   187576631.569         265.797          42.000  
E24  26959018.910   141670600.273        1240.790          21.000  
E26  25186145.844   132353902.029       -1495.504          23.000  
E31  24942169.945   131071785.653       -1347.989          37.000  
E33  23618726.546   124117180.398         200.518          41.000  
G06  20821471.046   109417351.005        -626.311          33.000  
G09  22185908.365   116587608.6911        605.828           9.000  
G11  21130280.062   111040191.511        1119.333          43.000  
G12  22394802.251   117685355.8351       -203.534          31.000  
G17  23113345.414   121461351.982       -2841.618          29.000  
G19  20697742.801   108767176.481       -2054.112          41.000  
G20  21421714.306   112571663.260        2181.438          34.000  
G25  23776703.081   124947417.438        1502.285          22.000  
J03  39194298.302   205967401.213         346.041          32.000  
> 2025 04 09 08 12 19.0000968  0 19                     
C10  36091815.144   187939337.526        -175.247          38.000  
C19  22496628.895   117145657.983         -29.057          35.000  
C22  23269375.734   121169711.216        2907.626          30.000  
C29  24659211.171   128406988.587       -2368.438          23.000  
C35  21629539.169   112630657.237         -36.470          32.000  
C38  36022099.307   187576351.366         267.691          42.000  
E24  26958791.405   141669346.091        1240.771          22.000  
E26  25186429.185   132355384.051       -1499.513          29.000  
E31  24942426.005   131073116.363       -1346.560          35.000  
E33  23618687.311   124116966.582         200.330          41.000  
G06  20821590.700   109417964.466        -631.811          27.000  
G09  22185791.484   116586989.8271        604.384           9.000  
G11  21130065.448   111039057.250        1122.519          43.000  
G12  22394840.662   117685544.992        -202.237          33.000  
G17  23113888.675   121464183.455       -2848.737          26.000  
G19  20698132.269   108769216.997       -2054.244          40.000  
G20  21421299.730   112569469.323        2177.579          34.000  
G25  23776432.706   124945900.478        1503.704          21.000  
J03  39194232.085   205967039.694         349.376          33.000  
> 2025 04 09 08 12 20.0000357  0 19                     
C10  36091846.884   187939494.267        -173.338          38.000  
C19  22496630.357   117145670.496         -30.969          35.000  
C22  23268818.082   121166786.656        2908.556          31.000  
C29  24659644.034   128409340.771       -2369.762          27.000  
C35  21629545.127   112630677.460         -37.038          31.000  
C38  36022046.506   187576068.013         268.407          42.000  
E24  26958550.034   141668088.7711       1243.769          20.000  
E26  25186705.257   132356869.516       -1502.265          31.000  
E31  24942680.492   131074442.772       -1342.156          34.000  
E33  23618646.201   124116750.190         200.665          41.000  
G06  20821708.481   109418579.058        -627.262          30.000  
G09  22185674.227   116586364.0131        609.400          14.000  
G11  21129850.759   111037919.416        1121.301          44.000  
G12  22394877.199   117685728.895        -199.950          35.000  
G17  23114430.962   121467012.964       -2835.171          28.000  
G19  20698520.163   108771253.538       -2055.425          39.000  
G20  21420885.380   112567278.737        2176.716          33.000  
G25  23776154.161   124944380.911        1503.548          20.000  
J03  39194163.695   205966674.507         348.382          33.000  
> 2025 04 09 08 12 20.9999747  0 18                     
C10  36091909.878   187939809.595        -173.544          38.000  
C19  22496665.170   117145842.218         -30.300          36.000  
C22  23268287.487   121164023.769        2901.681          31.000  
C29  24660115.045   128411852.971       -2372.424          31.000  
C35  21629579.941   112630858.305         -39.235          31.000  
C38  36022022.860   187575941.861         268.342          42.000  
E24  26958340.817   141666988.3511       1244.876          19.000  
E26  25187026.372   132358516.221       -1504.379          34.000  
E31  24942962.334   131075922.431       -1340.051          31.000  
E33  23618637.845   124116693.358         200.391          37.000  
G06  20821854.518   109419347.509        -625.871          35.000  
G09  22185588.224   116585899.2431        607.395          13.000  
G11  21129665.524   111036941.031        1121.978          43.000  
G12  22394942.591   117686070.732        -197.997          38.000  
G19  20698939.910   108773453.117       -2057.289          39.000  
G20  21420499.284   112565242.940        2182.089          32.000  
G25  23775910.767   124943022.955        1500.255          20.000  
J03  39194126.259   205966470.951         346.741          34.000  
> 2025 04 09 08 12 21.9999136  0 19                     
C10  36091941.169   187939968.157        -173.018          37.000  
C19  22496668.580   117145860.422         -31.576          36.000  
C22  23267725.489   121161108.554        2903.543          31.000  
C29  24660566.345   128414211.941       -2372.752          33.000  
C35  21629587.548   112630881.204         -38.944          31.000  
C38  36021970.209   187575658.967         270.477          42.000  
E24  26958112.787   141665729.5551       1246.105          15.000  
E26  25187305.591   132360005.929       -1508.382          34.000  
E31  24943218.469   131077246.531       -1338.949          29.000  
E33  23618596.286   124116478.836         201.486          33.000  
G06  20821969.750   109419959.427        -628.592          36.000  
G09  22185472.917   116585279.3651        605.464          14.000  
G11  21129450.686   111035805.597        1121.799          43.000  
G12  22394978.679   117686254.194        -195.611          38.000  
G17  23115527.453   121472811.2491      -2838.742          32.000  
G19  20699329.452   108775495.852       -2057.653          38.000  
G20  21420080.887   112563047.146        2181.803          32.000  
G25  23775634.471   124941801.8941       1498.841          20.000  
J03  39194059.217   205966110.554         346.274          35.000  
> 2025 04 09 08 12 22.9998525  0 19                     
C10  36091971.598   187940124.984        -173.370          36.000  
C19  22496673.227   117145875.939         -33.130          35.000  
C22  23267152.735   121158186.065        2909.858          30.000  
C29  24661017.983   128416568.669       -2373.007          34.000  
C35  21629592.495   112630906.834         -40.893          30.000  
C38  36021917.296   187575374.731         269.341          42.000  
E24  26957873.103   141664467.527        1250.088          23.000  
E26  25187593.542   132361500.785       -1508.279          33.000  
E31  24943471.044   131078567.290       -1338.751          30.000  
E33  23618553.865   124116264.090         199.701          39.000  
G06  20822088.018   109420573.623        -630.172          37.000  
G09  22185355.848   116584660.4501        603.042          15.000  
G11  21129235.585   111034670.282        1120.492          42.000  
G12  22395016.902   117686427.460        -203.220          36.000  
G17  23115991.982   121475357.139       -2842.468          33.000  
G19  20699720.532   108777537.561       -2058.312          38.000  
G20  21419664.625   112560852.339        2178.701          34.000  
G25  23775360.011   124940289.6771       1496.349          19.000  
J03  39193991.314   205965750.341         345.769          36.000  
> 2025 04 09 08 12 23.9997915  0 19                     
C10  36092034.217   187940440.490        -173.418          37.000  
C19  22496707.966   117146053.366         -35.681          33.000  
C22  23266622.665   121155422.433        2895.044          30.000  
C29  24661500.311   128419084.444       -2372.102          36.000  
C35  21629629.332   112631090.298         -41.716          29.000  
C38  36021893.275   187575248.658         268.003          41.000  
E24  26957671.005   141663362.171        1249.049          27.000  
E26  25187906.787   132363152.094       -1507.506          30.000  
E31  24943759.407   131080340.326       -1339.409          30.000  
E33  23618547.232   124116210.543         198.214          42.000  
G06  20822236.978   109421347.675        -630.412          36.000  
G09  22185276.365   116584204.7121        580.926          16.000  
G11  21129051.175   111033694.267        1119.775          39.000  
G12  22395084.318   117686771.640        -193.234          33.000  
G17  23116568.145   121478343.394       -2841.560          30.000  
G19  20700141.103   108779738.192       -2056.666          38.000  
G20  21419278.754   112558818.574        2178.143          37.000  
G25  23775113.244   124938939.365        1491.190          24.000  
J03  39193953.803   205965548.317         347.118          35.000  
> 2025 04 09 08 12 24.9997304  0 19                     
C10  36092064.084   187940596.328        -171.593          37.000  
C19  22496713.549   117146071.896         -36.459          29.000  
C22  23266061.940   121152511.989        2894.566          30.000  
C29  24661953.485   128421436.068       -2366.225          37.000  
C35  21629635.515   112631115.517         -41.040          28.000  
C38  36021839.799   187574964.007         270.747          41.000  
E24  26957443.051   141662096.776        1248.979          24.000  
E26  25188190.279   132364641.222       -1505.587          27.000  
E31  24944009.921   131081662.109       -1339.588          29.000  
E33  23618508.747   124115997.544         197.208          42.000  
G06  20822354.384   109421958.908        -629.412          36.000  
G09  22185165.330   116583608.5911        578.986          16.000  
G11  21128836.111   111032559.720        1117.618          41.000  
G12  22395130.074   117687202.841        -162.013          39.000  
G17  23117114.555   121481169.500       -2844.678          32.000  
G19  20700531.620   108781781.507       -2060.950          35.000  
G20  21418864.029   112556889.694        2176.942          36.000  
G25  23774844.518   124937434.100        1487.257          23.000  
J03  39193885.638   205965183.828         349.163          34.000  
> 2025 04 09 08 12 25.9996693  0 18                     
C10  36092096.611   187940758.141        -174.083          37.000  
C19  22496721.794   117146096.675         -36.028          25.000  
C22  23265505.676   121149605.893        2892.984          27.000  
C29  24662406.321   128423791.795       -2367.573          37.000  
C35  21629645.258   112631142.098         -39.889          27.000  
C38  36021786.286   187574683.771         268.026          40.000  
E24  26957208.463   141660836.0741       1249.200          20.000  
E26  25188475.531   132366135.839       -1506.524          30.000  
E31  24944264.295   131082988.337       -1343.378          30.000  
E33  23618470.223   124115790.277         195.623          43.000  
G06  20822472.952   109422577.066        -630.694          35.000  
G09  22185057.554   116583018.1591        578.582          16.000  
G11  21128622.509   111031431.802        1116.372          40.000  
G17  23117661.826   121484005.532       -2854.662          29.000  
G19  20700922.699   108783826.232       -2055.814          36.000  
G20  21418448.367   112554701.519        2177.453          36.000  
G25  23774573.355   124936226.103        1489.355          24.000  
J03  39193820.133   205964824.341         348.423          35.000  
> 2025 04 09 08 12 26.9996083  0 19                     
C10  36092160.580   187941350.875        -172.273          37.000  
C19  22496759.080   117146271.723         -33.545          25.000  
C22  23264982.650   121146855.468        2890.572          25.000  
C29  24662888.500   128426297.571       -2365.652          37.000  
C35  21629681.046   112631322.486         -40.125          28.000  
C38  36021763.315   187574556.007         268.918          40.000  
E24  26957014.310   141660065.9591       1249.811          19.000  
E26  25188797.621   132367784.309       -1504.437          33.000  
E31  24944545.313   131084469.844       -1342.400          35.000  
E33  23618461.342   124115737.052         195.596          43.000  
G06  20822621.462   109423614.027        -630.707          36.000  
G09  22184975.524   116582582.1961        612.654          16.000  
G11  21128438.849   111030458.688        1115.049          40.000  
G12  22395237.362   117687655.9601       -182.656          34.000  
G17  23118107.730   121486475.091       -2804.001          25.000  
G19  20701341.622   108786022.984       -2053.388          33.000  
G20  21418062.346   112552665.711        2178.139          37.000  
G25  23774332.734   124934880.569        1487.964          24.000  
J03  39193782.771   205964618.272         349.058          34.000  
> 2025 04 09 08 12 27.9995472  0 19                     
C10  36092191.346   187941509.793        -173.719          36.000  
C19  22496761.666   117146289.271         -31.321          27.000  
C22  23264427.922   121143953.944        2886.320          23.000  
C29  24663340.475   128428648.887       -2364.003          35.000  
C35  21629687.529   112631351.375         -42.336          29.000  
C38  36021711.938   187574274.626         267.325          39.000  
E24  26956783.957   141658803.7101       1246.292          17.000  
E26  25189076.615   132369276.143       -1507.018          34.000  
E31  24944799.425   131085797.576       -1343.203          35.000  
E33  23618422.856   124115530.203         193.782          42.000  
G06  20822740.067   109424231.532        -633.535          38.000  
G09  22184850.997   116581957.643         610.034          21.000  
G11  21128225.584   111029331.368        1112.833          39.000  
G12  22395273.225   117687837.818        -211.397          35.000  
G17  23118652.340   121489267.389       -2808.418          26.000  
G19  20701730.340   108788326.842       -2051.852          31.000  
G20  21417647.021   112550475.377        2177.321          36.000  
G25  23774059.811   124933381.387        1483.556          23.000  
J03  39193715.206   205964255.635         349.479          34.000  
> 2025 04 09 08 12 28.9994862  0 18                     
C10  36092252.091   187941823.257        -173.148          36.000  
C19  22496795.730   117146460.207         -32.304          29.000  
C22  23263906.770   121141212.974        2879.294          24.000  
C29  24663823.927   128431153.272       -2365.229          32.000  
C35  21629722.192   112631531.501         -42.482          30.000  
C38  36021689.041   187574146.949         268.464          39.000  
E24  26956576.688   141657699.0401       1245.758          12.000  
E26  25189391.884   132370924.184       -1507.399          34.000  
E31  24945086.513   131087279.908       -1344.051          35.000  
E33  23618413.450   124115478.704         193.260          42.000  
G06  20822888.352   109425006.206        -632.779          39.000  
G11  21128041.399   111028359.495        1114.171          39.000  
G12  22395340.866   117688194.720        -209.341          35.000  
G17  23119226.930   121492215.858       -2806.181          28.000  
G19  20702147.839   108790516.382       -2050.657          31.000  
G20  21417259.877   112548439.006        2179.652          34.000  
G25  23773819.565   124932039.775        1482.186          23.000  
J03  39193675.221   205964047.217         349.372          34.000  
> 2025 04 09 08 12 30.0004250  0 19                     
C10  36092273.751   187941922.071        -170.887          35.000  
C19  22496789.509   117146685.665         -34.180          31.000  
C22  23263340.537   121138260.948        2877.276          22.000  
C29  24664267.096   128433448.373       -2369.267          30.000  
C35  21629721.068   112631501.931         -43.523          30.000  
C38  36021624.661   187573805.444         270.147          40.000  
E24  26956331.233   141656380.7501       1244.889          12.000  
E26  25189669.567   132372361.834       -1511.907          29.000  
E31  24945327.022   131088551.452       -1342.663          34.000  
E33  23618364.359   124115212.685         193.816          42.000  
G06  20822996.052   109425566.916        -634.711          39.000  
G09  22184574.851   116580820.6041        596.518          29.000  
G11  21127816.629   111027172.351        1113.677          39.000  
G12  22395367.023   117688333.875        -210.640          35.000  
G17  23119756.738   121494951.839       -2806.694          29.000  
G19  20702525.352   108792497.553       -2053.602          29.000  
G20  21416833.048   112546183.917        2181.020          32.000  
G25  23773540.233   124930796.739        1490.807          27.000  
J03  39193595.551   205963626.407         347.021          33.000  
> 2025 04 09 08 12 31.0003640  0 19                     
C10  36092333.672   187942236.251        -172.570          32.000  
C19  22496823.948   117146862.635         -37.297          31.000  
C22  23262818.561   121135523.902        2877.592          21.000  
C29  24664753.921   128435963.167       -2376.150          28.000  
C35  21629760.004   112631687.695         -45.297          33.000  
C38  36021600.340   187573678.014         269.577          40.000  
E24  26956127.636   141655279.7001       1243.990          11.000  
E26  25189985.811   132374018.189       -1513.945          24.000  
E31  24945610.888   131090034.127       -1341.777          35.000  
E33  23618357.127   124115162.596         193.153          42.000  
G06  20823146.511   109426343.459        -636.832          42.000  
G09  22184495.069   116580369.935         591.935          29.000  
G11  21127633.119   111026201.245        1115.691          39.000  
G12  22395434.438   117688684.258        -206.364          33.000  
G17  23120325.107   121497903.008       -2810.282          30.000  
G19  20702944.425   108794694.366       -2058.257          28.000  
G20  21416446.278   112544146.420        2180.332          29.000  
G25  23773300.062   124929452.142        1482.989          25.000  
J03  39193558.639   205963423.670         343.501          32.000  
> 2025 04 09 08 12 32.0003029  0 18                     
C10  36092366.575   187942391.022        -170.634          33.000  
C19  22496829.569   117146883.435         -36.396          34.000  
C22  23262266.568   121132631.8791       2875.660          19.000  
C29  24665211.330   128438325.704       -2385.418          26.000  
C35  21629766.224   112631715.343         -46.008          32.000  
C38  36021546.602   187573391.695         272.540          40.000  
E26  25190278.333   132375806.2311      -1513.670          19.000  
E31  24945866.836   131091357.572       -1338.917          34.000  
E33  23618316.580   124114951.495         195.459          42.000  
G06  20823268.151   109426964.688        -635.109          41.000  
G09  22184382.272   116579759.905         596.398          32.000  
G11  21127418.093   111025331.032        1117.767          39.000  
G12  22395471.238   117688870.253        -203.273          32.000  
G17  23120866.757   121500973.901       -2814.188          31.000  
G19  20703331.982   108796738.687       -2062.470          27.000  
G20  21416033.389   112541950.922        2179.932          25.000  
G25  23773024.777   124927957.252        1475.082          24.000  
J03  39193491.411   205963063.272         344.349          32.000  
> 2025 04 09 08 12 33.0002418  0 18                     
C10  36092398.465   187942549.263        -170.823          33.000  
C19  22496836.277   117146912.327         -42.305          36.000  
C22  23261718.360   121129744.5351       2877.198          19.000  
C29  24665665.927   128440694.712       -2369.983          29.000  
C35  21629769.035   112631750.060         -45.558          32.000  
C38  36021493.651   187573369.630         269.469          40.000  
E26  25190571.942   132377305.8071      -1513.426          18.000  
E31  24946120.573   131092679.907       -1335.491          29.000  
E33  23618280.417   124114745.244         193.997          42.000  
G06  20823387.581   109427587.243        -636.773          42.000  
G09  22184264.266   116579151.761         594.822          34.000  
G11  21127204.753   111024202.650        1117.395          40.000  
G12  22395508.525   117689059.400        -199.052          30.000  
G17  23121407.095   121503777.416       -2814.834          32.000  
G19  20703724.522   108798788.539       -2062.998          30.000  
G20  21415624.584   112539759.8241       2179.079          20.000  
G25  23772756.576   124926473.695        1473.821          23.000  
J03  39193424.969   205962707.666         342.762          31.000  
> 2025 04 09 08 12 34.0001808  0 19                     
C10  36092458.086   187942861.171        -170.727          33.000  
C19  22496873.414   117147094.196         -43.084          35.000  
C22  23261195.185   121127008.4991       2879.450          19.000  
C29  24666152.753   128443210.141       -2376.695          28.000  
C35  21629804.973   112631935.483         -44.845          31.000  
C38  36021468.731   187573240.213         272.108          39.000  
E24  26955570.022   141652476.1181       1269.971          17.000  
E26  25190892.683   132378962.834       -1512.029          22.000  
E31  24946405.338   131094155.357       -1330.919          23.000  
E33  23618271.086   124114694.337         194.369          42.000  
G06  20823536.541   109428368.319        -636.438          43.000  
G09  22184181.486   116578701.366         594.305          32.000  
G11  21127020.943   111023228.762        1116.650          40.000  
G12  22395576.840   117689398.901        -193.728          29.000  
G17  23121976.364   121506732.711       -2809.857          34.000  
G19  20704144.794   108800991.431       -2059.246          32.000  
G20  21415239.913   112537729.2671       2174.021          15.000  
G25  23772515.805   124925413.604        1472.963          25.000  
J03  39193390.156   205962512.496         334.827          30.000  
> 2025 04 09 08 12 35.0001197  0 19                     
C10  36092489.564   187943017.690        -173.744          32.000  
C19  22496881.808   117147126.618         -48.719          35.000  
C22  23260640.269   121124114.2381       2905.433          19.000  
C29  24666603.940   128445571.203       -2378.353          31.000  
C35  21629813.067   112631967.829         -48.456          31.000  
C38  36021416.267   187572956.685         269.269          39.000  
E24  26955319.995   141651191.6761       1272.742          16.000  
E26  25191193.375   132380459.227       -1515.416          22.000  
E31  24946664.059   131095471.0431      -1331.430          19.000  
E33  23618234.811   124114488.267         191.970          42.000  
G06  20823657.657   109428991.578        -640.723          43.000  
G09  22184071.462   116578096.153         588.888          36.000  
G11  21126807.491   111022101.683        1112.353          41.000  
G12  22395616.712   117689575.746        -204.319          29.000  
G17  23122514.491   121509526.926       -2812.453          35.000  
G19  20704534.524   108803035.264       -2060.778          32.000  
G20  21414825.000   112535541.3431       2174.345          13.000  
G25  23772243.293   124923927.550        1473.548          23.000  
J03  39193327.199   205962165.646         333.611          30.000  
> 2025 04 09 08 12 36.0000586  0 19                     
C10  36092520.218   187943176.376        -171.347          34.000  
C19  22496893.874   117147161.005         -52.359          33.000  
C22  23260081.830   121121194.9471       2906.809          19.000  
C29  24667055.503   128447937.278       -2379.353          32.000  
C35  21629820.937   112632001.946         -49.249          28.000  
C38  36021363.879   187572673.457         270.580          40.000  
E24  26955073.641   141649905.4571       1270.583          16.000  
E26  25191483.049   132381959.911       -1521.054          23.000  
E31  24946918.957   131096788.5891      -1331.735          14.000  
E33  23618195.014   124114281.240         193.422          42.000  
G06  20823777.649   109429616.056        -638.313          43.000  
G09  22183962.712   116577494.547         586.963          35.000  
G11  21126593.514   111020971.361        1117.881          40.000  
G12  22395653.662   117689763.897        -202.341          30.000  
G17  23123051.794   121512328.215       -2818.097          36.000  
G19  20704927.027   108805084.137       -2064.262          31.000  
G20  21414414.959   112533352.5411       2176.879          12.000  
G25  23771968.159   124922443.891        1470.442          22.000  
J03  39193261.620   205961814.726         339.099          30.000  
> 2025 04 09 08 12 36.9999976  0 19                     
C10  36092581.863   187943487.605        -171.646          33.000  
C19  22496930.936   117147359.175         -58.196          34.000  
C22  23259549.287   121118427.6471       2908.398          18.000  
C29  24667541.054   128450457.157       -2382.737          31.000  
C35  21629858.598   112632190.964         -48.771          30.000  
C38  36021340.682   187572543.032         270.787          39.000  
E24  26954850.183   141648776.4211       1268.688          15.000  
E26  25191815.407   132383622.996       -1517.826          24.000  
E31  24947209.044   131098259.305       -1331.693          21.000  
E33  23618186.207   124114228.165         194.359          41.000  
G06  20823927.732   109430396.457        -639.967          42.000  
G09  22183877.459   116577049.694         577.250          35.000  
G11  21126410.228   111019994.738        1117.976          40.000  
G12  22395722.801   117690102.743        -196.933          30.000  
G17  23123617.690   121515288.965       -2819.362          35.000  
G19  20705349.622   108807289.973       -2067.067          30.000  
G20  21414035.010   112531316.0051       2179.391          12.000  
G25  23771720.118   124921117.390        1465.167          21.000  
J03  39193222.234   205961617.423         340.454          30.000  
> 2025 04 09 08 12 37.9999365  0 18                     
C10  36092616.302   187943645.802        -172.976          33.000  
C19  22496930.299   117147393.270         -42.408          34.000  
C22  23258982.641   121115506.3151       2909.083          19.000  
C29  24667997.001   128452825.515       -2381.779          31.000  
C35  21629865.456   112632225.448         -46.747          32.000  
C38  36021287.282   187572261.058         269.499          39.000  
E24  26954597.720   141647494.9601       1266.943          15.000  
E26  25192101.371   132385125.356       -1515.025          23.000  
E31  24947464.430   131099578.1681      -1318.710          16.000  
E33  23618149.295   124114023.388         192.446          41.000  
G06  20824049.111   109431021.085        -638.097          42.000  
G09  22183767.098   116576454.067         595.195          36.000  
G11  21126196.738   111018865.755        1114.933          39.000  
G17  23124152.183   121518090.088       -2812.148          35.000  
G19  20705741.713   108809340.162       -2061.542          31.000  
G20  21413627.554   112529371.6481       2198.092          19.000  
G25  23771443.672   124919642.202        1460.097          22.000  
J03  39193155.643   205961262.548         344.605          32.000  
> 2025 04 09 08 12 38.9998755  0 19                     
C10  36092684.242   187943960.202        -169.277          34.000  
C19  22496970.059   117147577.521         -44.422          34.000  
C22  23258440.504   121112740.1811       2908.980          18.000  
C29  24668479.255   128455342.934       -2373.354          34.000  
C35  21629902.817   112632413.057         -47.490          33.000  
C38  36021263.785   187572133.716         271.666          37.000  
E24  26954380.258   141646372.7381       1264.283          14.000  
E26  25192276.937   132386309.023       -1519.229          34.000  
E31  24947749.720   131101309.3791      -1321.584          18.000  
E33  23618141.089   124113976.676         191.135          42.000  
G06  20824199.194   109431804.989        -640.561          41.000  
G09  22183685.741   116576006.035         589.616          36.000  
G11  21126013.153   111017895.982        1113.893          36.000  
G12  22395837.772   117690921.5711       -186.363          27.000  
G17  23124715.380   121521043.478       -2810.252          37.000  
G19  20706162.509   108811544.960       -2059.204          34.000  
G20  21413239.510   112527321.700        2193.662          24.000  
G25  23771195.931   124918328.093        1455.988          21.000  
J03  39193115.958   205961060.596         347.837          31.000  
> 2025 04 09 08 12 39.9998144  0 19                     
C10  36092716.695   187944111.835        -170.891          32.000  
C19  22496987.222   117147614.522         -61.310          32.000  
C22  23257875.470   121109816.1701       2909.241          18.000  
C29  24668933.815   128457703.280       -2378.859          35.000  
C35  21629909.788   112632448.428         -52.075          37.000  
C38  36021222.489   187571847.446         269.753          39.000  
E24  26954140.200   141645093.9701       1260.363          14.000  
E26  25192583.700   132387811.952       -1518.882          31.000  
E31  24948009.715   131102615.0341      -1322.565          17.000  
E33  23618101.891   124113771.622         189.723          43.000  
G06  20824319.186   109432431.662        -645.144          36.000  
G09  22183562.901   116575401.573         588.253          36.000  
G11  21125800.075   111016765.950        1114.893          33.000  
G12  22395881.916   117691090.250        -191.140          26.000  
G17  23125248.186   121523836.912       -2811.923          36.000  
G19  20706550.816   108813589.470       -2063.463          36.000  
G20  21412822.574   112525112.921        2192.620          22.000  
G25  23770919.597   124916858.7531       1452.263          20.000  
J03  39193050.378   205960698.230         345.155          27.000  
> 2025 04 09 08 12 40.9997533  0 19                     
C10  36092742.889   187944268.243        -171.480          30.000  
C19  22496998.427   117147661.516         -52.309          29.000  
C22  23257304.778   121106892.990        2907.148          25.000  
C29  24669387.813   128460064.570       -2378.717          34.000  
C35  21629919.194   112632482.709         -52.005          36.000  
C38  36021163.243   187571562.681         271.923          36.000  
E24  26953895.082   141643819.3621       1252.845          14.000  
E26  25192894.397   132389318.110       -1522.162          32.000  
E31  24948264.951   131103921.2891      -1325.088          12.000  
E33  23618064.829   124113567.353         189.651          42.000  
G06  20824440.715   109433060.320        -645.194          32.000  
G09  22183439.200   116574798.551         587.605          38.000  
G11  21125587.035   111015637.796        1112.313          32.000  
G12  22395936.591   117691265.561        -191.001          30.000  
G17  23125782.829   121526635.077       -2815.103          34.000  
G19  20706941.558   108815637.197       -2063.328          36.000  
G20  21412408.373   112522907.312        2188.313          24.000  
G25  23770641.502   124915393.7221       1447.781          20.000  
J03  39192983.037   205960339.634         342.392          30.000  
> 2025 04 09 08 12 41.9996923  0 18                     
C10  36092803.522   187944581.679        -171.888          31.000  
C19  22497038.374   117147858.762         -54.926          29.000  
C22  23256667.494   121103570.108        2919.586          30.000  
C29  24669875.650   128462588.196       -2381.049          34.000  
C35  21629957.942   112632677.898         -52.079          36.000  
C38  36021135.137   187571436.444         268.731          36.000  
E24  26953682.304   141642712.4931       1249.695          15.000  
E26  25193232.338   132391329.335       -1522.830          35.000  
E31  24948552.227   131105393.0431      -1334.951          11.000  
E33  23618057.709   124113523.946         188.726          43.000  
G06  20824594.583   109433847.018        -642.280          29.000  
G09  22183350.836   116574357.590         585.804          37.000  
G11  21125402.738   111014671.582        1111.137          33.000  
G12  22396006.218   117691602.368        -196.562          28.000  
G17  23126348.312   121529594.196       -2815.143          34.000  
G19  20707363.141   108817845.437       -2066.247          37.000  
G25  23770397.846   124914093.1391       1444.539          20.000  
J03  39192945.339   205960143.012         340.818          30.000  
> 2025 04 09 08 12 42.9996312  0 19                     
C10  36092834.513   187944740.570        -173.281          32.000  
C19  22497049.279   117147901.109         -59.736          29.000  
C22  23256098.001   121100636.798        2917.980          36.000  
C29  24670334.445   128464955.135       -2382.852          34.000  
C35  21629965.249   112632716.896         -53.079          34.000  
C38  36021081.587   187571154.700         268.524          36.000  
E24  26953441.683   141641449.5451       1246.804          15.000  
E26  25193539.138   132392835.987       -1522.623          38.000  
E31  24948812.259   131106714.0451      -1337.890          14.000  
E33  23618019.448   124113321.793         188.780          42.000  
G06  20824717.311   109434476.563        -642.227          29.000  
G09  22183237.027   116573758.723         584.895          36.000  
G11  21125189.698   111013547.176        1111.076          35.000  
G12  22396045.603   117691787.749        -202.833          26.000  
G17  23126882.655   121532394.293       -2816.664          35.000  
G19  20707754.782   108819898.380       -2068.267          36.000  
G20  21411592.825   112518678.6181       2177.087          27.000  
G25  23770121.250   124912637.0081       1441.109          19.000  
J03  39192880.096   205959789.280         339.724          27.000  
> 2025 04 09 08 12 43.9995701  0 19                     
C10  36092864.717   187944901.976        -175.091          33.000  
C19  22497047.705   117147946.868         -54.503          32.000  
C22  23255534.316   121097707.796        2917.097          38.000  
C29  24670785.258   128467323.447       -2380.710          37.000  
C35  21629975.967   112632756.576         -53.577          34.000  
C38  36021028.149   187570874.576         267.883          36.000  
E24  26953194.579   141640191.3291       1242.292          15.000  
E26  25193834.659   132394345.375       -1520.959          39.000  
E31  24949073.004   131108040.690       -1341.061          23.000  
E33  23617982.798   124113120.823         188.521          42.000  
G06  20824840.151   109435105.601        -643.563          30.000  
G09  22183122.731   116573162.220         584.640          36.000  
G11  21124976.471   111012423.083        1111.911          36.000  
G12  22396086.300   117691979.730        -208.178          24.000  
G17  23127416.810   121535197.562       -2819.564          37.000  
G19  20708146.536   108821953.508       -2068.141          36.000  
G20  21411187.431   112516488.414        2176.192          24.000  
G25  23769842.968   124911184.041        1440.539          26.000  
J03  39192814.966   205959437.188         338.613          24.000  
> 2025 04 09 08 12 44.9995091  0 19                     
C10  36092925.200   187945214.089        -172.052          34.000  
C19  22497077.610   117148137.979         -51.166          33.000  
C22  23255000.611   121094930.263        2919.418          38.000  
C29  24671271.147   128469843.029       -2379.906          38.000  
C35  21630011.867   112632949.189         -50.783          33.000  
C38  36021003.790   187570745.487         270.461          37.000  
E24  26952972.658   141638827.330        1237.915          20.000  
E26  25194157.760   132396005.318       -1520.738          40.000  
E31  24949269.593   131109522.668       -1343.978          23.000  
E33  23617975.528   124113071.021         190.943          42.000  
G06  20824990.871   109435888.708        -641.983          29.000  
G09  22183036.316   116572718.401         587.439          35.000  
G11  21124793.522   111011451.949        1114.485          36.000  
G12  22396155.776   117692592.070        -210.139          23.000  
G17  23127982.743   121538158.191       -2818.253          37.000  
G19  20708567.669   108824160.902       -2065.700          35.000  
G20  21410811.416   112514453.540        2175.084          21.000  
G25  23769599.461   124909884.024        1442.308          26.000  
J03  39192782.214   205959245.615         332.580          21.000  
> 2025 04 09 08 12 45.9994480  0 19                     
C10  36092956.604   187945370.972        -170.264          33.000  
C19  22497084.430   117148175.246         -50.770          35.000  
C22  23254439.924   121091998.962        2917.366          37.000  
C29  24671727.056   128472209.255       -2380.212          38.000  
C35  21630018.687   112632984.905         -49.316          32.000  
C38  36020950.352   187570462.348         269.756          36.000  
E24  26952671.591   141637245.316        1231.274          33.000  
E26  25194444.886   132397511.781       -1519.517          40.000  
E31  24949532.136   131110853.3051      -1348.058          18.000  
E33  23617936.480   124112865.829         192.313          41.000  
G06  20825109.514   109436515.484        -641.789          39.000  
G09  22182923.219   116572119.872         584.524          36.000  
G11  21124580.595   111010323.808        1116.156          36.000  
G12  22396195.274   117692788.106        -197.429          24.000  
G17  23128516.898   121540961.638       -2816.752          37.000  
G19  20708959.123   108826211.475       -2065.763          34.000  
G20  21410401.825   112512265.2311       2175.077          19.000  
G25  23769323.577   124908429.155        1441.908          22.000  
J03  39192718.883   205958900.629         332.035          22.000  
> 2025 04 09 08 12 47.0003869  0 19                     
C10  36093007.756   187945621.399        -169.830          33.000  
C19  22497113.098   117148307.723         -55.616          34.000  
C22  23253894.489   121089160.444        2917.221          38.000  
C29  24672201.216   128474672.665       -2381.468          38.000  
C35  21630045.256   112633115.828         -51.006          32.000  
C38  36020916.064   187570272.798         272.497          37.000  
E24  26952460.725   141636093.679        1231.670          35.000  
E26  25194753.860   132399115.471       -1521.005          41.000  
E31  24949816.826   131112283.8601      -1345.045          15.000  
E33  23617916.282   124112755.120         192.412          41.000  
G06  20825244.308   109437238.587        -642.919          42.000  
G09  22182830.471   116571619.853         578.407          34.000  
G11  21124385.018   111009289.359        1114.988          38.000  
G12  22396245.827   117693074.149        -210.337          28.000  
G17  23129070.503   121543862.432       -2819.608          37.000  
G19  20709371.825   108828362.850       -2071.564          34.000  
G20  21410010.783   112510166.7201       2177.139          18.000  
G25  23769066.842   124907067.0641       1441.980          19.000  
J03  39192668.105   205958649.922         332.256          25.000  
> 2025 04 09 08 12 48.0003258  0 19                     
C10  36093036.761   187945777.182        -169.658          32.000  
C19  22497128.912   117148354.100         -61.801          32.000  
C22  23253335.601   121086232.348        2913.887          37.000  
C29  24672660.423   128477044.791       -2391.831          37.000  
C35  21630054.175   112633152.324         -51.833          32.000  
C38  36020861.726   187569986.487         274.210          37.000  
E24  26952222.914   141634841.974        1239.952          34.000  
E26  25195043.384   132400624.257       -1522.865          40.000  
E31  24950076.072   131113616.1381      -1346.703          14.000  
E33  23617876.934   124112546.248         195.962          42.000  
G06  20825365.050   109437868.157        -640.773          41.000  
G09  22182720.372   116571029.661         575.339          34.000  
G11  21124171.191   111008157.682        1123.796          38.000  
G12  22396286.224   117693270.761        -196.929          28.000  
G17  23129605.557   121546671.421       -2827.688          37.000  
G19  20709764.778   108830421.939       -2075.293          34.000  
G20  21409599.093   112507976.6081       2176.603          20.000  
G25  23768789.459   124905612.543        1441.809          22.000  
J03  39192604.475   205958303.293         335.458          25.000  
> 2025 04 09 08 12 49.0002648  0 19                     
C10  36093101.778   187946089.702        -171.377          32.000  
C19  22497179.239   117148559.635         -66.609          32.000  
C22  23252806.729   121083464.334        2907.084          33.000  
C29  24673158.340   128479584.812       -2402.306          37.000  
C35  21630091.612   112633346.576         -52.056          33.000  
C38  36020837.106   187569856.297         271.822          37.000  
E24  26952015.720   141633736.807        1246.698          31.000  
E26  25195365.324   132402291.761       -1526.640          40.000  
E31  24950361.437   131115106.5071      -1348.849           8.000  
E33  23617870.601   124112491.125         198.146          43.000  
G06  20825513.709   109438650.869        -641.104          42.000  
G09  22182641.489   116570600.709         570.830          33.000  
G11  21123984.382   111007176.636        1124.684          38.000  
G12  22396352.740   117693611.184        -197.936          33.000  
G17  23130173.327   121549647.467       -2839.411          35.000  
G19  20710188.048   108832643.247       -2080.863          35.000  
G20  21409217.719   112505942.8451       2176.937          19.000  
G25  23768539.395   124904313.434        1443.308          23.000  
J03  39192568.162   205958107.426         338.505          29.000  
> 2025 04 09 08 12 50.0002037  0 19                     
C10  36093132.282   187946244.933        -170.291          33.000  
C19  22497193.854   117148610.295         -64.778          28.000  
C22  23252249.940   121080542.788        2908.217          32.000  
C29  24673610.652   128481968.840       -2398.459          37.000  
C35  21630099.931   112633384.305         -52.656          32.000  
C38  36020783.668   187569569.189         273.798          36.000  
E24  26951774.912   141632469.659        1249.287          28.000  
E26  25195650.352   132403805.151       -1526.813          40.000  
E31  24950617.085   131116441.1361      -1350.735           8.000  
E33  23617829.754   124112277.619         198.929          43.000  
G06  20825635.050   109439276.828        -642.273          42.000  
G09  22182528.393   116570015.830         571.265          34.000  
G11  21123769.656   111006037.863        1124.543          38.000  
G12  22396389.839   117693793.805        -201.853          29.000  
G17  23130713.778   121552470.801       -2837.620          33.000  
G19  20710582.799   108834708.074       -2080.654          35.000  
G20  21408807.229   112504041.2101       2179.650          19.000  
G25  23768261.413   124902855.147        1444.760          21.000  
J03  39192500.634   205957756.952         336.813          32.000  
> 2025 04 09 08 12 51.0001426  0 19                     
C10  36093162.524   187946396.830        -169.426          33.000  
C19  22497202.511   117148656.975         -63.366          27.000  
C22  23251691.689   121077619.597        2907.442          30.000  
C29  24674068.698   128484352.229       -2398.796          36.000  
C35  21630109.487   112633420.680         -52.279          33.000  
C38  36020730.567   187569280.953         272.714          35.000  
E24  26951540.737   141631201.532        1250.393          28.000  
E26  25195936.616   132405314.730       -1527.701          40.000  
E31  24950874.869   131117774.5801      -1352.542           8.000  
E33  23617789.844   124112062.535         199.495          43.000  
G06  20825754.330   109439901.921        -640.815          43.000  
G09  22182416.233   116569428.963         570.561          36.000  
G11  21123554.068   111004897.174        1125.488          39.000  
G12  22396421.280   117693976.877        -196.756          27.000  
G17  23131251.568   121555291.109       -2835.872          33.000  
G19  20710976.689   108836773.567       -2082.418          34.000  
G20  21408398.274   112501846.247        2179.719          21.000  
G25  23767986.166   124901393.686        1446.872          21.000  
J03  39192432.544   205957402.406         340.237          32.000  
> 2025 04 09 08 12 52.0000816  0 17                     
C10  36093223.794   187946711.168        -170.901          32.000  
C19  22497240.697   117148863.847         -61.794          27.000  
C22  23251159.370   121074856.584        2910.298          32.000  
C29  24674555.973   128486893.604       -2399.716          37.000  
C35  21630149.172   112633615.660         -52.269          34.000  
C38  36020705.797   187569152.685         273.924          34.000  
E24  26951331.594   141630095.227        1248.832          27.000  
E26  25196264.701   132407264.667       -1528.639          41.000  
E33  23617780.363   124112273.063         198.937          43.000  
G06  20825905.238   109440690.097        -643.671          43.000  
G09  22182336.600   116569004.423         571.065          35.000  
G11  21123368.309   111003918.415        1122.937          39.000  
G12  22396488.546   117694317.312        -195.136          24.000  
G17  23131821.885   121558543.630       -2837.856          31.000  
G19  20711403.106   108838999.608       -2082.468          31.000  
G20  21408018.849   112499812.1851       2180.010          20.000  
G25  23767741.048   124900091.752        1448.396          21.000  
> 2025 04 09 08 12 53.0000205  0 18                     
C10  36093257.708   187946866.212        -170.840          29.000  
C19  22497235.938   117148908.548         -64.381          33.000  
C22  23250596.397   121071929.892        2913.389          36.000  
C29  24675014.093   128489275.988       -2396.871          36.000  
C35  21630159.102   112633913.739         -56.397          37.000  
C38  36020650.373   187568862.305         273.745          33.000  
E24  26951094.496   141628830.702        1245.671          26.000  
E26  25196551.940   132408776.946       -1529.264          40.000  
E33  23617741.428   124112060.761         196.755          43.000  
G06  20826026.392   109441317.371        -647.747          43.000  
G09  22182223.616   116568419.255         567.265          36.000  
G11  21123152.796   111002781.002        1119.080          38.000  
G12  22396525.158   117694497.854        -198.860          25.000  
G17  23132360.050   121561364.674       -2835.324          29.000  
G19  20711799.769   108841066.167       -2081.715          31.000  
G20  21407604.874   112497616.6531       2180.544          20.000  
G25  23767468.274   124898627.469        1449.282          20.000  
J03  39192328.366   205956854.8661        336.613          32.000  
> 2025 04 09 08 12 53.9999594  0 18                     
C10  36093291.884   187947023.968        -170.676          28.000  
C19  22497238.936   117148961.409         -68.886          39.000  
C22  23250033.687   121069002.900        2914.674          35.000  
C29  24675472.176   128491659.592       -2401.784          39.000  
C35  21630168.696   112633959.023         -58.609          39.000  
C38  36020595.810   187568576.068         274.709          33.000  
E24  26950857.360   141627573.994        1242.025          28.000  
E26  25196839.141   132410296.744       -1534.437          40.000  
E33  23617702.455   124111854.525         194.030          42.000  
G06  20826148.707   109441953.046        -649.596          44.000  
G09  22182113.892   116567843.082         558.684          40.000  
G11  21122938.444   111001648.104        1121.063          37.000  
G12  22396558.435   117694686.499        -202.791          27.000  
G17  23132897.278   121564183.568       -2833.963          34.000  
G19  20712196.095   108843133.278       -2080.697          32.000  
G20  21407187.562   112495423.7391       2180.837          20.000  
G25  23767190.666   124897429.448        1449.559          20.000  
J03  39192263.610   205956507.045         333.832          32.000  
> 2025 04 09 08 12 54.9998984  0 18                     
C10  36093357.089   187947333.803        -170.041          24.000  
C19  22497279.557   117149172.301         -71.289          43.000  
C22  23249504.103   121066228.337        2915.565          35.000  
C29  24675963.086   128494205.934       -2409.326          36.000  
C35  21630208.418   112634157.109         -58.838          42.000  
C38  36020574.075   187568442.482         275.218          29.000  
E24  26950642.858   141626472.665        1246.574          26.000  
E26  25197158.570   132411979.340       -1540.606          37.000  
E33  23617695.410   124111802.287         195.710          39.000  
G06  20826300.252   109442744.279        -651.075          43.000  
G09  22182034.897   116567427.896         554.223          40.000  
G11  21122753.622   111000667.703        1123.945          36.000  
G12  22396623.940   117695028.779        -199.163          26.000  
G17  23133464.336   121567161.191       -2840.103          37.000  
G19  20712615.355   108845358.079       -2085.934          37.000  
G20  21406632.796   112492613.962        2195.836          28.000  
G25  23766946.485   124896122.389        1424.851          20.000  
J03  39192225.387   205956316.260         332.607          35.000  
> 2025 04 09 08 12 55.9998373  0 18                     
C10  36093387.930   187947488.787        -166.274          25.000  
C19  22497291.811   117149229.832         -76.036          42.000  
C22  23248943.754   121063298.857        2915.544          33.000  
C29  24676426.228   128496604.758       -2416.970          36.000  
C35  21630217.974   112634200.607         -59.415          43.000  
C38  36020523.073   187568153.065         275.953          26.000  
E24  26950403.886   141625207.197        1252.758          28.000  
E26  25197452.329   132413510.184       -1545.686          36.000  
E33  23617655.500   124111589.973         197.113          37.000  
G06  20826423.130   109443380.748        -652.530          42.000  
G09  22181927.833   116566862.568         548.098          38.000  
G11  21122539.233   110999527.860        1129.086          34.000  
G12  22396660.777   117695212.021        -195.531          22.000  
G17  23134005.724   121569988.490       -2844.895          34.000  
G19  20713007.746   108847432.249       -2088.411          39.000  
G20  21406225.041   112490403.633        2192.917          26.000  
G25  23766672.138   124894681.9711       1455.258          16.000  
J03  39192154.898   205955971.093         330.267          41.000  
> 2025 04 09 08 12 56.9997763  0 18                     
C10  36093441.593   187947797.124        -162.693          30.000  
C19  22497335.281   117149449.957         -78.673          42.000  
C22  23248418.517   121060525.566        2920.947          33.000  
C29  24676918.487   128499164.256       -2416.735          34.000  
C35  21630258.446   112634404.310         -62.171          43.000  
C38  36020493.993   187568017.393         280.230          31.000  
E24  26950198.828   141624094.407        1259.071          23.000  
E26  25197777.604   132415203.166       -1549.635          32.000  
E33  23617646.206   124111538.473         196.130          34.000  
G06  20826576.024   109444178.570        -655.423          41.000  
G09  22181852.286   116566460.585         546.166          36.000  
G11  21122353.362   110998543.659        1129.364          36.000  
G12  22396729.429   117695550.032        -192.249          21.000  
G17  23134572.931   121572976.662       -2843.167          35.000  
G19  20713433.451   108849663.859       -2088.829          42.000  
G20  21405849.701   112488350.905        2200.913          29.000  
G25  23766417.614   124893371.771        1455.449          22.000  
J03  39192118.623   205955786.964         327.332          41.000  
> 2025 04 09 08 12 57.9997152  0 18                     
C10  36093467.975   187947944.420        -159.484          31.000  
C19  22497347.873   117149516.427         -81.717          43.000  
C22  23247854.308   121057591.050        2923.992          35.000  
C29  24677380.467   128501566.423       -2416.366          34.000  
C35  21630268.939   112634453.721         -63.869          43.000  
C38  36020437.632   187567724.057         282.120          32.000  
E24  26949962.592   141622822.8051       1250.919          19.000  
E26  25198074.099   132416740.792       -1553.486          30.000  
E33  23617609.332   124111330.840         195.404          33.000  
G06  20826699.838   109444823.488        -659.088          39.000  
G09  22181748.857   116565905.440         539.172          36.000  
G11  21122135.712   110997402.287        1129.280          36.000  
G12  22396765.704   117695726.671        -190.700          20.000  
G17  23135119.752   121575806.059       -2843.941          36.000  
G19  20713829.177   108851739.506       -2089.583          43.000  
G20  21405437.187   112486133.041        2205.477          32.000  
G25  23766137.308   124891903.853        1454.490          23.000  
J03  39192054.468   205955447.504         326.524          42.000  
> 2025 04 09 08 12 58.9996541  0 18                     
C10  36093495.518   187948086.565        -157.638          32.000  
C19  22497362.825   117149585.238         -85.572          43.000  
C22  23247290.061   121054653.111        2924.051          35.000  
C29  24677845.708   128503970.089       -2418.803          34.000  
C35  21630281.193   112634504.592         -67.469          43.000  
C38  36020380.934   187567426.935         283.745          32.000  
E24  26949725.119   141621557.2171       1249.785          14.000  
E26  25198368.458   132418280.108       -1558.419          31.000  
E33  23617572.420   124111122.731         193.433          32.000  
G06  20826823.915   109445469.471        -666.140          39.000  
G09  22181645.991   116565355.758         531.626          36.000  
G11  21121919.824   110996260.468        1126.062          36.000  
G12  22396801.042   117695901.4291       -188.692          19.000  
G17  23135655.744   121578635.144       -2844.347          34.000  
G19  20714224.566   108853813.670       -2091.544          42.000  
G20  21405027.033   112484175.428        2209.185          34.000  
G25  23765788.012   124890058.7451       1453.438          17.000  
J03  39191990.575   205955108.804         322.016          41.000  
> 2025 04 09 08 12 59.9995931  0 18                     
C10  36093554.015   187948386.297        -157.518          32.000  
C19  22497408.131   117149812.435         -87.058          43.000  
C22  23246753.770   121051869.947        2927.744          34.000  
C29  24678339.204   128506534.544       -2424.615          33.000  
C35  21630321.702   112634713.001         -67.160          43.000  
C38  36020353.990   187567283.831         286.972          32.000  
E24  26949517.999   141620450.1511       1249.297          14.000  
E26  25198695.868   132419983.668       -1561.808          30.000  
E33  23617559.566   124111074.681         191.303          32.000  
G06  20826978.645   109446278.707        -665.515          39.000  
G09  22181573.779   116564968.470         532.486          35.000  
G11  21121735.789   110995278.875        1123.703          30.000  
G12  22396864.336   117696232.0211       -186.961          11.000  
G17  23136226.286   121581620.912       -2845.869          34.000  
G19  20714651.807   108856045.982       -2090.416          42.000  
G20  21404642.437   112482107.920        2213.200          34.000  
G25  23765544.319   124888749.6011       1415.993          13.000  
J03  39191957.035   205954928.682         323.441          42.000  
> 2025 04 09 08 13 00.9995320  0 16                     
C10  36093582.683   187948528.756        -158.108          32.000  
C19  22497423.008   117149885.737         -91.052          43.000  
C22  23246190.947   121048929.582        2926.098          35.000  
C29  24678810.365   128508945.082       -2426.301          34.000  
C35  21630332.682   112634766.441         -68.909          44.000  
C38  36020297.517   187566982.873         285.643          32.000  
E24  26949283.449   141619185.3431       1248.933           7.000  
E26  25198996.748   132421534.395       -1568.155          30.000  
E33  23617521.080   124110870.913         187.362          28.000  
G06  20827103.546   109446929.863        -667.672          39.000  
G09  22181471.137   116564422.673         529.046          34.000  
G11  21121521.625   110994142.041        1121.673          25.000  
G17  23136763.702   121584451.976       -2845.002          36.000  
G19  20715048.320   108858122.961       -2091.487          42.000  
G20  21404223.814   112479879.560        2214.997          34.000  
J03  39191894.266   205954593.035         320.560          41.000  
> 2025 04 09 08 13 01.9994709  0 16                     
C10  36093610.601   187948670.647        -156.542          31.000  
C19  22497445.230   117149959.127         -89.650          45.000  
C22  23245632.471   121045985.094        2932.285          36.000  
C29  24679273.582   128511355.259       -2427.591          35.000  
C35  21630344.112   112634817.169         -68.511          43.000  
C38  36020241.793   187566682.489         285.056          32.000  
E24  26949043.653   141618180.2931       1248.603           4.000  
E26  25199291.481   132423087.001       -1569.967          31.000  
E33  23617480.946   124110669.598         184.940          23.000  
G06  20827229.197   109447580.750        -669.084          39.000  
G09  22181370.144   116563881.360         525.789          33.000  
G11  21121310.009   110993004.6331       1122.569          19.000  
G17  23137303.665   121587279.281       -2844.396          34.000  
G19  20715446.782   108860198.443       -2089.631          42.000  
G20  21403804.142   112477647.896        2216.413          33.000  
J03  39191832.247   205954256.112         322.044          43.000  
> 2025 04 09 08 13 03.0004098  0 16                     
C10  36093656.282   187948905.808        -157.760          32.000  
C19  22497477.720   117150130.045         -90.831          44.000  
C22  23245080.366   121043132.537        2934.892          35.000  
C29  24679755.761   128513865.676       -2424.920          33.000  
C35  21630374.503   112634968.502         -70.173          43.000  
C38  36020201.134   187566478.087         287.090          32.000  
E26  25199607.874   132424739.810       -1569.996          31.000  
E31  24954063.461   131134488.7511      -1301.041           4.000  
E33  23617463.370   124110567.0011        185.670          18.000  
G06  20827373.509   109448332.662        -668.827          39.000  
G09  22181287.214   116563437.718         525.500          34.000  
G11  21121116.156   110991963.6581       1122.818          16.000  
G17  23137861.692   121590206.920       -2843.020          35.000  
G19  20715862.407   108862371.498       -2092.091          42.000  
G20  21403400.434   112475511.497        2217.545          34.000  
J03  39191787.090   205954017.133         320.565          41.000  
> 2025 04 09 08 13 04.0003487  0 17                     
C10  36093684.949   187949045.883        -155.031          32.000  
C19  22497491.998   117150207.737         -92.386          43.000  
C22  23244509.149   121040183.280        2936.514          35.000  
C29  24680223.324   128516276.690       -2429.449          36.000  
C35  21630386.682   112635023.951         -70.628          43.000  
C38  36020142.861   187566176.784         287.288          31.000  
E26  25199908.454   132426296.253       -1572.801          32.000  
E31  24954240.526   131135419.292       -1294.814          32.000  
E33  23617426.084   124110364.0591        188.755          15.000  
G06  20827499.010   109448985.345        -670.902          39.000  
G09  22181186.971   116562897.169         523.320          35.000  
G11  21120899.293   110990826.5821       1122.978          19.000  
G12  22396953.599   117696784.6261       -184.337          23.000  
G17  23138398.807   121593035.198       -2842.567          36.000  
G19  20716256.222   108864449.014       -2092.356          41.000  
G20  21402977.614   112473279.936        2218.081          34.000  
J03  39191724.022   205953682.039         320.318          40.000  
> 2025 04 09 08 13 05.0002877  0 18                     
C10  36093742.697   187949343.166        -154.452          32.000  
C19  22497537.454   117150440.365         -93.808          43.000  
C22  23243979.603   121037388.868        2937.163          36.000  
C29  24680714.572   128518847.163       -2429.547          35.000  
C35  21630428.541   112635235.323         -71.827          43.000  
C38  36020114.868   187566030.398         289.920          31.000  
E26  25200234.216   132428013.324       -1574.811          30.000  
E31  24954515.024   131136856.979       -1294.833          37.000  
E33  23617414.579   124110317.8751        189.717          14.000  
G06  20827655.389   109450067.256        -673.037          39.000  
G09  22181115.808   116562520.476         518.043          36.000  
G11  21120708.813   110989844.398        1125.907          35.000  
G12  22397022.439   117697119.482        -212.157          22.000  
G17  23138965.003   121596019.875       -2842.626          36.000  
G19  20716682.114   108866681.112       -2092.827          42.000  
G20  21402584.774   112471203.324        2220.739          34.000  
G25  23764238.835   124881917.5431       1427.267          31.000  
J03  39191690.632   205953504.984         319.495          39.000  
> 2025 04 09 08 13 06.0002266  0 18                     
C10  36093771.589   187949483.997        -153.737          32.000  
C19  22497554.954   117150521.114         -95.530          43.000  
C22  23243411.608   121034441.039        2935.589          36.000  
C29  24681176.365   128521262.945       -2430.610          34.000  
C35  21630440.945   112635294.749         -72.181          43.000  
C38  36020060.119   187565729.076         288.706          32.000  
E26  25200529.624   132429577.089       -1577.211          29.000  
E31  24954759.767   131138138.920       -1294.413          37.000  
E33  23617383.513   124110114.926         189.193          29.000  
G06  20827781.115   109450726.179        -673.029          39.000  
G09  22181016.989   116561991.145         515.789          37.000  
G11  21120491.276   110988706.233        1125.665          37.000  
G12  22397067.520   117697328.005        -229.010          24.000  
G17  23139504.442   121598850.057       -2842.662          36.000  
G19  20717078.552   108868761.951       -2092.360          42.000  
G20  21402162.779   112468971.206        2219.355          34.000  
G25  23763965.836   124880473.807        1443.224          29.000  
J03  39191629.287   205953173.081         319.205          41.000  
> 2025 04 09 08 13 07.0001655  0 18                     
C10  36093800.220   187949888.834        -153.785          33.000  
C19  22497569.794   117150601.345         -98.410          42.000  
C22  23242845.151   121031489.502        2936.468          36.000  
C29  24681638.495   128523676.607       -2431.261          33.000  
C35  21630453.386   112635350.462         -74.395          43.000  
C38  36020002.709   187565422.950         291.217          32.000  
E26  25200833.164   132431136.554       -1578.373          31.000  
E31  24955004.248   131139416.684       -1293.135          37.000  
E33  23617344.090   124109911.325         186.844          31.000  
G06  20827908.676   109451383.609        -677.036          39.000  
G09  22180916.708   116561460.300         512.418          35.000  
G11  21120274.376   110987564.349        1124.955          35.000  
G12  22397116.536   117697548.934        -246.029          24.000  
G17  23140043.019   121601676.617       -2846.759          35.000  
G19  20717475.328   108870837.313       -2094.553          42.000  
G20  21401738.722   112466734.399        2222.322          33.000  
G25  23763687.479   124879010.926        1446.041          31.000  
J03  39191566.481   205952837.983         316.874          41.000  
> 2025 04 09 08 13 08.0001045  0 18                     
C10  36093859.279   187950184.287        -152.047          33.000  
C19  22497617.161   117150842.903         -99.418          43.000  
C22  23242306.124   121028694.770        2939.326          35.000  
C29  24682134.651   128526251.286       -2432.405          34.000  
C35  21630495.957   112635566.621         -74.037          44.000  
C38  36019978.126   187565275.239         291.739          32.000  
E26  25201161.736   132432862.372       -1582.041          30.000  
E31  24955277.658   131140850.971       -1290.833          37.000  
E33  23617338.994   124109868.943         186.769          32.000  
G06  20828066.367   109452206.288        -676.566          39.000  
G09  22180847.456   116561093.940         511.110          36.000  
G11  21120090.003   110986585.062        1123.830          28.000  
G12  22397192.684   117697946.112        -259.654          23.000  
G17  23140612.925   121604666.370       -2845.459          35.000  
G19  20717904.031   108873075.207       -2093.753          43.000  
G20  21401344.495   112464657.307        2223.900          33.000  
G25  23763444.647   124877710.073        1444.431          24.000  
J03  39191535.302   205952666.588         317.292          41.000  
> 2025 04 09 08 13 09.0000434  0 18                     
C10  36093885.585   187950322.097        -153.337          33.000  
C19  22497633.875   117150927.262         -99.871          42.000  
C22  23241738.842   121025742.096        2937.325          35.000  
C29  24682609.448   128528670.825       -2435.157          34.000  
C35  21630509.372   112635627.611         -75.268          43.000  
C38  36019919.591   187564970.897         287.810          32.000  
E26  25201459.655   132434430.999       -1583.735          30.000  
E31  24955524.612   131142127.696       -1291.071          37.000  
E33  23617302.045   124109668.491         185.262          30.000  
G06  20828193.104   109452867.140        -677.515          39.000  
G09  22180748.450   116560569.752         509.502          36.000  
G11  21119873.478   110985445.708        1126.247          36.000  
G12  22397242.974   117698195.8931       -273.346          19.000  
G17  23141154.575   121607495.631       -2844.899          35.000  
G19  20718299.982   108875154.700       -2095.178          42.000  
G20  21400920.214   112462418.892        2224.386          33.000  
G25  23763169.363   124876250.4031       1444.156          17.000  
J03  39191474.369   205952335.265         317.193          41.000  
> 2025 04 09 08 13 09.9999823  0 18                     
C10  36093913.841   187950461.393        -153.914          32.000  
C19  22497653.736   117151013.637        -100.613          43.000  
C22  23241175.307   121022791.699        2938.722          35.000  
C29  24683073.601   128531090.772       -2433.807          33.000  
C35  21630522.638   112635687.409         -74.685          44.000  
C38  36019863.305   187564669.382         289.582          33.000  
E26  25201760.122   132435999.632       -1584.606          30.000  
E31  24955765.720   131143405.207       -1290.322          36.000  
E33  23617264.346   124109470.474         184.376          31.000  
G06  20828320.591   109453530.308        -677.978          39.000  
G09  22180650.193   116560048.366         506.773          37.000  
G11  21119654.405   110984305.978        1126.666          37.000  
G12  22397295.812   117698462.8491       -286.725          18.000  
G17  23141694.576   121610325.587       -2843.925          36.000  
G19  20718696.982   108877234.677       -2094.686          43.000  
G20  21400495.783   112460180.671        2224.815          33.000  
G25  23762893.029   124874791.7261       1444.000          14.000  
J03  39191412.387   205952004.708         317.048          42.000  
> 2025 04 09 08 13 10.9999213  0 17                     
C10  36093972.076   187950753.765        -152.072          32.000  
C19  22497699.979   117151254.509        -100.927          43.000  
C22  23240638.753   121019993.490        2938.709          35.000  
C29  24683569.233   128533664.295       -2433.180          35.000  
C35  21630564.984   112635903.875         -75.899          44.000  
C38  36019836.099   187564520.855         290.329          32.000  
E26  25202088.769   132437728.619       -1585.616          31.000  
E31  24956041.604   131144838.080       -1291.376          37.000  
E33  23617259.324   124109427.472         185.357          31.000  
G06  20828478.357   109454350.873        -678.750          39.000  
G09  22180581.915   116559682.592         508.235          37.000  
G11  21119467.110   110983322.616        1124.577          36.000  
G12  22397380.429   117698896.4671       -300.282          16.000  
G17  23142262.757   121613312.420       -2843.239          36.000  
G19  20719123.662   108879471.901       -2096.834          42.000  
G20  21400101.331   112458098.586        2224.725          33.000  
J03  39191380.684   205952095.285         316.669          42.000  
> 2025 04 09 08 13 11.9998602  0 17                     
C10  36093999.844   187950892.408        -153.609          32.000  
C19  22497717.854   117151341.738        -100.108          42.000  
C22  23240071.134   121017042.408        2939.475          35.000  
C29  24684032.300   128536084.540       -2433.160          33.000  
C35  21630578.062   112635964.304         -75.310          44.000  
C38  36019776.328   187564218.077         289.058          32.000  
E26  25202389.649   132439296.368       -1583.209          31.000  
E31  24956280.726   131146117.225       -1291.521          36.000  
E33  23617223.237   124109228.445         186.198          31.000  
G06  20828605.057   109455013.375        -676.764          40.000  
G09  22180483.171   116559159.399         510.554          37.000  
G11  21119250.247   110982184.932        1124.878          37.000  
G12  22397291.278   117698559.733        -179.878          35.000  
G17  23142802.571   121616140.607       -2844.524          35.000  
G19  20719520.474   108881553.704       -2094.566          42.000  
G20  21399676.113   112455861.121        2223.266          33.000  
J03  39191318.815   205951764.440         318.647          42.000  
> 2025 04 09 08 13 12.9997992  0 17                     
C10  36094055.718   187951188.875        -152.437          32.000  
C19  22497765.933   117151583.746         -99.094          42.000  
C22  23239535.517   121014247.203        2938.924          35.000  
C29  24684526.470   128538659.705       -2431.767          35.000  
C35  21630621.045   112636182.569         -74.580          44.000  
C38  36019751.557   187564072.754         290.478          32.000  
E26  25202718.933   132441020.253       -1580.374          32.000  
E31  24956558.447   131147556.046       -1293.043          36.000  
E33  23617215.854   124109187.563         186.598          31.000  
G06  20828762.860   109455835.093        -676.547          40.000  
G09  22180414.631   116558794.097         511.151          36.000  
G11  21119066.287   110981205.296        1124.823          37.000  
G12  22397360.043   117698881.941        -177.231          36.000  
G17  23143372.289   121619130.536       -2843.350          36.000  
G19  20719947.791   108884060.431       -2095.445          42.000  
G20  21399281.398   112453785.556        2220.059          34.000  
J03  39191286.849   205951590.492         320.828          41.000  
> 2025 04 09 08 13 13.9997381  0 18                     
C10  36094082.287   187951328.679        -155.616          32.000  
C19  22497783.209   117151668.617        -100.898          42.000  
C22  23238970.296   121011297.115        2932.794          35.000  
C29  24684991.336   128541076.693       -2433.405          35.000  
C35  21630634.124   112636242.737         -74.576          44.000  
C38  36019696.883   187563769.181         289.014          32.000  
E26  25203014.716   132442584.866       -1580.111          31.000  
E31  24956805.063   131148835.938       -1295.284          37.000  
E33  23617180.066   124108986.859         185.479          31.000  
G06  20828889.860   109456496.532        -674.841          40.000  
G09  22180314.688   116558270.498         508.799          36.000  
G11  21118850.324   110980067.064        1124.013          37.000  
G12  22397394.406   117699046.351        -182.102          34.000  
G17  23143910.604   121621959.038       -2846.384          35.000  
G19  20720345.204   108886141.796       -2096.129          42.000  
G20  21398857.379   112451550.930        2220.392          33.000  
J02  37527822.629   197210038.0361       -174.514          37.000  
J03  39191224.680   205951257.264         319.618          41.000  
> 2025 04 09 08 13 14.9996770  0 19                     
C10  36094113.578   187951466.006        -153.082          32.000  
C19  22497801.009   117151752.521         -99.418          42.000  
C22  23238405.299   121008348.545        2935.597          35.000  
C29  24685454.328   128543493.029       -2430.835          35.000  
C35  21630646.827   112636302.053         -73.460          44.000  
C38  36019639.435   187563466.453         287.151          32.000  
E26  25203316.420   132444145.419       -1577.171          30.000  
E31  24957049.507   131150117.079       -1295.107          37.000  
E33  23617145.703   124108786.182         186.207          30.000  
G06  20829017.983   109457155.332        -675.373          39.000  
G09  22180216.168   116557745.584         512.326          36.000  
G11  21118633.986   110978928.072        1123.988          37.000  
G12  22397429.595   117699213.973        -181.458          34.000  
G17  23144449.743   121624788.823       -2846.138          35.000  
G19  20720742.241   108888221.609       -2095.769          42.000  
G20  21398434.485   112449316.546        2218.311          32.000  
G25  23761557.828   124867829.1631       1437.056          33.000  
J02  37527853.320   197210196.311        -175.878          37.000  
J03  39191162.735   205950922.466         321.044          41.000  
> 2025 04 09 08 13 15.9996160  0 19                     
C10  36094171.100   187951763.508        -156.584          32.000  
C19  22497848.938   117151995.164         -99.469          42.000  
C22  23237870.132   121005557.207        2930.831          35.000  
C29  24685948.648   128546064.490       -2430.677          35.000  
C35  21630689.660   112636517.865         -74.853          44.000  
C38  36019611.817   187563321.657         286.272          32.000  
E26  25203642.556   132445864.432       -1578.217          30.000  
E31  24957325.578   131151558.841       -1299.728          37.000  
E33  23617130.076   124108743.337         186.337          31.000  
G06  20829174.737   109457973.688        -674.607          40.000  
G09  22180146.879   116557375.864         515.312          36.000  
G11  21118448.677   110977948.447        1123.718          37.000  
G12  22397494.312   117699539.065        -183.960          35.000  
G17  23145019.611   121627778.238       -2847.672          35.000  
G19  20721169.708   108890462.266       -2098.585          42.000  
G20  21398043.218   112447244.688        2213.616          33.000  
G25  23761316.158   124866534.916        1437.900          33.000  
J02  37527915.040   197210516.724        -179.550          37.000  
J03  39191130.620   205950745.329         320.794          41.000  
> 2025 04 09 08 13 16.9995549  0 20                     
C10  36094199.281   187951908.067        -159.057          32.000  
C19  22497867.226   117152078.880         -96.824          42.000  
C22  23237307.722   121002618.885        2922.096          36.000  
C29  24686415.725   128548479.137       -2425.368          34.000  
C35  21630702.551   112636578.170         -73.004          44.000  
C38  36019553.357   187563023.729         284.466          32.000  
E24  26945656.485   141600380.5221       1247.212          11.000  
E26  25203942.948   132447422.007       -1570.541          31.000  
E31  24957571.408   131152851.621       -1304.391          37.000  
E33  23617100.097   124108543.984         188.117          32.000  
G06  20829300.950   109458631.540        -669.616          40.000  
G09  22180047.648   116556847.014         518.533          35.000  
G11  21118234.026   110976813.208        1122.210          37.000  
G12  22397529.388   117699711.029        -188.884          35.000  
G17  23145559.538   121630612.547       -2847.207          34.000  
G19  20721567.832   108892546.045       -2099.018          42.000  
G20  21397619.911   112445021.978        2208.114          33.000  
G25  23761042.448   124865082.390        1440.374          29.000  
J02  37527947.418   197210686.496        -184.480          37.000  
J03  39191067.963   205950411.187         322.947          41.000  
> 2025 04 09 08 13 17.9994938  0 20                     
C10  36094228.211   187952054.599        -162.310          32.000  
C19  22497883.265   117152160.913         -94.776          43.000  
C22  23236744.561   120999685.073        2919.321          36.000  
C29  24686880.253   128550889.745       -2424.763          34.000  
C35  21630714.693   112636635.639         -71.411          44.000  
C38  36019500.144   187562988.506         280.910          32.000  
E24  26945414.403   141599119.1811       1247.058          12.000  
E26  25204236.295   132448972.377       -1565.167          32.000  
E31  24957820.685   131154147.871       -1309.975          35.000  
E33  23617061.274   124108341.827         189.988          31.000  
G06  20829426.713   109459285.209        -666.415          39.000  
G09  22179946.168   116556313.451         521.969          36.000  
G11  21118019.225   110975677.510        1122.572          36.000  
G12  22397566.113   117699887.455        -193.250          34.000  
G17  23146101.113   121633446.427       -2848.444          36.000  
G19  20721965.807   108894632.050       -2099.201          43.000  
G20  21397198.253   112442804.155        2201.460          33.000  
G25  23760767.988   124863628.048        1439.581          23.000  
J02  37527981.744   197210857.377        -187.889          37.000  
J03  39191004.857   205950073.346         326.097          41.000  
> 2025 04 09 08 13 19.0004327  0 20                     
C10  36094278.389   187952294.284        -161.300          34.000  
C19  22497917.253   117152333.167         -91.592          43.000  
C22  23236199.651   120996843.802        2917.179          36.000  
C29  24687361.533   128553395.150       -2422.385          35.000  
C35  21630745.384   112636785.351         -67.754          44.000  
C38  36019461.583   187562785.829         283.675          35.000  
E24  26945189.071   141597950.6881       1247.351          11.000  
E26  25204552.689   132450615.222       -1559.067          31.000  
E31  24958084.615   131155543.411       -1313.816          34.000  
E33  23617040.401   124108230.140         193.279          31.000  
G06  20829570.126   109460030.424        -661.437          38.000  
G09  22179862.638   116555869.243         526.382          37.000  
G11  21117820.275   110974633.532        1125.136          35.000  
G12  22397620.487   117700161.681        -193.019          32.000  
G17  23146659.738   121636376.961       -2848.760          37.000  
G19  20722382.031   108896813.184       -2099.414          43.000  
G20  21396793.945   112440683.471        2198.079          33.000  
G25  23760512.077   124862266.6941       1440.250          19.000  
J02  37528034.620   197211128.322        -193.120          37.000  
J03  39190958.202   205949826.008         329.387          41.000  
> 2025 04 09 08 13 20.0003717  0 20                     
C10  36094336.436   187952599.136        -165.630          32.000  
C19  22497963.609   117152568.062         -93.089          44.000  
C22  23235667.707   120994073.444        2907.632          39.000  
C29  24687855.778   128555961.070       -2426.783          33.000  
C35  21630786.643   112636994.675         -68.095          43.000  
C38  36019435.689   187562646.800         278.463          35.000  
E24  26944971.310   141596845.0801       1250.010          20.000  
E26  25204875.453   132452310.694       -1556.893          33.000  
E31  24958367.807   131157004.880       -1316.913          30.000  
E33  23617032.194   124108179.376         195.192          30.000  
G06  20829724.107   109460832.870        -659.206          38.000  
G09  22179790.575   116555486.599         527.321          36.000  
G11  21117634.891   110973920.118        1126.929          36.000  
G12  22397686.329   117700497.222        -192.640          33.000  
G17  23147231.030   121639371.792       -2856.874          38.000  
G19  20722810.622   108899056.315       -2104.287          44.000  
G20  21396405.302   112438631.243        2193.635          29.000  
G25  23760267.934   124860969.1841       1440.812          17.000  
J02  37528101.061   197211468.537        -201.000          36.000  
J03  39190923.913   205949640.748         328.329          41.000  
> 2025 04 09 08 13 21.0003106  0 20                     
C10  36094366.865   187952750.555        -166.918          29.000  
C19  22497980.847   117152648.496         -95.349          43.000  
C22  23235110.543   120991158.503        2900.654          43.000  
C29  24688320.906   128558376.615       -2433.318          32.000  
C35  21630798.185   112637048.487         -67.209          42.000  
C38  36019381.876   187562356.570         277.607          36.000  
E24  26944719.934   141595580.0261       1253.587          18.000  
E26  25205168.800   132453850.768       -1555.087          34.000  
E31  24958614.985   131158310.493       -1318.500          29.000  
E33  23616991.572   124107969.827         198.735          30.000  
G06  20829848.071   109461478.049        -656.999          38.000  
G09  22179689.396   116554948.256         522.588          32.000  
G11  21117418.291   110972778.066        1131.575          36.000  
G12  22397721.255   117700675.034        -189.947          32.000  
G17  23147775.603   121642220.656       -2864.864          37.000  
G19  20723210.095   108901149.942       -2110.088          42.000  
G20  21395986.941   112436424.850        2192.622          35.000  
G25  23759996.472   124859515.2201       1441.151          16.000  
J02  37528138.385   197211660.511        -209.487          33.000  
J03  39190860.207   205949300.018         328.409          42.000  
> 2025 04 09 08 13 22.0002495  0 20                     
C10  36094396.807   187952902.528        -168.982          27.000  
C19  22497996.998   117152726.266         -94.661          42.000  
C22  23234552.891   120988245.410        2896.221          44.000  
C29  24688787.645   128560794.267       -2434.720          34.000  
C35  21630809.240   112637098.086         -67.469          43.000  
C38  36019326.976   187562064.234         276.361          34.000  
E24  26944474.066   141594307.621        1258.183          23.000  
E26  25205462.559   132455386.678       -1552.937          32.000  
E31  24958863.776   131159615.300       -1320.858          31.000  
E33  23616953.161   124107753.246         201.458          33.000  
G06  20829970.949   109462116.924        -654.962          36.000  
G09  22179589.527   116554409.761         522.617          35.000  
G11  21117201.503   110971630.980        1130.788          36.000  
G12  22397755.694   117700847.744        -190.401          35.000  
G17  23148319.689   121645069.878       -2865.868          36.000  
G19  20723609.981   108903245.236       -2113.441          40.000  
G20  21395569.293   112434218.438        2188.412          30.000  
G25  23759721.824   124858058.0351       1469.350          15.000  
J02  37528178.220   197211857.477        -216.620          37.000  
J03  39190796.014   205948956.418         327.393          42.000  
> 2025 04 09 08 13 23.0001885  0 20                     
C10  36094456.877   187953216.006        -170.070          26.000  
C19  22498043.878   117152964.608         -95.073          37.000  
C22  23234027.168   120985499.583        2884.691          42.000  
C29  24689284.514   128563373.720       -2436.885          32.000  
C35  21630850.424   112637308.367         -66.045          44.000  
C38  36019301.606   187561932.699         273.937          33.000  
E24  26944249.035   141593191.175        1263.614          28.000  
E26  25205784.948   132457082.944       -1550.448          31.000  
E31  24959146.892   131161082.260       -1327.399          27.000  
E33  23616943.081   124107695.256         203.983          36.000  
G06  20830124.255   109462914.008        -652.321          36.000  
G09  22179519.788   116554031.111         527.426          32.000  
G11  21117015.145   110970644.471        1134.376          34.000  
G12  22397820.561   117701184.807        -190.771          32.000  
G17  23148894.204   121648083.796       -2875.112          33.000  
G19  20724041.794   108905506.138       -2118.247          41.000  
G20  21395183.273   112432446.042        2183.698          37.000  
G25  23759472.809   124856734.9791       1468.445          16.000  
J02  37528247.885   197212222.877        -227.265          38.000  
J03  39190761.650   205948773.866         328.005          41.000  
> 2025 04 09 08 13 24.0001274  0 20                     
C10  36094490.154   187953371.591        -172.503          24.000  
C19  22498060.667   117153047.198         -95.771          38.000  
C22  23233471.952   120982607.241        2872.346          40.000  
C29  24689750.391   128565799.049       -2440.468          32.000  
C35  21630861.816   112637359.601         -64.115          41.000  
C38  36019248.543   187561645.172         272.885          29.000  
E24  26943995.710   141591908.066        1272.404          32.000  
E26  25206075.747   132458612.912       -1543.188          30.000  
E31  24959395.720   131162396.077       -1329.128          31.000  
E33  23616905.007   124107474.220         207.859          34.000  
G06  20830247.170   109463549.187        -645.556          39.000  
G09  22179421.756   116553484.273         540.142          31.000  
G11  21116798.395   110969495.183        1136.139          31.000  
G12  22397855.937   117701360.660        -191.723          32.000  
G17  23149441.325   121650949.108       -2883.493          31.000  
G19  20724444.416   108907611.667       -2123.654          38.000  
G20  21394764.163   112430254.301        2172.870          42.000  
G25  23759192.503   124855252.943        1467.906          20.000  
J02  37528292.554   197212441.956        -239.866          34.000  
J03  39190697.794   205948432.062         328.796          38.000  
> 2025 04 09 08 13 25.0000663  0 20                     
C10  36094521.932   187953531.262        -178.373          30.000  
C19  22498077.155   117153391.411         -88.527          37.000  
C22  23232919.435   120979725.097        2861.271          38.000  
C29  24690218.068   128568220.380       -2435.014          32.000  
C35  21630871.709   112637404.900         -59.503          38.000  
C38  36019193.981   187561360.150         264.893          34.000  
E24  26943747.482   141590348.975        1274.243          30.000  
E26  25206367.445   132460128.069       -1531.690          33.000  
E31  24959649.344   131163712.981       -1337.936          26.000  
E33  23616857.640   124107247.375         211.535          32.000  
G06  20830367.986   109464171.945        -635.715          40.000  
G09  22179325.223   116552918.556         545.169          35.000  
G11  21116580.146   110968341.086        1141.156          30.000  
G12  22397891.612   117701538.730        -198.458          38.000  
G17  23149990.245   121653817.916       -2887.750          30.000  
G19  20724847.337   108909718.675       -2123.373          36.000  
G20  21394349.250   112428070.464        2164.383          44.000  
G25  23758912.197   124853769.6811       1467.639          19.000  
J02  37528337.822   197212669.739        -249.932          31.000  
J03  39190633.639   205948084.316         336.247          36.000  
> 2025 04 09 08 13 26.0000053  0 20                     
C10  36094586.163   187953855.523        -180.404          36.000  
C19  22498123.698   117153622.880         -85.520          34.000  
C22  23232399.070   120977013.245        2857.446          38.000  
C29  24690719.695   128571056.704       -2428.211          28.000  
C35  21630912.556   112637608.225         -58.638          34.000  
C38  36019170.672   187561241.069         264.970          38.000  
E24  26943536.803   141589219.585        1274.129          31.000  
E26  25206688.598   132461793.947       -1521.155          29.000  
E31  24959937.220   131165200.113       -1347.195          20.000  
E33  23616849.920   124107180.785         213.455          33.000  
G06  20830517.358   109464953.638        -632.346          35.000  
G09  22179246.152   116552526.051         540.541          37.000  
G11  21116392.251   110967347.434        1140.338          26.000  
G12  22397959.440   117701887.092        -203.544          38.000  
G17  23150567.720   121656849.884       -2883.692          33.000  
G19  20725279.712   108911987.666       -2122.981          36.000  
G20  21393966.490   112426058.585        2157.290          43.000  
G25  23758663.445   124852449.8291       1466.461          18.000  
J02  37528414.344   197213070.033        -256.087          29.000  
J03  39190598.938   205947893.045         338.503          33.000  
> 2025 04 09 08 13 26.9999442  0 20                     
C10  36094619.740   187954022.675        -183.522          38.000  
C19  22498138.388   117153692.527         -84.240          32.000  
C22  23231849.250   120974143.763        2854.032          38.000  
C29  24691216.452   128573468.651       -2432.567          28.000  
C35  21630922.449   112637651.167         -56.980          32.000  
C38  36019120.906   187560963.200         263.375          40.000  
E24  26943294.271   141587929.376        1274.119          29.000  
E26  25206977.298   132463560.135       -1512.045          25.000  
E31  24960189.645   131166534.648       -1349.556          33.000  
E33  23616808.848   124106950.290         216.489          31.000  
G06  20830635.476   109465569.358        -630.694          31.000  
G09  22179138.827   116551968.630         544.506          35.000  
G11  21116174.901   110966193.706        1138.528          24.000  
G12  22397994.816   117702076.138        -203.450          37.000  
G17  23151115.741   121659718.627       -2885.050          30.000  
G19  20725682.334   108914097.344       -2127.773          37.000  
G20  21393556.074   112423888.928        2154.210          36.000  
G25  23758384.338   124850969.8621       1465.815          10.000  
J02  37528464.709   197213312.760        -259.923          25.000  
J03  39190533.283   205947540.037         339.450          31.000  
> 2025 04 09 08 13 27.9998831  0 19                     
C10  36094653.316   187954191.504        -184.789          38.000  
C19  22498155.776   117153761.138         -84.569          30.000  
C22  23231299.431   120971279.421        2847.017          39.000  
C29  24691694.321   128575884.670       -2431.951          29.000  
C35  21630931.143   112637693.273         -57.302          31.000  
C38  36019068.743   187560685.660         262.395          39.000  
E24  26943052.638   141586637.900        1278.706          24.000  
E26  25207257.004   132465059.028       -1517.937          24.000  
E31  24960445.068   131167871.309       -1351.603          38.000  
E33  23616765.678   124106717.516         218.644          31.000  
G06  20830754.794   109466182.328        -628.834          30.000  
G09  22179032.700   116551410.478         542.808          35.000  
G11  21115956.952   110965040.961        1138.425          22.000  
G12  22398031.990   117702262.763        -202.755          38.000  
G17  23151670.957   121662591.370       -2892.396          28.000  
G19  20726085.854   108916210.469       -2129.403          36.000  
G20  21393145.658   112421721.083        2154.590          31.000  
J02  37528512.676   197213558.145        -262.257          23.000  
J03  39190468.228   205947187.046         338.690          30.000  
> 2025 04 09 08 13 28.9998221  0 19                     
C10  36094718.334   187954516.982        -185.660          38.000  
C19  22498199.508   117153987.384         -86.664          29.000  
C22  23230781.952   120968575.443        2843.046          38.000  
C29  24692183.245   128578456.057       -2432.127          25.000  
C35  21630971.278   112637892.212         -58.428          30.000  
C38  36019046.820   187560565.326         260.751          39.000  
E24  26942836.150   141585498.1461       1282.885          18.000  
E26  25207585.239   132466718.855       -1517.520          24.000  
E31  24960731.333   131169367.901       -1354.899          39.000  
E33  23616749.152   124106639.505         219.675          31.000  
G06  20830904.053   109466953.468        -628.630          30.000  
G09  22178957.115   116551011.107         540.051          34.000  
G11  21115770.444   110964044.507        1137.894          21.000  
G12  22398099.106   117702606.063        -201.745          37.000  
G17  23152258.213   121665937.372       -2897.652          28.000  
G19  20726519.017   108918482.683       -2134.641          37.000  
G20  21392763.086   112419710.129        2150.841          38.000  
J02  37528592.084   197213964.369        -266.667          22.000  
J03  39190432.815   205946990.755         338.204          31.000  
> 2025 04 09 08 13 29.9997610  0 19                     
C10  36094751.723   187954687.945        -187.485          38.000  
C19  22498212.512   117154059.870         -86.033          28.000  
C22  23230235.243   120965720.283        2838.253          38.000  
C29  24692647.736   128580878.036       -2439.082          23.000  
C35  21630982.183   112638199.903         -55.928          29.000  
C38  36018994.769   187560290.085         259.043          39.000  
E24  26942591.032   141584197.4191       1287.228          15.000  
E26  25207869.255   132468219.556       -1515.132          26.000  
E31  24960988.068   131170708.715       -1355.940          39.000  
E33  23616707.294   124106404.214         220.268          31.000  
G06  20831023.183   109467566.059        -628.072          29.000  
G09  22178852.900   116550455.506         540.979          33.000  
G11  21115554.406   110962891.859        1138.107          21.000  
G12  22398136.393   117702793.359        -201.766          37.000  
G17  23152812.042   121668821.640       -2899.967          28.000  
G19  20726922.950   108920603.147       -2136.381          37.000  
G20  21392351.883   112417546.678        2148.027          39.000  
J02  37528642.561   197214216.538        -271.949          23.000  
J03  39190367.273   205946638.105         336.843          32.000  
> 2025 04 09 08 13 30.9996999  0 19                     
C10  36094787.174   187954861.103        -189.391          38.000  
C19  22498227.276   117154132.522         -87.470          29.000  
C22  23229689.695   120962871.415        2832.068          38.000  
C29  24693106.493   128583304.209       -2442.602          23.000  
C35  21630991.551   112638239.733         -55.496          29.000  
C38  36018944.479   187560017.376         258.647          39.000  
E24  26942347.376   141582893.7151       1291.415          14.000  
E26  25208149.636   132469719.945       -1514.476          28.000  
E31  24961242.666   131172054.441       -1358.364          39.000  
E33  23616661.500   124106167.020         223.953          31.000  
G06  20831140.776   109468176.194        -623.394          28.000  
G09  22178747.448   116549900.338         542.501          33.000  
G11  21115338.031   110961739.5851       1139.824          19.000  
G12  22398172.743   117702979.466        -200.903          37.000  
G17  23153367.332   121671709.583       -2906.561          30.000  
G19  20727327.745   108922726.097       -2139.811          37.000  
G20  21391941.242   112415386.661        2144.707          40.000  
J02  37528692.702   197214477.173        -276.191          21.000  
J03  39190301.394   205946286.446         338.312          33.000  
> 2025 04 09 08 13 31.9996389  0 19                     
C10  36094851.817   187955192.035        -189.242          38.000  
C19  22498272.433   117154362.424         -88.541          28.000  
C22  23229173.940   120960183.059        2831.864          38.000  
C29  24693600.139   128585890.126       -2445.241          22.000  
C35  21631029.213   112638438.838         -57.575          30.000  
C38  36018922.481   187559901.611         259.527          39.000  
E24  26942132.612   141581743.8171       1295.916          13.000  
E26  25208469.702   132471375.981       -1512.136          24.000  
E31  24961531.254   131173556.980       -1359.333          39.000  
E33  23616647.298   124106085.679         225.908          31.000  
G06  20831286.663   109468943.382        -622.622          30.000  
G09  22178673.286   116549503.878         541.120          32.000  
G11  21115148.150   110960742.2061       1143.917          19.000  
G12  22398240.084   117703323.381        -200.634          37.000  
G17  23153948.218   121674762.753       -2913.785          26.000  
G19  20727764.730   108925010.117       -2141.848          37.000  
G20  21391561.892   112413387.333        2142.615          40.000  
J02  37528772.934   197214902.426        -283.566          23.000  
J03  39190263.807   205946093.301         338.280          33.000  
> 2025 04 09 08 13 32.9995778  0 19                     
C10  36094885.768   187955363.537        -187.950          37.000  
C19  22498288.696   117154434.888         -90.113          27.000  
C22  23228628.992   120957337.337        2827.330          38.000  
C29  24694060.095   128588320.498       -2445.157          22.000  
C35  21631037.082   112638478.538         -54.528          31.000  
C38  36018870.992   187559626.347         258.955          38.000  
E24  26941885.658   141580429.6081       1300.440          14.000  
E26  25208768.071   132472872.323       -1508.382          24.000  
E31  24961786.452   131174899.591       -1358.146          39.000  
E33  23616603.903   124105842.076         227.603          33.000  
G06  20831403.057   109469548.826        -622.247          30.000  
G09  22178572.631   116548946.421         557.546          26.000  
G11  21114926.378   110959578.492        1149.259          21.000  
G12  22398279.731   117703508.117        -201.556          31.000  
G17  23154499.311   121677660.831       -2901.132          25.000  
G19  20728170.424   108927135.709       -2143.209          37.000  
G20  21391153.050   112411228.625        2142.891          40.000  
J02  37528826.372   197215170.708        -286.396          25.000  
J03  39190197.628   205945740.498         337.750          32.000  
> 2025 04 09 08 13 33.9995168  0 19                     
C10  36094951.273   187955697.396        -189.823          37.000  
C19  22498334.115   117154668.999         -91.717          28.000  
C22  23228114.099   120954655.701        2826.482          39.000  
C29  24694563.597   128590908.0781      -2446.175          14.000  
C35  21631078.304   112638678.241         -57.361          31.000  
C38  36018850.456   187559512.744         259.318          38.000  
E24  26941663.062   141579273.839        1297.535          24.000  
E26  25209097.093   132474524.663       -1511.639          20.000  
E31  24962074.103   131176406.096       -1358.941          40.000  
E33  23616586.965   124105761.086         226.913          32.000  
G06  20831552.804   109470316.529        -623.607          30.000  
G09  22178511.324   116548863.236         542.118          32.000  
G11  21114737.659   110958575.087        1149.840          21.000  
G12  22398347.634   117703856.555        -203.165          30.000  
G17  23155078.360   121680708.465       -2915.732          24.000  
G19  20728608.570   108929427.897       -2148.078          37.000  
G20  21390774.263   112409232.346        2141.862          40.000  
J02  37528907.765   197215603.383        -288.989          21.000  
J03  39190163.602   205945550.750         335.187          32.000  
> 2025 04 09 08 13 34.9994557  0 19                     
C10  36094985.599   187955869.769        -190.753          37.000  
C19  22498354.651   117154744.948         -93.865          31.000  
C22  23227570.725   120951814.577        2823.144          39.000  
C29  24695039.817   128593337.0451      -2445.336          16.000  
C35  21631089.246   112638720.788         -61.790          29.000  
C38  36018798.442   187559237.530         257.158          38.000  
E24  26941408.688   141577958.3791       1295.403          19.000  
E26  25209391.339   132476018.1221      -1509.729          19.000  
E31  24962332.674   131177746.688       -1359.959          36.000  
E33  23616538.548   124105517.190         227.942          32.000  
G06  20831668.973   109470922.808        -623.417          30.000  
G09  22178416.439   116548309.318         539.569          31.000  
G11  21114518.361   110957408.0351       1151.460          18.000  
G12  22398384.059   117704040.282        -201.333          31.000  
G17  23155630.128   121683607.364       -2919.393          22.000  
G19  20729015.838   108931558.307       -2148.943          36.000  
G20  21390364.596   112407074.186        2140.820          40.000  
J02  37528960.679   197215877.349        -291.817          22.000  
J03  39190097.797   205945199.647         334.427          32.000  
> 2025 04 09 08 13 36.0003946  0 19                     
C10  36095038.850   187956141.807        -190.151          37.000  
C19  22498388.415   117154920.036         -95.170          31.000  
C22  23227045.376   120949071.064        2823.060          39.000  
C29  24695538.559   128596149.662       -2445.218          24.000  
C35  21631119.113   112638864.372         -60.566          29.000  
C38  36018766.252   187559061.816         258.188          38.000  
E24  26941176.237   141576742.9281       1299.551          15.000  
E26  25209701.512   132477875.6071      -1513.001          20.000  
E31  24962608.671   131179192.100       -1359.856          40.000  
E33  23616516.851   124105633.886         229.116          32.000  
G06  20831804.667   109471630.081        -624.779          30.000  
G09  22178337.481   116547854.474         538.119          29.000  
G11  21114314.389   110956338.2091       1152.087          15.000  
G12  22398440.008   117704596.624        -197.998          34.000  
G17  23156206.217   121686613.8871      -2921.365          19.000  
G19  20729442.331   108933791.021       -2148.628          36.000  
G20  21389973.554   112405013.743        2142.628          40.000  
J02  37529034.615   197216251.9141       -293.911          19.000  
J03  39190050.917   205944947.536         334.627          31.000  
> 2025 04 09 08 13 37.0003335  0 19                     
C10  36095074.412   187956317.995        -191.106          38.000  
C19  22498408.089   117155000.278         -95.363          27.000  
C22  23226500.541   120946232.684        2824.975          39.000  
C29  24696009.121   128598578.314       -2448.778          26.000  
C35  21631124.397   112638906.113         -57.365          28.000  
C38  36018715.774   187558788.785         257.309          39.000  
E24  26940928.496   141575427.0781       1301.129          14.000  
E26  25209975.410   132479373.110       -1512.407          22.000  
E31  24962872.675   131180538.721       -1360.885          40.000  
E33  23616474.767   124105390.638         228.283          31.000  
G06  20831920.574   109472237.430        -624.341          28.000  
G09  22178238.138   116547305.096         533.507          24.000  
G11  21114097.827   110955177.3941       1146.614          12.000  
G12  22398474.971   117704780.863        -201.349          36.000  
G17  23156764.018   121689520.249       -2921.931          24.000  
G19  20729849.636   108935922.883       -2148.600          36.000  
G20  21389564.525   112402856.789        2142.041          40.000  
J02  37529090.264   197216531.7191       -294.500          18.000  
J03  39189984.551   205944596.547         337.112          31.000  
> 2025 04 09 08 13 38.0002724  0 18                     
C10  36095109.750   187956492.430        -188.775          38.000  
C19  22498423.341   117155079.293         -90.580          29.000  
C22  23225956.380   120943392.446        2828.613          38.000  
C29  24696483.355   128601015.516       -2463.685          24.000  
C35  21631135.751   112638948.336         -55.114          29.000  
C38  36018664.472   187558516.609         258.134          39.000  
E24  26940680.530   141574110.485        1295.376          22.000  
E26  25210248.183   132480869.913       -1511.576          25.000  
E31  24963127.761   131181885.250       -1361.003          39.000  
E33  23616426.763   124105149.095         227.587          31.000  
G06  20832040.453   109473110.675        -624.270          28.000  
G11  21113874.444   110954016.5731       1146.774          13.000  
G12  22398512.408   117704970.777        -208.645          30.000  
G17  23157318.297   121692424.009       -2908.487          25.000  
G19  20730255.218   108938055.606       -2146.248          36.000  
G20  21389155.271   112400701.342        2143.270          39.000  
J02  37529145.988   197216809.9361       -294.130          16.000  
J03  39189918.559   205944244.696         338.606          31.000  
> 2025 04 09 08 13 39.0002114  0 19                     
C10  36095174.206   187956821.076        -188.390          38.000  
C19  22498471.008   117155310.932         -92.180          28.000  
C22  23225441.936   120940970.531        2830.320          38.000  
C29  24696979.212   128603620.0141      -2464.949          18.000  
C35  21631177.422   112639146.611         -57.792          30.000  
C38  36018643.787   187558400.517         259.178          39.000  
E24  26940469.776   141572958.880        1290.389          20.000  
E26  25210566.263   132482524.728       -1511.450          26.000  
E31  24963410.765   131183387.963       -1360.372          40.000  
E33  23616408.775   124105065.586         226.625          31.000  
G06  20832187.951   109473876.443        -624.720          28.000  
G09  22178014.455   116546363.8821        534.709          35.000  
G11  21113686.774   110953012.4781       1148.613          17.000  
G12  22398582.259   117705326.185        -200.274          28.000  
G17  23157901.094   121695477.215       -2909.652          24.000  
G19  20730692.315   108940342.914       -2144.131          37.000  
G20  21388777.832   112398702.429        2142.843          40.000  
J02  37529226.332   197217240.2341       -287.743          17.000  
J03  39189881.684   205944050.093         336.874          31.000  
> 2025 04 09 08 13 40.0001503  0 19                     
C10  36095211.305   187957000.528        -191.761          38.000  
C19  22498488.321   117155394.052         -97.699          28.000  
C22  23224896.239   120938130.165        2829.918          37.000  
C29  24697451.910   128606073.2291      -2463.287          17.000  
C35  21631183.044   112639194.411         -61.416          29.000  
C38  36018592.148   187558131.641         256.875          39.000  
E24  26940226.569   141571656.6051       1288.880          18.000  
E26  25210855.788   132484023.506       -1514.684          27.000  
E31  24963667.912   131184740.298       -1362.861          36.000  
E33  23616368.528   124104830.565         223.650          31.000  
G06  20832305.095   109474491.089        -627.597          28.000  
G09  22177918.746   116545817.557         535.098          34.000  
G11  21113468.750   110951851.5771       1149.249          16.000  
G12  22398616.960   117705518.707        -210.076          35.000  
G17  23158451.737   121698373.520       -2908.184          21.000  
G19  20731099.658   108942475.758       -2145.309          37.000  
G20  21388368.241   112396549.497        2140.604          40.000  
J02  37529280.220   197217509.5591       -282.121          13.000  
J03  39189815.655   205943701.783         335.656          31.000  
> 2025 04 09 08 13 41.0000892  0 20                     
C10  36095246.943   187957175.509        -191.190          39.000  
C19  22498504.772   117155475.327         -97.164          30.000  
C22  23224350.879   120935285.965        2830.760          37.000  
C29  24697910.555   128608520.2121      -2460.608          19.000  
C35  21631195.897   112639241.964         -64.505          30.000  
C38  36018541.445   187557860.737         257.336          39.000  
E24  26939973.207   141570355.057        1281.122          30.000  
E26  25211128.561   132485524.853       -1515.124          27.000  
E31  24963924.797   131186089.908       -1363.831          40.000  
E33  23616325.620   124104596.764         219.612          32.000  
G06  20832423.476   109475104.590        -630.738          29.000  
G09  22177821.876   116545272.323         528.962          33.000  
G11  21113250.164   110950694.3851       1142.553          20.000  
G12  22398652.898   117705713.605        -211.816          38.000  
G17  23159005.716   121701265.0281      -2906.113          20.000  
G19  20731506.739   108944606.681       -2145.486          36.000  
G20  21387959.286   112394395.453        2140.780          39.000  
G25  23754531.443   124830904.2711       1477.632          30.000  
J02  37529332.646   197217777.8371       -282.224           8.000  
J03  39189750.563   205943351.619         336.843          32.000  
> 2025 04 09 08 13 42.0000282  0 20                     
C10  36095310.237   187957506.890        -188.249          39.000  
C19  22498549.179   117155713.773         -95.721          31.000  
C22  23223835.873   120932593.757        2836.953          37.000  
C29  24698408.847   128611118.0891      -2459.059          18.000  
C35  21631233.409   112639445.547         -62.028          28.000  
C38  36018519.598   187557743.526         260.070          39.000  
E24  26939760.392   141569216.389        1280.297          33.000  
E26  25211445.180   132487181.396       -1517.441          27.000  
E31  24964214.134   131187594.755       -1362.870          40.000  
E33  23616311.268   124104520.486         219.260          32.000  
G06  20832571.911   109475878.570        -633.657          28.000  
G09  22177749.364   116544883.356         534.643          34.000  
G11  21113059.533   110949695.1101       1140.708          18.000  
G12  22398726.085   117706067.928        -208.590          35.000  
G17  23159589.450   121704310.804       -2903.706          23.000  
G19  20731944.174   108946891.271       -2141.324          36.000  
G20  21387578.887   112392395.919        2144.749          39.000  
G25  23754279.355   124829569.956        1473.575          30.000  
J02  37529413.927   197218199.238        -280.404          20.000  
J03  39189714.625   205943156.994         337.708          32.000  
> 2025 04 09 08 13 42.9999671  0 20                     
C10  36095344.975   187957680.140        -187.215          39.000  
C19  22498566.229   117155795.123         -94.277          29.000  
C22  23223287.815   120929740.936        2843.135          37.000  
C29  24698875.887   128613563.0321      -2455.335          18.000  
C35  21631242.065   112639492.731         -60.296          28.000  
C38  36018469.195   187557470.897         259.310          39.000  
E24  26939515.124   141567924.384        1275.785          33.000  
E26  25211740.738   132488685.633       -1516.018          22.000  
E31  24964471.019   131188942.954       -1361.454          40.000  
E33  23616269.259   124104288.016         219.479          31.000  
G06  20832690.891   109476497.669        -632.885          26.000  
G09  22177653.692   116544335.346         535.624          34.000  
G11  21112842.446   110948546.5601       1136.565          18.000  
G12  22398774.913   117706259.700        -209.644          33.000  
G17  23160144.928   121707198.845       -2899.274          26.000  
G19  20732350.655   108949016.761       -2137.368          36.000  
G20  21387170.233   112390237.658        2146.178          39.000  
G25  23753998.112   124828084.683        1469.710          31.000  
J02  37529467.553   197218465.9581       -278.569          18.000  
J03  39189648.933   205942805.353         339.423          31.000  
> 2025 04 09 08 13 43.9999061  0 19                     
C10  36095408.044   187958006.188        -184.015          39.000  
C19  22498617.906   117156029.862         -95.296          29.000  
C22  23222771.085   120927036.817        2849.673          37.000  
C29  24699374.254   128616154.8651      -2427.830          18.000  
C35  21631282.350   112639693.491         -63.684          29.000  
C38  36018446.224   187557351.283         262.639          39.000  
E24  26939301.185   141566794.158        1271.587          33.000  
E26  25212060.129   132490343.513       -1519.275          24.000  
E31  24964758.033   131190445.254       -1359.781          41.000  
E33  23616252.584   124104214.230         215.649          30.000  
G06  20832840.000   109477273.546        -633.732          26.000  
G09  22177593.546   116543942.273         534.452          33.000  
G11  21112653.389   110947552.415        1136.297          20.000  
G12  22398842.479   117706617.552        -217.891          37.000  
G19  20732784.867   108951293.951       -2134.700          37.000  
G20  21386789.908   112388232.627        2149.988          39.000  
G25  23753747.298   124826761.278        1461.486          32.000  
J02  37529551.907   197218883.7091       -276.744           8.000  
J03  39189612.471   205942607.752         340.570          31.000  
> 2025 04 09 08 13 44.9998450  0 20                     
C10  36095441.995   187958438.428        -183.276          39.000  
C19  22498633.270   117156110.409         -95.288          29.000  
C22  23222222.240   120924170.275        2856.535          37.000  
C29  24699839.307   128618569.530       -2429.800          22.000  
C35  21631298.614   112639743.739         -64.583          29.000  
C38  36018395.334   187557074.748         263.984          39.000  
E24  26939055.730   141565515.351        1265.394          33.000  
E26  25212334.514   132491850.278       -1519.962          28.000  
E31  24965016.529   131191789.392       -1358.186          40.000  
E33  23616214.885   124103987.546         213.928          30.000  
G06  20832958.793   109477893.638        -636.474          24.000  
G09  22177500.986   116543395.772         533.343          33.000  
G11  21112434.016   110946403.906        1133.800          21.000  
G12  22398877.929   117706822.139        -219.604          39.000  
G17  23161281.628   121713108.2981      -2882.575          24.000  
G19  20733188.462   108953412.479       -2130.434          36.000  
G20  21386379.268   112386068.443        2151.567          39.000  
G25  23753467.966   124825289.171        1452.724          30.000  
J02  37529603.846   197219144.8561       -275.353           8.000  
J03  39189547.191   205942254.039         339.631          32.000  
> 2025 04 09 08 13 45.9997839  0 20                     
C10  36095475.048   187958605.140        -181.610          39.000  
C19  22498650.733   117156192.964         -97.356          29.000  
C22  23221671.896   120921297.263        2864.085          37.000  
C29  24700310.956   128620984.456       -2430.515          24.000  
C35  21631308.881   112639796.724         -67.305          29.000  
C38  36018341.446   187556797.870         264.099          39.000  
E24  26938816.570   141564243.137        1257.844          33.000  
E26  25212622.390   132493357.285       -1522.819          28.000  
E31  24965270.528   131193133.507       -1357.977          39.000  
E33  23616174.488   124103765.980         207.415          30.000  
G06  20833080.284   109478517.472        -641.684          26.000  
G09  22177402.729   116542850.155         532.084          34.000  
G11  21112219.440   110945258.5361       1129.730          19.000  
G12  22398916.678   117707027.849        -221.569          39.000  
G17  23161827.925   121715972.153       -2872.723          21.000  
G19  20733592.358   108955525.237       -2127.219          37.000  
G20  21385968.927   112383901.944        2153.863          40.000  
G25  23753190.134   124823826.168        1443.148          26.000  
J02  37529656.085   197219673.4141       -273.906           6.000  
J03  39189481.312   205941899.971         341.523          32.000  
> 2025 04 09 08 13 46.9997229  0 20                     
C10  36095538.416   187958926.757        -178.178          39.000  
C19  22498697.913   117156429.907         -96.354          26.000  
C22  23221148.271   120918569.752        2874.522          37.000  
C29  24700810.522   128623554.377       -2429.562          23.000  
C35  21631348.866   112640003.719         -67.011          29.000  
C38  36018319.074   187556673.905         267.098          40.000  
E24  26938606.228   141563136.603        1249.446          33.000  
E26  25212944.179   132495025.304       -1525.502          30.000  
E31  24965556.942   131194632.081       -1355.894          40.000  
E33  23616162.908   124103703.633         205.545          29.000  
G06  20833233.290   109479304.510        -646.669          25.000  
G09  22177261.339   116542460.240         533.275          33.000  
G11  21112039.077   110944276.607        1122.975          22.000  
G12  22398984.843   117707393.762        -225.329          39.000  
G17  23162403.339   121719250.384       -2863.241          22.000  
G19  20734023.572   108957792.042       -2121.298          37.000  
G20  21385587.104   112381889.073        2158.008          39.000  
G25  23752947.114   124822530.690        1429.950          22.000  
J02  37529736.841   197220087.5261       -272.557           7.000  
J03  39189445.149   205941700.376         342.120          32.000  
> 2025 04 09 08 13 47.9996618  0 20                     
C10  36095571.131   187959088.302        -176.263          39.000  
C19  22498711.141   117156512.278         -95.494          26.000  
C22  23220595.491   120915677.106        2883.496          36.000  
C29  24701274.638   128625969.124       -2415.706          21.000  
C35  21631359.696   112640057.697         -70.775          29.000  
C38  36018266.648   187556392.952         267.296          39.000  
E24  26938373.327   141561882.561        1240.825          33.000  
E26  25213233.517   132496537.403       -1528.965          31.000  
E31  24965816.000   131196248.949       -1353.973          41.000  
E33  23616124.572   124103489.801         200.061          29.000  
G06  20833357.442   109479937.950        -651.760          26.000  
G09  22177166.942   116541913.799         531.965          34.000  
G11  21111823.264   110943142.193        1118.676          24.000  
G12  22399024.153   117707605.393        -228.736          38.000  
G17  23162947.500   121722092.855       -2854.153          22.000  
G19  20734424.132   108959895.251       -2113.445          37.000  
G20  21385174.327   112379714.938        2162.648          40.000  
G25  23752678.838   124821091.516        1419.330          23.000  
J02  37529752.768   197220181.5791       -219.156          19.000  
J03  39189378.033   205941344.602         342.777          33.000  
> 2025 04 09 08 13 48.9996007  0 19                     
C10  36095602.309   187959251.376        -177.399          38.000  
C19  22498727.030   117156592.038         -95.243          28.000  
C22  23220036.378   120912777.991        2885.377          35.000  
C29  24701740.816   128628370.719       -2416.556          22.000  
C35  21631368.390   112640114.097         -70.592          30.000  
C38  36018213.585   187556111.886         267.395          39.000  
E24  26938147.583   141560921.261        1234.428          34.000  
E26  25213530.011   132498056.422       -1534.948          31.000  
E31  24966071.423   131197589.703       -1353.377          40.000  
E33  23616083.501   124103280.510         196.861          29.000  
G06  20833478.858   109480578.587        -655.793          29.000  
G09  22177068.910   116541369.519         529.871          34.000  
G11  21111610.711   110942013.990        1113.683          22.000  
G12  22399060.728   117707822.019        -231.059          35.000  
G17  23163488.925   121724929.2491      -2845.772          16.000  
G19  20734824.055   108961993.699       -2113.074          37.000  
G20  21384759.714   112377539.001        2161.333          40.000  
G25  23752407.525   124819663.330        1410.612          21.000  
J03  39189312.079   205940989.476         341.660          33.000  
> 2025 04 09 08 13 49.9995397  0 18                     
C10  36095664.929   187959570.268        -177.957          38.000  
C19  22498770.463   117156829.819         -98.663          29.000  
C22  23219507.807   120910036.920        2883.319          35.000  
C29  24702248.627   128630925.255       -2416.430          23.000  
C35  21631408.825   112640325.248         -73.454          31.000  
C38  36018193.161   187555988.458         265.983          39.000  
E24  26937952.381   141559834.357        1230.233          33.000  
E26  25213850.452   132499732.585       -1534.761          29.000  
E31  24966358.287   131199088.102       -1356.170          40.000  
E33  23616071.172   124103230.854         192.141          29.000  
G06  20833632.614   109481376.132        -654.903          29.000  
G09  22177001.119   116540983.993         527.194          35.000  
G11  21111426.301   110941042.9281       1112.959          18.000  
G12  22399121.848   117708196.672        -234.899          32.000  
G19  20735253.920   108964249.509       -2118.179          37.000  
G20  21384375.343   112375522.193        2159.487          40.000  
G25  23752162.558   124818396.306        1404.882          21.000  
J03  39189275.167   205940792.106         338.240          34.000  
> 2025 04 09 08 13 50.9994786  0 19                     
C10  36095697.344   187959735.619        -179.099          38.000  
C19  22498784.591   117156913.869         -99.199          30.000  
C22  23218954.727   120907140.943        2882.642          35.000  
C29  24702722.036   128633327.893       -2416.691          23.000  
C35  21631419.955   112640384.910         -73.336          30.000  
C38  36018140.735   187555708.575         266.216          39.000  
E24  26937713.484   141558591.520        1231.053          33.000  
E26  25214139.190   132501254.647       -1532.719          30.000  
E31  24966612.249   131200430.899       -1355.337          40.000  
E33  23616028.039   124103025.119         194.798          29.000  
G06  20833757.665   109482018.043        -655.128          28.000  
G09  22176903.124   116540443.148         528.139          35.000  
G11  21111211.987   110939917.4901       1113.256          18.000  
G12  22399152.764   117708417.282        -233.315          31.000  
G19  20735656.579   108966353.439       -2116.963          37.000  
G20  21383961.666   112373348.544        2160.539          39.000  
G25  23751892.482   124816980.232        1400.996          20.000  
J02  37529890.073   197220902.8121       -215.000          20.000  
J03  39189207.751   205940439.767         341.058          34.000  
> 2025 04 09 08 13 52.0004175  0 19                     
C10  36095747.634   187959990.144        -174.611          38.000  
C19  22498818.992   117157091.071         -97.876          31.000  
C22  23218416.825   120904333.537        2885.283          35.000  
C29  24703208.525   128636089.187       -2415.718          22.000  
C35  21631448.660   112640536.426         -70.523          31.000  
C38  36018106.484   187555520.969         269.093          40.000  
E24  26937493.361   141557438.178        1233.248          33.000  
E26  25214449.100   132502868.823       -1529.611          30.000  
E31  24966888.283   131201865.165       -1353.851          40.000  
E33  23616004.580   124102909.642         195.733          29.000  
G06  20833902.090   109482751.901        -653.809          28.000  
G09  22176823.305   116539993.995         530.170          35.000  
G11  21111014.649   110938882.8101       1114.148          18.000  
G12  22399204.254   117708728.873        -232.252          31.000  
G19  20736076.813   108968818.351       -2114.726          37.000  
G20  21383565.266   112371266.032        2162.340          40.000  
G25  23751642.380   124815659.3681       1396.227          11.000  
J02  37529960.449   197221196.595        -214.360          25.000  
J03  39189159.409   205940177.768         343.295          33.000  
> 2025 04 09 08 13 53.0003564  0 20                     
C10  36095780.086   187960150.710        -174.390          38.000  
C19  22498836.155   117157175.175         -96.363          31.000  
C22  23217862.283   120901434.435        2886.810          35.000  
C29  24703669.680   128638489.393       -2414.144          21.000  
C35  21631462.525   112640592.027         -68.740          30.000  
C38  36018052.896   187555238.349         268.804          40.000  
E24  26937257.500   141556191.119        1233.021          33.000  
E26  25214738.475   132504383.194       -1529.536          31.000  
E31  24967143.481   131203204.261       -1353.176          40.000  
E33  23615969.579   124102698.534         197.010          29.000  
G06  20834026.579   109483391.528        -653.367          26.000  
G09  22176723.549   116539450.266         529.976          35.000  
G11  21110802.171   110937754.4851       1115.265          18.000  
G12  22399244.501   117708945.989        -232.858          31.000  
G17  23166040.459   121738363.3631      -2852.413          21.000  
G19  20736480.408   108970917.345       -2113.344          38.000  
G20  21383151.927   112369089.819        2163.340          40.000  
G25  23751378.938   124814252.0861       1391.278          11.000  
J02  37530009.390   197221397.099        -215.570          26.000  
J03  39189092.931   205939819.833         345.489          33.000  
> 2025 04 09 08 13 54.0002954  0 20                     
C10  36095839.520   187960468.872        -173.479          38.000  
C19  22498882.698   117157413.719         -96.129          31.000  
C22  23217333.225   120898692.019        2886.533          34.000  
C29  24704165.912   128641046.6321      -2413.364          20.000  
C35  21631505.171   112640802.800         -67.341          28.000  
C38  36018029.587   187555112.998         270.441          39.000  
E24  26937050.118   141555103.508        1233.250          35.000  
E26  25215051.833   132506057.631       -1529.458          31.000  
E31  24967425.961   131204703.355       -1352.378          40.000  
E33  23615966.057   124102646.965         197.142          31.000  
G06  20834178.948   109484187.102        -652.048          29.000  
G09  22176653.172   116539065.508         529.776          36.000  
G11  21110619.073   110937051.5581       1115.779          18.000  
G12  22399315.327   117709323.260        -232.457          30.000  
G17  23166611.339   121741359.0101      -2852.937          18.000  
G19  20736912.784   108973176.043       -2113.249          37.000  
G20  21382768.567   112367073.080        2162.812          40.000  
G25  23751258.496   124813705.235        1426.880          22.000  
J02  37530159.062   197222316.690        -209.828          23.000  
J03  39189055.531   205939620.415         344.995          34.000  
> 2025 04 09 08 13 55.0002343  0 20                     
C10  36095873.022   187960629.313        -174.680          38.000  
C19  22498901.809   117157495.665         -96.194          31.000  
C22  23216777.335   120895792.991        2886.514          35.000  
C29  24704629.916   128643446.0171      -2411.853          18.000  
C35  21631518.886   112640858.128         -68.768          30.000  
C38  36017977.648   187554829.763         269.751          39.000  
E24  26936811.708   141553857.901        1232.377          35.000  
E26  25215349.452   132507572.563       -1530.171          32.000  
E31  24967683.108   131206041.621       -1352.754          40.000  
E33  23615933.005   124102435.715         197.770          31.000  
G06  20834303.887   109484824.960        -651.520          29.000  
G09  22176553.566   116538522.941         528.998          37.000  
G11  21110404.946   110935922.9911       1116.351          18.000  
G12  22399356.923   117709541.884        -231.125          30.000  
G17  23167145.494   121744198.1341      -2852.703          18.000  
G19  20737315.031   108975276.061       -2114.722          38.000  
G20  21382355.678   112364897.843        2162.077          41.000  
G25  23750994.604   124812264.3581       1426.674          19.000  
J02  37530117.915   197222100.491        -212.982          24.000  
J03  39188989.802   205939530.832         344.746          34.000  
> 2025 04 09 08 13 56.0001733  0 20                     
C10  36095934.517   187960944.870        -175.434          37.000  
C19  22498951.612   117157732.453         -97.186          30.000  
C22  23216252.735   120893049.773        2884.517          35.000  
C29  24705123.711   128645998.0661      -2413.656          18.000  
C35  21631559.995   112641067.741         -69.770          30.000  
C38  36017953.702   187554701.865         269.004          39.000  
E24  26936600.992   141552767.374        1232.880          35.000  
E26  25215659.475   132509245.186       -1529.957          32.000  
E31  24967968.847   131207539.159       -1354.181          40.000  
E33  23615923.149   124102381.140         196.835          33.000  
G06  20834455.019   109485619.510        -653.085          29.000  
G09  22176482.553   116538137.317         528.396          37.000  
G11  21110220.611   110934948.2471       1117.403          18.000  
G12  22399432.808   117709914.892        -233.325          31.000  
G17  23167711.540   121747192.5381      -2852.390          17.000  
G19  20737746.170   108977533.107       -2116.681          38.000  
G20  21381973.180   112362878.530        2161.635          41.000  
G25  23750759.904   124810979.1551       1425.893          18.000  
J02  37530192.001   197222453.946        -213.548          24.000  
J03  39188952.066   205939328.142         344.727          33.000  
> 2025 04 09 08 13 57.0001122  0 20                     
C10  36095966.407   187961108.299        -175.408          38.000  
C19  22498970.912   117157817.574         -98.355          30.000  
C22  23215699.131   120890154.057        2883.711          35.000  
C29  24705583.406   128648397.9071      -2412.747          17.000  
C35  21631575.697   112641126.157         -72.076          30.000  
C38  36017898.053   187554421.225         269.928          39.000  
E24  26936362.769   141551524.161        1231.503          35.000  
E26  25215949.187   132510761.425       -1530.112          32.000  
E31  24968223.184   131208880.830       -1354.259          40.000  
E33  23615884.289   124102172.433         197.006          33.000  
G06  20834577.747   109486260.691        -653.813          30.000  
G09  22176382.235   116537597.917         527.876          37.000  
G11  21110009.669   110933818.8871       1117.706          19.000  
G12  22399481.786   117710136.764        -234.733          32.000  
G17  23168254.276   121750032.8531      -2873.594          16.000  
G19  20738147.404   108979636.102       -2115.412          38.000  
G20  21381562.577   112360705.876        2161.082          41.000  
G25  23750490.503   124809540.7761       1425.358          17.000  
J02  37530238.881   197222654.959        -214.042          24.000  
J03  39188884.725   205938971.749         345.493          33.000  
> 2025 04 09 08 13 58.0000511  0 20                     
C10  36095998.148   187961266.354        -174.798          38.000  
C19  22498990.660   117157899.580         -99.603          29.000  
C22  23215141.479   120887253.808        2884.630          35.000  
C29  24706037.853   128650792.5191      -2413.461          17.000  
C35  21631588.550   112641181.974         -71.034          30.000  
C38  36017844.653   187554136.010         269.913          39.000  
E24  26936123.197   141550276.344        1232.225          34.000  
E26  25216239.348   132512276.260       -1529.807          32.000  
E31  24968477.970   131210218.760       -1353.769          40.000  
E33  23615846.777   124101958.896         197.485          33.000  
G06  20834697.626   109486896.660        -652.477          31.000  
G09  22176280.268   116537054.454         527.163          36.000  
G11  21109796.779   110932685.2691       1117.944          18.000  
G12  22399531.515   117710353.300        -234.681          32.000  
G17  23168800.461   121752888.7531      -2872.917          16.000  
G19  20738546.990   108981734.702       -2117.624          36.000  
G20  21381150.625   112358528.725        2160.893          41.000  
G25  23750215.555   124808098.3891       1425.594          15.000  
J02  37530282.314   197222853.853        -213.962          25.000  
J03  39188817.833   205938610.671         344.820          32.000  
> 2025 04 09 08 13 58.9999901  0 18                     
C10  36096060.355   187961581.379        -173.710          38.000  
C19  22499038.177   117158141.378         -99.955          29.000  
C22  23214616.093   120884512.360        2884.550          35.000  
C29  24706512.875   128653347.4971      -2412.958          20.000  
C35  21631635.768   112641393.101         -70.933          29.000  
C38  36017820.819   187554009.058         269.836          39.000  
E24  26935918.889   141549189.405        1230.959          33.000  
E26  25216555.779   132513948.549       -1530.474          32.000  
E31  24968764.122   131211716.706       -1354.722          40.000  
E33  23615836.134   124101905.497         197.492          33.000  
G06  20834848.572   109487691.359        -652.416          31.000  
G09  22176208.168   116536671.361         526.881          36.000  
G11  21109611.358   110931711.6271       1117.871          11.000  
G12  22399612.309   117710732.029        -234.931          33.000  
G19  20738977.642   108983996.490       -2116.481          36.000  
G20  21380769.439   112356512.322        2160.507          41.000  
J02  37530353.814   197223210.797        -213.861          26.000  
J03  39188781.109   205938410.422         344.185          32.000  
> 2025 04 09 08 13 59.9999290  0 20                     
C10  36096093.819   187961743.663        -177.721          38.000  
C19  22499057.552   117158496.320        -100.338          29.000  
C22  23214060.166   120881615.198        2883.191          35.000  
C29  24706960.052   128655747.939       -2414.510          22.000  
C35  21631650.045   112641451.729         -72.072          30.000  
C38  36017767.943   187553727.511         266.351          39.000  
E24  26935683.739   141547946.714        1229.404          33.000  
E26  25216846.166   132515463.878       -1531.495          32.000  
E31  24969021.231   131213060.106       -1355.530          40.000  
E33  23615798.548   124101696.035         196.263          33.000  
G06  20834972.574   109488331.284        -655.417          31.000  
G09  22176108.525   116536132.890         524.511          36.000  
G11  21109396.594   110930580.7221       1118.344          13.000  
G12  22399660.463   117710953.280        -237.504          34.000  
G17  23169620.730   121757178.5391      -2854.471          23.000  
G19  20739378.952   108986099.358       -2117.601          36.000  
G20  21380358.911   112354339.708        2158.946          41.000  
G25  23749564.444   124804802.8221       1421.716          22.000  
J02  37530393.574   197223409.178        -213.407          26.000  
J03  39188715.042   205938053.262         343.648          32.000  
> 2025 04 09 08 14 00.9998679  0 20                     
C10  36096126.796   187961905.439        -176.286          38.000  
C19  22499076.438   117158582.362        -101.261          29.000  
C22  23213507.648   120878719.070        2881.358          35.000  
C29  24707419.634   128658147.276       -2416.446          25.000  
C35  21631663.536   112641510.629         -75.901          30.000  
C38  36017715.479   187553446.772         268.093          39.000  
E24  26935449.301   141546703.860        1229.395          34.000  
E26  25217135.166   132516981.106       -1530.626          33.000  
E31  24969278.753   131214402.871       -1356.727          40.000  
E33  23615758.675   124101487.319         195.202          33.000  
G06  20835098.187   109488973.084        -657.224          30.000  
G09  22176009.593   116535595.297         523.977          36.000  
G11  21109181.043   110929448.5831       1117.079          12.000  
G12  22399709.329   117711177.566        -238.275          35.000  
G17  23170161.256   121760020.464       -2857.116          23.000  
G19  20739780.374   108988201.271       -2119.840          36.000  
G20  21379948.495   112352167.178        2158.740          41.000  
G25  23749295.830   124803366.734        1421.011          21.000  
J02  37530431.648   197223608.157        -213.847          26.000  
J03  39188647.889   205937696.029         343.589          33.000  
> 2025 04 09 08 14 01.9998069  0 20                     
C10  36096190.615   187962224.226        -177.940          38.000  
C19  22499123.468   117158824.702        -104.163          29.000  
C22  23212983.274   120875978.899        2881.908          35.000  
C29  24707912.456   128660705.273       -2417.116          26.000  
C35  21631707.268   112641723.776         -72.787          30.000  
C38  36017691.758   187553320.302         267.306          39.000  
E24  26935245.705   141545617.389        1227.964          34.000  
E26  25217454.107   132518652.026       -1531.996          33.000  
E31  24969566.816   131215902.328       -1357.944          40.000  
E33  23615749.045   124101434.887         194.582          33.000  
G06  20835254.041   109489771.623        -658.535          30.000  
G09  22175940.303   116535213.481         523.802          35.000  
G11  21108999.931   110928478.4121       1111.448          18.000  
G12  22399787.837   117711556.797        -239.451          36.000  
G17  23170732.323   121763020.332       -2861.455          23.000  
G19  20740212.037   108990463.593       -2121.357          36.000  
G20  21379566.222   112350151.051        2157.700          41.000  
G25  23749053.560   124802086.990        1419.557          20.000  
J02  37530503.561   197223964.273        -215.614          25.000  
J03  39188610.977   205937494.533         343.057          33.000  
> 2025 04 09 08 14 02.9997458  0 20                     
C10  36096222.805   187962386.167        -177.936          38.000  
C19  22499141.269   117158915.858         -98.013          28.000  
C22  23212429.070   120873084.059        2881.089          35.000  
C29  24708376.647   128663106.611       -2415.104          27.000  
C35  21631718.173   112641781.036         -72.656          30.000  
C38  36017637.309   187553039.576         267.994          39.000  
E24  26935010.780   141544375.864        1228.871          34.000  
E26  25217739.023   132520169.881       -1531.141          32.000  
E31  24969826.249   131217246.566       -1358.280          40.000  
E33  23615712.283   124101227.019         194.820          34.000  
G06  20835377.368   109490415.382        -656.934          30.000  
G09  22175839.086   116534676.235         523.158          35.000  
G11  21108785.992   110927353.8281       1110.588          14.000  
G12  22399833.818   117711781.283        -238.988          37.000  
G17  23171272.362   121765867.774       -2861.598          25.000  
G19  20740613.272   108992568.595       -2119.781          36.000  
G20  21379154.419   112347979.860        2157.646          41.000  
G25  23748783.859   124800654.184        1417.577          22.000  
J02  37530546.543   197224165.824        -215.543          24.000  
J03  39188544.835   205937137.419         344.342          32.000  
> 2025 04 09 08 14 03.9996847  0 20                     
C10  36096254.358   187962549.664        -178.519          38.000  
C19  22499152.436   117159000.464        -103.212          27.000  
C22  23211873.629   120870188.711        2879.353          35.000  
C29  24708844.098   128665506.677       -2416.192          28.000  
C35  21631735.336   112642121.972         -76.305          30.000  
C38  36017584.920   187552758.086         266.246          39.000  
E24  26934774.619   141543132.965        1227.545          33.000  
E26  25218033.194   132521685.759       -1532.341          32.000  
E31  24970085.345   131218591.828       -1359.183          40.000  
E33  23615671.886   124101016.799         194.310          34.000  
G06  20835499.159   109491056.045        -656.938          29.000  
G09  22175738.131   116534138.567         520.936          34.000  
G11  21108572.015   110926227.6561       1111.309          19.000  
G12  22399878.262   117712005.063        -241.096          38.000  
G17  23171810.564   121768715.062       -2861.308          25.000  
G19  20741014.170   108994673.782       -2121.654          36.000  
G20  21378741.081   112345807.381        2155.851          41.000  
G25  23748513.521   124799222.282        1416.030          22.000  
J02  37530587.090   197224363.864        -215.665          22.000  
J03  39188475.958   205936777.781         343.861          32.000  
> 2025 04 09 08 14 04.9996237  0 20                     
C10  36096317.727   187962871.654        -178.426          38.000  
C19  22499198.117   117159248.574        -107.477          28.000  
C22  23211350.604   120867454.257        2879.813          35.000  
C29  24709341.566   128668068.233       -2418.976          28.000  
C35  21631777.420   112642340.795         -76.200          31.000  
C38  36017562.848   187552900.651         267.039          39.000  
E24  26934572.671   141542053.212        1225.622          33.000  
E26  25218350.187   132523362.728       -1533.929          32.000  
E31  24970372.658   131220097.126       -1359.919          41.000  
E33  23615664.803   124100968.722         194.053          34.000  
G06  20835652.765   109491856.948        -658.123          29.000  
G09  22175666.293   116533763.639         519.598          34.000  
G11  21108390.153   110925261.9221       1111.615          20.000  
G12  22399953.922   117712391.358        -242.618          38.000  
G17  23172384.180   121771720.962       -2861.857          25.000  
G19  20741445.384   108996939.580       -2122.804          36.000  
G20  21378358.958   112343798.000        2155.017          41.000  
G25  23748277.997   124797953.064        1414.069          21.000  
J02  37530661.851   197224724.423        -216.142          22.000  
J03  39188439.495   205936580.438         341.878          32.000  
> 2025 04 09 08 14 05.9995626  0 20                     
C10  36096351.528   187963033.612        -179.110          38.000  
C19  22499214.530   117159339.456        -107.621          27.000  
C22  23210798.311   120864558.950        2878.858          35.000  
C29  24709810.067   128670470.814       -2420.264          28.000  
C35  21631788.737   112642398.657         -74.182          30.000  
C38  36017508.810   187552618.807         264.745          39.000  
E24  26934339.657   141540812.221        1225.900          33.000  
E26  25218641.210   132524879.646       -1533.082          31.000  
E31  24970629.206   131221440.939       -1360.351          40.000  
E33  23615627.554   124100759.366         193.441          34.000  
G06  20835776.804   109492499.675        -657.958          30.000  
G09  22175563.989   116533228.319         519.941          34.000  
G11  21108182.022   110924134.1341       1111.617          18.000  
G12  22399999.715   117712617.036        -242.784          37.000  
G17  23172930.926   121774567.551       -2862.564          25.000  
G19  20741846.431   108999045.704       -2121.885          36.000  
G20  21377946.368   112341626.512        2156.945          41.000  
G25  23748013.205   124796523.883        1412.380          21.000  
J02  37530706.445   197225192.541        -217.045          23.000  
J03  39188373.466   205936222.362         342.890          33.000  
> 2025 04 09 08 14 06.9995016  0 20                     
C10  36096413.960   187963352.778        -178.767          37.000  
C19  22499259.274   117159588.202        -106.086          27.000  
C22  23210274.049   120861822.088        2880.367          36.000  
C29  24710305.399   128673032.610       -2418.330          28.000  
C35  21631829.883   112642616.419         -77.048          31.000  
C38  36017486.101   187552495.299         267.296          39.000  
E24  26934134.674   141539729.724        1226.264          32.000  
E26  25218954.868   132526555.746       -1532.170          31.000  
E31  24970915.882   131222944.574       -1359.751          40.000  
E33  23615616.536   124100708.731         194.323          34.000  
G06  20835930.373   109493300.306        -658.623          31.000  
G09  22175491.514   116532852.487         519.587          33.000  
G11  21108007.918   110923166.676        1111.120          20.000  
G12  22400074.439   117713001.652        -242.266          37.000  
G17  23173504.504   121777571.755       -2863.088          24.000  
G19  20742278.807   109001310.448       -2122.783          36.000  
G20  21377564.807   112339614.621        2154.403          41.000  
G25  23747778.842   124795256.066        1410.782          21.000  
J02  37530774.873   197225552.648        -216.450          25.000  
J03  39188336.966   205936022.952         343.480          32.000  
> 2025 04 09 08 14 07.9994405  0 20                     
C10  36096447.949   187963516.977        -178.243          38.000  
C19  22499282.171   117159677.935        -105.689          29.000  
C22  23209721.044   120858928.230        2879.548          35.000  
C29  24710768.691   128675435.764       -2419.033          28.000  
C35  21631840.189   112642677.349         -75.750          30.000  
C38  36017434.349   187552215.012         265.890          39.000  
E24  26933897.051   141538489.546        1224.044          31.000  
E26  25219252.075   132528072.773       -1532.886          31.000  
E31  24971174.715   131224291.466       -1361.641          40.000  
E33  23615576.776   124100501.018         192.681          33.000  
G06  20836054.000   109493942.540        -659.585          31.000  
G09  22175389.697   116532318.854         518.049          32.000  
G11  21107792.479   110922040.896        1111.097          22.000  
G12  22400120.120   117713228.469        -243.371          35.000  
G17  23174049.339   121780420.076       -2863.511          23.000  
G19  20742681.840   109003418.199       -2124.477          35.000  
G20  21377153.005   112337445.446        2155.007          41.000  
G25  23747510.940   124793831.258        1408.804          21.000  
J02  37530814.558   197225752.381        -215.465          25.000  
J03  39188269.326   205935665.699         342.362          32.000  
> 2025 04 09 08 14 09.0003794  0 20                     
C10  36096500.150   187963778.215        -177.246          38.000  
C19  22499322.681   117159868.186        -108.252          28.000  
C22  23209185.053   120856131.124        2879.025          35.000  
C29  24711255.591   128677940.427       -2417.274          27.000  
C35  21631870.505   112642835.455         -76.112          30.000  
C38  36017399.910   187552033.521         266.574          39.000  
E24  26933679.739   141537349.365        1225.355          31.000  
E26  25219561.199   132529690.250       -1532.917          32.000  
E31  24971450.862   131225739.876       -1361.249          40.000  
E33  23615556.128   124100393.080         193.367          34.000  
G06  20836194.940   109494687.376        -658.737          32.000  
G09  22175307.292   116531884.502         519.918          33.000  
G11  21107598.551   110921014.000        1111.354          22.000  
G12  22400185.212   117713556.851        -243.224          34.000  
G17  23174614.786   121783371.423       -2864.992          20.000  
G19  20743103.086   109005629.948       -2124.934          35.000  
G20  21376759.115   112335373.359        2155.439          41.000  
G25  23747259.752   124792507.539        1407.150          21.000  
J02  37530872.755   197226052.923        -215.538          24.000  
J03  39188220.497   205935407.608         343.257          32.000  
> 2025 04 09 08 14 10.0003183  0 20                     
C10  36096532.753   187963943.481        -180.326          38.000  
C19  22499342.991   117159964.800        -110.705          27.000  
C22  23208633.960   120853241.223        2876.281          35.000  
C29  24711724.392   128680343.138       -2417.890          26.000  
C35  21631887.818   112642900.011         -76.951          31.000  
C38  36017346.472   187551755.609         265.032          39.000  
E24  26933442.528   141536113.008        1223.087          32.000  
E26  25219852.522   132531210.758       -1533.199          31.000  
E31  24971708.309   131227087.249       -1361.737          41.000  
E33  23615514.682   124100187.621         192.084          34.000  
G06  20836319.279   109495596.395        -660.334          31.000  
G09  22175209.185   116531354.700         515.291          34.000  
G11  21107385.024   110919890.764        1109.424          24.000  
G12  22400231.905   117713787.658        -247.032          33.000  
G17  23175160.033   121786222.1611      -2865.564          19.000  
G19  20743504.733   109007741.940       -2125.870          35.000  
G20  21376347.725   112333207.059        2153.610          41.000  
G25  23746985.367   124791088.305        1405.722          21.000  
J02  37530913.152   197226254.737        -216.609          23.000  
J03  39188154.767   205935052.572         342.884          32.000  
> 2025 04 09 08 14 11.0002572  0 20                     
C10  36096564.568   187964106.952        -179.327          38.000  
C19  22499366.413   117160058.176        -109.539          27.000  
C22  23208076.983   120850348.727        2877.876          35.000  
C29  24712190.007   128682744.600       -2418.877          25.000  
C35  21631902.545   112642959.357         -77.202          31.000  
C38  36017294.646   187551474.891         265.313          39.000  
E24  26933211.726   141534875.100        1223.693          32.000  
E26  25220140.960   132532726.901       -1532.686          31.000  
E31  24971965.268   131228434.370       -1362.192          40.000  
E33  23615475.746   124099979.416         193.222          33.000  
G06  20836443.131   109496238.126        -658.558          30.000  
G09  22175110.590   116530823.171         517.117          34.000  
G11  21107173.108   110918766.423        1108.526          22.000  
G12  22400277.511   117714019.526        -247.012          32.000  
G17  23175706.892   121789071.8871      -2866.011          18.000  
G19  20743905.893   109009850.358       -2124.361          35.000  
G20  21375936.747   112331305.616        2153.934          41.000  
G25  23746708.696   124789667.471        1404.994          21.000  
J02  37530951.263   197226455.026        -217.178          22.000  
J03  39188088.251   205934693.991         344.300          32.000  
> 2025 04 09 08 14 12.0001962  0 20                     
C10  36096628.124   187964426.721        -181.808          38.000  
C19  22499415.279   117160308.112        -109.142          29.000  
C22  23207555.344   120847612.178        2875.740          35.000  
C29  24712684.664   128685302.903       -2419.811          25.000  
C35  21631946.015   112643177.078         -78.826          31.000  
C38  36017270.063   187551350.735         263.373          39.000  
E24  26933003.070   141533793.590        1222.491          33.000  
E26  25220469.832   132534400.571       -1534.843          32.000  
E31  24972251.270   131229937.506       -1364.149          41.000  
E33  23615469.750   124099927.963         192.715          33.000  
G06  20836593.926   109497039.634        -661.182          29.000  
G09  22175043.137   116530447.070         516.957          34.000  
G11  21106992.933   110917799.362        1109.102          22.000  
G12  22400353.658   117714406.680        -245.452          29.000  
G17  23176286.990   121792078.0181      -2867.336          17.000  
G19  20744338.194   109012116.232       -2126.661          36.000  
G20  21375555.411   112329294.002        2152.000          41.000  
G25  23746465.864   124788405.118        1403.470          20.000  
J02  37531021.415   197226814.283        -217.821          20.000  
J03  39188052.276   205934491.339         343.568          32.000  
> 2025 04 09 08 14 13.0001351  0 20                     
C10  36096661.364   187964594.009        -180.156          38.000  
C19  22499432.929   117160404.298        -110.592          28.000  
C22  23207002.789   120844723.729        2875.504          35.000  
C29  24713144.509   128687710.120       -2421.743          24.000  
C35  21631961.867   112643243.773         -79.887          31.000  
C38  36017218.161   187551074.294         264.076          38.000  
E24  26932771.293   141532559.618        1221.412          34.000  
E26  25220756.996   132535921.945       -1533.725          32.000  
E31  24972509.354   131231289.246       -1364.038          41.000  
E33  23615428.941   124099723.776         191.792          33.000  
G06  20836716.504   109497686.763        -661.784          30.000  
G09  22174946.566   116529919.357         514.356          35.000  
G11  21106780.942   110916678.370        1108.502          22.000  
G12  22400397.990   117714637.444        -244.884          26.000  
G17  23176838.271   121794932.7851      -2867.787          17.000  
G19  20744742.876   109014229.232       -2127.248          36.000  
G20  21375145.557   112327129.913        2151.533          41.000  
G25  23746193.615   124786989.632        1402.387          22.000  
J02  37531063.048   197227016.7041       -217.866          20.000  
J03  39187985.685   205934136.253         341.809          33.000  
> 2025 04 09 08 14 14.0000741  0 20                     
C10  36096724.770   187964916.857        -179.798          38.000  
C19  22499480.446   117160656.600        -111.658          28.000  
C22  23206477.702   120841991.769        2876.159          35.000  
C29  24713639.916   128690273.951       -2422.305          22.000  
C35  21632008.185   112643464.492         -78.904          30.000  
C38  36017196.726   187550953.226         264.668          39.000  
E24  26932567.584   141531482.656        1221.590          34.000  
E26  25221081.821   132537600.675       -1533.572          32.000  
E31  24972799.103   131232795.826       -1364.305          41.000  
E33  23615425.194   124099676.633         192.006          33.000  
G06  20836869.548   109498492.015        -661.473          30.000  
G09  22174881.062   116529550.107         513.572          36.000  
G11  21106603.015   110915714.711        1108.040          22.000  
G12  22400478.784   117715309.574        -245.705          23.000  
G17  23177413.423   121797943.6681      -2868.893          17.000  
G19  20745176.226   109016500.538       -2127.768          35.000  
G20  21374765.570   112325122.867        2151.647          41.000  
G25  23745953.631   124785731.595        1402.237          22.000  
J02  37531136.048   197227377.9691       -218.198          19.000  
J03  39187949.560   205933938.621         342.951          33.000  
> 2025 04 09 08 14 15.0000130  0 20                     
C10  36096757.785   187965082.056        -180.349          38.000  
C19  22499498.471   117160753.558        -112.572          27.000  
C22  23205922.824   120839101.855        2876.110          35.000  
C29  24714099.235   128692681.910       -2419.877          22.000  
C35  21632020.814   112643529.744         -80.827          29.000  
C38  36017145.199   187550674.940         264.787          39.000  
E24  26932334.083   141530247.538        1221.494          34.000  
E26  25221374.156   132539119.542       -1532.499          32.000  
E31  24973056.363   131234146.483       -1364.483          40.000  
E33  23615385.059   124099470.779         191.764          33.000  
G06  20836992.200   109499139.149        -661.847          30.000  
G09  22174783.067   116529022.873         512.690          36.000  
G11  21106391.699   110914592.956        1107.718          20.000  
G12  22400539.379   117715545.6001       -250.706          18.000  
G17  23177957.584   121800797.5591      -2869.118          17.000  
G19  20745579.184   109018613.440       -2128.256          35.000  
G20  21374355.192   112322958.287        2149.942          41.000  
G25  23745685.654   124784315.854        1402.060          21.000  
J02  37531182.553   197227582.3861       -218.550          17.000  
J03  39187883.942   205933583.192         341.014          33.000  
> 2025 04 09 08 14 15.9999519  0 20                     
C10  36096791.361   187965248.290        -181.111          38.000  
C19  22499521.256   117160852.087        -112.166          26.000  
C22  23205368.807   120836212.460        2874.989          34.000  
C29  24714560.916   128695086.368       -2419.594          21.000  
C35  21632033.705   112643594.228         -79.009          30.000  
C38  36017092.436   187550396.588         264.756          39.000  
E24  26932097.247   141529013.361        1220.692          34.000  
E26  25221658.959   132540637.235       -1532.877          32.000  
E31  24973314.784   131235496.153       -1364.784          40.000  
E33  23615349.983   124099265.247         191.650          32.000  
G06  20837114.516   109499784.393        -660.292          29.000  
G09  22174683.236   116528496.407         512.119          36.000  
G11  21106183.643   110913743.111        1108.054          21.000  
G12  22400594.241   117715780.852        -249.286          22.000  
G17  23178500.808   121803651.5571      -2868.815          17.000  
G19  20745981.206   109020726.011       -2127.792          35.000  
G20  21373944.176   112320793.963        2151.285          41.000  
G25  23745415.241   124782899.551        1402.060          21.000  
J02  37531226.023   197227785.3431       -218.013          16.000  
J03  39187819.487   205933227.611         342.604          32.000  
> 2025 04 09 08 14 16.9998909  0 20                     
C10  36096853.718   187965570.323        -180.154          38.000  
C19  22499567.424   117161104.839        -112.168          27.000  
C22  23204844.470   120833479.106        2875.738          34.000  
C29  24715047.179   128697645.4841      -2421.332          20.000  
C35  21632075.676   112643813.979         -79.119          30.000  
C38  36017068.752   187550274.371         264.728          39.000  
E24  26931893.088   141527936.974        1219.930          33.000  
E26  25221986.632   132542313.878       -1535.733          31.000  
E31  24973601.086   131237004.824       -1365.731          40.000  
E33  23615343.388   124099216.583         191.808          32.000  
G06  20837265.911   109500587.265        -659.004          29.000  
G09  22174613.085   116528127.181         512.947          36.000  
G11  21106000.170   110912778.264        1108.719          21.000  
G12  22400600.237   117716172.845        -251.310          28.000  
G17  23179070.413   121806663.2521      -2868.685          17.000  
G19  20746413.507   109022996.285       -2127.335          35.000  
G20  21373563.740   112318786.462        2151.369          41.000  
G25  23745175.707   124781641.282        1401.825          20.000  
J02  37531295.875   197228145.3501       -218.390          12.000  
J03  39187783.212   205933027.292         344.256          32.000  
> 2025 04 09 08 14 17.9998298  0 20                     
C10  36096887.707   187965735.312        -182.167          38.000  
C19  22499589.121   117161202.174        -112.904          29.000  
C22  23204288.468   120830589.662        2874.423          35.000  
C29  24715503.575   128700052.0741      -2421.522          19.000  
C35  21632088.080   112643879.207         -80.871          30.000  
C38  36017017.300   187549995.733         263.052          38.000  
E24  26931657.264   141526702.765        1218.687          33.000  
E26  25222277.243   132543832.129       -1534.620          33.000  
E31  24973858.720   131238354.126       -1366.746          40.000  
E33  23615303.928   124099010.158         191.408          32.000  
G06  20837387.739   109501231.728        -663.061          29.000  
G09  22174513.067   116527600.693         510.981          36.000  
G11  21105781.734   110911655.1461       1107.429          20.000  
G12  22400656.411   117716407.400        -252.064          32.000  
G17  23179609.253   121809514.6791      -2868.691          17.000  
G19  20746816.240   109025109.625       -2130.447          34.000  
G20  21373152.237   112316621.881        2148.785          41.000  
G25  23744902.708   124780224.598        1401.694          20.000  
J02  37531339.757   197228348.4111       -218.846          13.000  
J03  39187716.471   205932669.053         342.177          34.000  
> 2025 04 09 08 14 18.9997687  0 20                     
C10  36096921.022   187965899.885        -180.671          38.000  
C19  22499610.444   117161298.264        -113.125          27.000  
C22  23203735.088   120827699.357        2874.584          35.000  
C29  24715961.996   128702456.0821      -2421.574          18.000  
C35  21632099.509   112643943.630         -80.792          31.000  
C38  36016965.174   187549716.510         263.712          39.000  
E24  26931419.566   141525468.974        1219.177          32.000  
E26  25222566.581   132545350.784       -1534.525          32.000  
E31  24974114.480   131239703.212       -1366.180          40.000  
E33  23615261.395   124098802.967         191.737          32.000  
G06  20837513.090   109501878.874        -663.202          29.000  
G09  22174414.173   116527074.172         511.293          37.000  
G11  21105567.720   110910533.003        1106.548          24.000  
G12  22400711.310   117716642.856        -252.053          33.000  
G17  23180150.416   121812367.5841      -2868.605          18.000  
G19  20747219.499   109027222.436       -2130.342          33.000  
G20  21372740.959   112314457.188        2149.917          41.000  
G25  23744631.434   124778807.343        1402.056          20.000  
J02  37531380.566   197228550.9241       -218.857          12.000  
J03  39187649.954   205932310.889         343.690          33.000  
> 2025 04 09 08 14 19.9997077  0 20                     
C10  36096983.716   187966221.466        -181.326          38.000  
C19  22499657.848   117161553.580        -113.597          25.000  
C22  23203211.988   120824968.818        2872.895          36.000  
C29  24716452.493   128705019.4711      -2422.635          18.000  
C35  21632141.518   112644167.118         -83.226          33.000  
C38  36016945.425   187549595.771         263.618          39.000  
E24  26931218.143   141524394.636        1217.590          32.000  
E26  25222887.096   132547028.510       -1534.514          32.000  
E31  24974404.717   131241214.064       -1367.387          40.000  
E33  23615257.835   124098756.451         190.116          33.000  
G06  20837669.319   109502685.186        -663.175          31.000  
G09  22174345.857   116526973.743         509.315          36.000  
G11  21105384.284   110909570.098        1106.707          24.000  
G12  22400794.690   117717039.045        -253.032          34.000  
G17  23180717.361   121815377.707       -2868.031          21.000  
G19  20747653.336   109029497.613       -2132.911          33.000  
G20  21372359.361   112312452.660        2147.724          40.000  
G25  23744391.637   124777549.245        1401.900          22.000  
J02  37531443.260   197228906.3321       -213.142          15.000  
J03  39187612.518   205932110.894         342.596          33.000  
> 2025 04 09 08 14 20.9996466  0 20                     
C10  36097016.318   187966389.477        -182.024          37.000  
C19  22499682.956   117161655.140        -115.284          24.000  
C22  23202658.796   120822083.842        2870.687          36.000  
C29  24716908.403   128707429.2301      -2422.393          19.000  
C35  21632156.432   112644237.414         -83.619          32.000  
C38  36016894.385   187549320.263         261.494          40.000  
E24  26930986.928   141523164.531        1217.148          33.000  
E26  25223178.419   132548549.424       -1535.922          32.000  
E31  24974663.663   131242569.320       -1368.926          40.000  
E33  23615221.785   124098828.220         190.325          34.000  
G06  20837795.157   109503335.049        -665.418          30.000  
G09  22174248.050   116526453.062         505.584          37.000  
G11  21105169.258   110908450.429        1106.611          24.000  
G12  22400851.576   117717279.055        -256.127          33.000  
G17  23181253.914   121818231.804       -2868.597          22.000  
G19  20748057.081   109031616.582       -2133.772          34.000  
G20  21371948.870   112310292.725        2145.399          40.000  
G25  23744125.946   124776134.979        1400.832          24.000  
J02  37531480.659   197229105.2801       -213.348          15.000  
J03  39187546.189   205931756.865         340.119          33.000  
> 2025 04 09 08 14 21.9995856  0 20                     
C10  36097080.436   187966716.046        -185.866          37.000  
C19  22499737.181   117161912.888        -118.878          25.000  
C22  23202137.120   120819357.591        2864.558          37.000  
C29  24717407.820   128709993.703       -2425.808          21.000  
C35  21632198.965   112644462.374         -83.689          31.000  
C38  36016876.061   187549202.200         258.976          40.000  
E24  26930783.332   141522090.549        1218.360          35.000  
E26  25223496.762   132550228.848       -1537.023          33.000  
E31  24974967.015   131244082.344       -1371.061          42.000  
E33  23615214.552   124098782.234         189.300          34.000  
G06  20837952.511   109504143.100        -665.656          31.000  
G09  22174176.962   116526090.598         505.190          37.000  
G11  21104987.846   110907487.480        1106.051          23.000  
G12  22400933.681   117717677.114        -255.180          38.000  
G17  23181824.682   121821242.568       -2871.490          23.000  
G19  20748495.940   109033894.635       -2138.620          35.000  
G20  21371569.895   112308291.831        2142.226          40.000  
G25  23743893.270   124774878.161        1399.068          22.000  
J02  37531467.731   197229193.896        -227.604          27.000  
J03  39187508.977   205931559.390         340.576          32.000  
> 2025 04 09 08 14 22.9995245  0 20                     
C10  36097116.936   187967160.097        -187.470          37.000  
C19  22499759.890   117162018.826        -120.231          26.000  
C22  23201586.926   120816750.862        2853.239          38.000  
C29  24717880.517   128712407.743       -2433.735          21.000  
C35  21632215.379   112644530.895         -83.054          30.000  
C38  36016825.021   187548931.008         257.932          40.000  
E24  26930548.819   141520853.075        1225.317          35.000  
E26  25223784.487   132551750.826       -1532.042          32.000  
E31  24975220.565   131245442.221       -1373.666          41.000  
E33  23615174.305   124098577.178         193.184          34.000  
G06  20838078.648   109504791.075        -658.516          32.000  
G09  22174077.056   116525571.974         505.862          37.000  
G11  21104774.319   110906368.720        1105.893          25.000  
G12  22400988.768   117717916.295        -251.170          37.000  
G17  23182368.430   121824102.966       -2877.912          24.000  
G19  20748903.583   109036020.917       -2145.019          34.000  
G20  21371160.903   112306138.365        2138.598          40.000  
G25  23743633.575   124773467.533        1395.828          22.000  
J02  37531516.222   197229409.485        -233.683          25.000  
J03  39187442.948   205931206.567         338.989          31.000  
> 2025 04 09 08 14 23.9994634  0 20                     
C10  36097152.087   187967335.052        -189.823          37.000  
C19  22499781.850   117162125.495        -119.697          26.000  
C22  23201038.680   120813888.758        2847.722          38.000  
C29  24718360.260   128714829.727       -2436.157          23.000  
C35  21632228.945   112644599.820         -80.183          29.000  
C38  36016772.932   187548661.015         257.130          40.000  
E24  26930313.557   141519609.121        1231.985          35.000  
E26  25224074.761   132553268.672       -1530.209          32.000  
E31  24975478.461   131246804.154       -1375.161          40.000  
E33  23615137.505   124098366.645         198.681          34.000  
G06  20838201.338   109505435.172        -655.023          32.000  
G09  22173977.000   116525053.841         506.594          37.000  
G11  21104562.740   110905249.355        1119.682          25.000  
G12  22401033.512   117718153.062        -248.623          37.000  
G17  23182915.327   121826970.610       -2893.446          25.000  
G19  20749313.174   109038156.108       -2149.623          34.000  
G20  21370753.560   112303989.710        2135.596          40.000  
G25  23743370.731   124772059.975        1394.557          22.000  
J02  37531563.664   197229634.756        -244.627          27.000  
J03  39187378.268   205930855.082         339.345          31.000  
> 2025 04 09 08 14 25.0004023  0 20                     
C10  36097205.675   187967605.018        -189.673          38.000  
C19  22499819.249   117162325.568        -119.724          26.000  
C22  23200508.872   120811121.997        2842.141          38.000  
C29  24718851.845   128717349.472       -2439.898          24.000  
C35  21632258.849   112644759.949         -79.668          29.000  
C38  36016740.180   187548483.944         257.160          40.000  
E24  26930091.636   141518450.533        1238.290          34.000  
E26  25224380.775   132554877.483       -1526.908          32.000  
E31  24975758.092   131248260.338       -1374.954          40.000  
E33  23615114.347   124098245.956         201.867          34.000  
G06  20838344.864   109506169.689        -651.200          30.000  
G09  22173895.981   116524629.943         504.275          37.000  
G11  21104361.505   110904210.826        1119.158          26.000  
G12  22401095.794   117718482.557        -246.126          38.000  
G17  23183482.759   121829950.695       -2897.751          24.000  
G19  20749740.603   109040389.708       -2152.344          34.000  
G20  21370363.755   112301934.634        2134.034          40.000  
G25  23743123.927   124770746.3611       1393.117          17.000  
J02  37531633.141   197229966.211        -252.070          26.000  
J03  39187329.626   205930595.860         341.255          29.000  
> 2025 04 09 08 14 26.0003412  0 20                     
C10  36097240.563   187967778.200        -190.767          38.000  
C19  22499840.347   117162431.045        -121.138          25.000  
C22  23199961.563   120808269.391        2833.943          38.000  
C29  24719319.634   128719775.502       -2444.292          22.000  
C35  21632272.452   112644823.939         -80.152          31.000  
C38  36016689.927   187548212.894         256.560          39.000  
E24  26929852.813   141517191.875        1243.052          34.000  
E26  25224671.086   132556387.341       -1526.506          29.000  
E31  24976018.425   131249622.996       -1376.888          40.000  
E33  23615076.685   124098026.385         204.610          34.000  
G06  20838465.793   109506803.234        -649.121          28.000  
G09  22173796.862   116524110.627         504.662          37.000  
G11  21104145.167   110903075.821        1121.968          27.000  
G12  22401141.775   117718711.706        -245.206          38.000  
G17  23184032.990   121832832.831       -2901.484          23.000  
G19  20750149.033   109042528.309       -2158.888          34.000  
G20  21369956.749   112299787.193        2130.560          40.000  
G25  23742862.321   124769340.6121       1365.579          19.000  
J02  37531681.520   197230206.394        -260.721          24.000  
J03  39187262.585   205930240.212         339.982          28.000  
> 2025 04 09 08 14 27.0002801  0 20                     
C10  36097274.627   187967956.287        -190.969          38.000  
C19  22499863.319   117162537.528        -121.872          26.000  
C22  23199416.728   120805424.167        2832.270          39.000  
C29  24719786.898   128722208.9501      -2448.907          20.000  
C35  21632284.631   112644889.268         -77.782          33.000  
C38  36016639.150   187547944.065         257.267          39.000  
E24  26929613.766   141515929.794        1249.609          32.000  
E26  25224960.873   132557897.916       -1523.493          25.000  
E31  24976278.532   131250986.815       -1377.587          40.000  
E33  23615030.405   124097805.645         207.716          35.000  
G06  20838586.497   109507435.819        -646.147          27.000  
G09  22173697.818   116523592.938         504.700          38.000  
G11  21103931.302   110901938.587        1126.229          22.000  
G12  22401184.533   117718942.542        -244.293          39.000  
G17  23184583.597   121835723.277       -2905.941          22.000  
G19  20750559.337   109044674.699       -2160.395          35.000  
G20  21369549.819   112297643.626        2130.150          39.000  
G25  23742606.186   124768237.4851       1362.751          19.000  
J02  37531733.572   197230456.689        -269.058          23.000  
J03  39187195.619   205929887.073         339.803          24.000  
> 2025 04 09 08 14 28.0002191  0 20                     
C10  36097340.469   187968288.546        -192.876          38.000  
C19  22499918.068   117162801.763        -121.944          28.000  
C22  23198901.872   120802736.227        2826.320          39.000  
C29  24720285.940   128724800.405       -2453.386          20.000  
C35  21632327.389   112645107.070         -78.460          34.000  
C38  36016619.551   187547829.221         255.209          38.000  
E24  26929405.898   141514819.533        1252.174          28.000  
E26  25225279.740   132559563.2891      -1521.070          19.000  
E31  24976572.216   131252772.522       -1377.402          40.000  
E33  23615022.198   124097738.203         210.142          36.000  
G06  20838738.379   109508222.165        -645.211          25.000  
G09  22173630.852   116523233.182         500.872          39.000  
G11  21103746.218   110900953.804        1129.404          21.000  
G12  22401257.270   117719329.183        -244.507          40.000  
G17  23185163.883   121838771.150       -2911.029          23.000  
G19  20750999.020   109046977.207       -2162.168          35.000  
G20  21369172.267   112295657.549        2129.138          39.000  
G25  23742380.929   124767019.3681       1359.601          19.000  
J02  37531815.602   197230872.067        -275.072          27.000  
J03  39187159.531   205929690.431         339.791          21.000  
> 2025 04 09 08 14 29.0001580  0 20                     
C10  36097376.631   187968467.517        -192.680          38.000  
C19  22499942.239   117162907.408        -123.259          29.000  
C22  23198358.236   120799897.838        2822.640          39.000  
C29  24720751.705   128727239.5691      -2457.206          17.000  
C35  21632340.767   112645170.691         -77.858          34.000  
C38  36016566.975   187547559.751         255.390          39.000  
E24  26929168.350   141513550.672        1255.578          22.000  
E26  25225569.227   132561067.391       -1523.301          26.000  
E31  24976832.624   131254135.442       -1379.205          40.000  
E33  23614978.615   124097511.041         212.447          35.000  
G06  20838858.783   109508853.329        -645.220          26.000  
G09  22173534.506   116522719.300         496.902          33.000  
G11  21103528.156   110899808.400        1132.344          20.000  
G12  22401300.327   117719556.706        -240.543          39.000  
G17  23185711.791   121841669.569       -2916.371          23.000  
G19  20751410.822   109049399.426       -2167.387          34.000  
G20  21368766.236   112293514.500        2128.578          39.000  
G25  23742121.197   124765646.9121       1356.354          20.000  
J02  37531867.953   197231132.900        -278.360          30.000  
J03  39187094.364   205929335.822         339.924          20.000  
> 2025 04 09 08 14 30.0000969  0 20                     
C10  36097412.569   187968647.865        -193.766          38.000  
C19  22499964.086   117163019.342        -125.313          30.000  
C22  23197817.073   120797064.889        2818.608          39.000  
C29  24721208.851   128729683.8451      -2451.623          16.000  
C35  21632356.918   112645234.743         -78.451          33.000  
C38  36016517.471   187547291.817         255.430          38.000  
E24  26928926.380   141512281.7881       1274.005          19.000  
E26  25225854.892   132562575.401       -1520.641          31.000  
E31  24977093.406   131255499.590       -1378.140          40.000  
E33  23614935.108   124097283.390         214.549          35.000  
G06  20838980.761   109509482.626        -645.430          28.000  
G09  22173440.034   116522212.335         492.516          27.000  
G11  21103309.570   110898661.387        1135.523          20.000  
G12  22401344.060   117719782.460        -239.392          38.000  
G17  23186258.275   121844574.723       -2922.120          26.000  
G19  20751822.100   109051553.210       -2169.805          32.000  
G20  21368360.579   112291374.840        2126.017          40.000  
G25  23741861.539   124764279.269        1353.978          21.000  
J02  37531921.279   197231399.417        -280.631          32.000  
J03  39187029.272   205928982.0591        363.933          18.000  
> 2025 04 09 08 14 31.0000359  0 18                     
C10  36097478.186   187968982.664        -194.542          37.000  
C19  22500017.712   117163286.423        -128.269          31.000  
C22  23197303.491   120794390.825        2814.216          39.000  
C29  24721707.068   128732277.4291      -2447.562          15.000  
C35  21632400.651   112645456.115         -79.217          33.000  
C38  36016496.748   187547179.474         254.016          38.000  
E24  26928716.188   141511150.8591       1275.857          14.000  
E26  25226173.234   132564240.040       -1524.463          33.000  
E31  24977382.068   131257020.948       -1378.605          39.000  
E33  23614921.280   124097211.756         215.239          35.000  
G06  20839131.819   109510273.522        -646.371          26.000  
G09  22173372.244   116521861.581         494.294          34.000  
G12  22401416.872   117720165.111        -239.177          36.000  
G19  20752263.057   109053868.837       -2174.426          32.000  
G20  21367984.302   112289392.270        2128.367          42.000  
G25  23741638.156   124763070.539        1350.075          21.000  
J02  37532003.085   197231823.748        -285.875          34.000  
J03  39186991.161   205929028.4211        364.116          18.000  
> 2025 04 09 08 14 31.9999748  0 20                     
C10  36097513.411   187969160.385        -193.623          36.000  
C19  22500041.845   117163398.369        -128.684          31.000  
C22  23196760.717   120791560.454        2813.983          38.000  
C29  24722177.593   128734710.3181      -2462.321          15.000  
C35  21632412.792   112645517.375         -78.740          32.000  
C38  36016444.734   187546908.997         255.523          38.000  
E24  26928481.900   141510127.8581       1281.094          14.000  
E26  25226462.683   132565745.968       -1524.029          33.000  
E31  24977641.539   131258380.293       -1377.038          38.000  
E33  23614881.258   124096978.282         216.945          34.000  
G06  20839252.186   109510899.519        -644.083          28.000  
G09  22173275.561   116521350.098         494.198          37.000  
G11  21102903.764   110896507.6471       1133.383          30.000  
G12  22401458.993   117720382.880        -233.197          38.000  
G17  23187381.710   121850554.7531      -2932.904          28.000  
G19  20752675.122   109056027.448       -2177.704          34.000  
G20  21367577.334   112287249.277        2124.851          43.000  
G25  23741381.084   124761705.777        1346.528          20.000  
J02  37532054.799   197232093.734        -286.504          34.000  
J03  39186922.358   205928648.0921        363.887          17.000  
> 2025 04 09 08 14 32.9999137  0 20                     
C10  36097548.562   187969339.809        -194.536          37.000  
C19  22500065.604   117163510.973        -134.757          31.000  
C22  23196219.666   120788733.836        2812.383          36.000  
C29  24722650.740   128737159.5881      -2465.092          12.000  
C35  21632427.857   112645583.242         -80.629          33.000  
C38  36016395.643   187546639.727         255.487          37.000  
E24  26928247.537   141508831.2661       1285.141          15.000  
E26  25226751.758   132567255.446       -1524.010          32.000  
E31  24977905.131   131259739.461       -1375.255          37.000  
E33  23614838.163   124096746.190         218.406          35.000  
G06  20839372.777   109511527.543        -642.436          29.000  
G09  22173179.402   116520842.248         492.289          38.000  
G11  21102687.688   110895359.340        1135.190          26.000  
G12  22401504.336   117720599.494        -232.879          36.000  
G17  23187939.399   121853474.596       -2922.831          22.000  
G19  20753088.011   109058188.987       -2177.875          34.000  
G20  21367170.291   112285108.677        2126.888          43.000  
G25  23741121.239   124760347.4821       1343.110          15.000  
J02  37532107.937   197232367.318        -288.922          33.000  
J03  39186853.781   205928270.5101        363.840          17.000  
> 2025 04 09 08 14 33.9998527  0 20                     
C10  36097615.004   187969679.349        -196.657          36.000  
C19  22500120.653   117163787.767        -130.348          32.000  
C22  23195709.907   120786068.134        2809.699          35.000  
C29  24723153.979   128739767.8251      -2465.366          18.000  
C35  21632471.214   112645806.807         -79.922          34.000  
C38  36016376.644   187546530.042         253.847          36.000  
E24  26928041.168   141507690.9661       1287.750          15.000  
E26  25227070.325   132568925.627       -1519.063          28.000  
E31  24978195.817   131261260.942       -1377.593          37.000  
E33  23614824.560   124096674.237         217.065          35.000  
G06  20839524.060   109512317.289        -643.921          30.000  
G09  22173115.734   116520496.900         489.095          37.000  
G11  21102499.606   110894370.694        1134.418          25.000  
G12  22401580.371   117720978.952        -234.073          30.000  
G17  23188526.580   121856544.745       -2926.583          21.000  
G19  20753530.992   109060514.270       -2180.700          35.000  
G20  21366795.138   112283128.726        2125.840          44.000  
G25  23740894.783   124759152.3361       1339.434          14.000  
J02  37532193.266   197232801.397        -292.556          31.000  
J03  39186815.295   205928052.3621        364.261          18.000  
> 2025 04 09 08 14 34.9997916  0 19                     
C10  36097648.955   187969857.582        -195.293          36.000  
C19  22500146.810   117164168.661        -130.965          33.000  
C22  23195167.057   120783243.867        2809.770          34.000  
C29  24723622.930   128742215.9241      -2434.819          19.000  
C35  21632485.080   112645871.232         -81.761          34.000  
C38  36016324.255   187546261.499         253.435          36.000  
E26  25227365.096   132570698.576       -1518.381          24.000  
E31  24978460.609   131262624.854       -1381.162          32.000  
E33  23614781.464   124096441.595         218.122          35.000  
G06  20839645.251   109512944.789        -644.331          30.000  
G09  22173023.173   116519991.179         502.812          32.000  
G11  21102280.533   110893221.616        1133.627          25.000  
G12  22401623.916   117721197.888        -234.935          24.000  
G17  23189082.470   121859457.9341      -2930.476          17.000  
G19  20753942.682   109062680.085       -2181.159          35.000  
G20  21366389.594   112280988.156        2126.267          42.000  
G25  23740639.735   124757799.4441       1335.950          13.000  
J02  37532247.004   197233078.240        -292.312          31.000  
J03  39186749.415   205927673.7451        343.759          18.000  
> 2025 04 09 08 14 35.9997306  0 18                     
C10  36097715.097   187970195.936        -194.944          36.000  
C19  22500203.658   117164441.510        -131.748          32.000  
C22  23194656.998   120780577.857        2810.182          34.000  
C29  24724121.072   128744793.2571      -2434.896          19.000  
C35  21632531.135   112646095.486         -79.483          34.000  
C38  36016304.356   187546150.524         254.681          36.000  
E26  25227686.061   132572363.324       -1526.243          27.000  
E31  24978610.393   131263483.519       -1321.972          25.000  
E33  23614769.061   124096367.575         218.458          35.000  
G06  20839796.834   109513733.181        -644.557          30.000  
G09  22172962.802   116519626.342         495.376          31.000  
G11  21102094.249   110892232.488        1134.018          26.000  
G12  22401694.555   117721574.845        -234.197          36.000  
G17  23189669.051   121862532.432       -2935.211          28.000  
G19  20754386.862   109065004.675       -2179.602          35.000  
G20  21366015.041   112279006.897        2124.868          36.000  
J02  37532331.133   197233515.115        -292.114          31.000  
J03  39186722.322   205927476.960         335.736          27.000  
> 2025 04 09 08 14 36.9996695  0 18                     
C10  36097753.133   187970375.537        -196.259          37.000  
C19  22500224.906   117164557.973        -132.415          33.000  
C22  23194116.735   120777751.989        2811.081          35.000  
C29  24724594.707   128747211.0111      -2436.016          19.000  
C35  21632541.890   112646157.299         -79.430          35.000  
C38  36016253.654   187545880.371         255.085          36.000  
E26  25227969.927   132573873.623       -1524.900          31.000  
E31  24978860.082   131264788.177       -1322.898          20.000  
E33  23614726.453   124096133.114         218.416          35.000  
G06  20839917.613   109514359.833        -644.102          31.000  
G09  22172865.032   116519119.048         490.959          38.000  
G11  21101875.963   110891082.794        1134.079          25.000  
G12  22401737.088   117721793.470        -237.467          38.000  
G17  23190224.529   121865453.269       -2935.310          33.000  
G19  20754801.138   109067166.100       -2179.688          36.000  
G20  21365610.283   112276867.517        2122.951          29.000  
J02  37532385.358   197233789.840        -290.883          31.000  
J03  39186660.827   205927127.470         332.243          25.000  
> 2025 04 09 08 14 37.9996084  0 19                     
C10  36097789.183   187970558.095        -194.344          37.000  
C19  22500248.365   117164679.517        -136.087          32.000  
C22  23193573.885   120774929.745        2811.832          34.000  
C29  24725064.257   128749897.2031      -2435.917          19.000  
C35  21632555.756   112646226.645         -82.336          35.000  
C38  36016203.963   187545614.859         256.429          36.000  
E24  26927036.563   141502531.9161       1278.836           9.000  
E26  25228252.407   132575386.145       -1525.929          29.000  
E31  24979112.583   131266099.1051      -1326.639          16.000  
E33  23614683.058   124095903.114         218.732          35.000  
G06  20840038.804   109514990.729        -644.205          29.000  
G09  22172768.574   116518618.814         487.891          37.000  
G11  21101656.889   110889936.560        1134.646          27.000  
G12  22401780.632   117722017.821        -235.230          38.000  
G17  23190781.319   121868374.983       -2932.658          32.000  
G19  20755215.226   109069334.110       -2181.218          36.000  
G20  21365202.940   112274730.287        2126.770          42.000  
J02  37532439.395   197234064.679        -286.462          29.000  
J03  39186595.247   205926785.517         329.249          23.000  
> 2025 04 09 08 14 38.9995474  0 19                     
C10  36097853.976   187970892.901        -194.568          36.000  
C19  22500300.566   117164953.070        -131.849          32.000  
C22  23193062.177   120772258.748        2812.539          32.000  
C29  24725561.650   128752471.3261      -2435.202          10.000  
C35  21632599.563   112646448.354         -81.921          36.000  
C38  36016182.716   187545500.135         254.948          36.000  
E24  26926824.947   141501394.6821       1269.365          10.000  
E26  25228573.822   132577055.584       -1528.084          26.000  
E31  24979395.924   131267568.1941      -1328.779          15.000  
E33  23614667.206   124095827.987         217.055          35.000  
G06  20840190.536   109515776.982        -644.818          24.000  
G09  22172703.257   116518273.522         488.344          35.000  
G11  21101471.056   110888944.013        1134.359          27.000  
G12  22401853.819   117722396.023        -238.210          38.000  
G17  23191371.348   121871446.709       -2928.631          27.000  
G19  20755659.556   109071654.838       -2179.853          36.000  
G20  21364825.839   112272747.068        2125.449          43.000  
J02  37532522.475   197234492.663        -287.297          30.000  
J03  39186558.410   205926593.568         346.238          24.000  
> 2025 04 09 08 14 39.9994863  0 19                     
C10  36097889.651   187971073.938        -196.480          37.000  
C19  22500325.749   117165071.751        -135.813          30.000  
C22  23192520.152   120769432.334        2812.287          31.000  
C29  24726026.628   128754892.2191      -2437.072          14.000  
C35  21632616.351   112646514.710         -83.859          36.000  
C38  36016133.550   187545231.957         254.658          36.000  
E24  26926592.908   141500111.7811       1266.396          17.000  
E26  25228866.119   132578569.321       -1530.194          21.000  
E31  24979652.247   131268881.6041      -1330.149           9.000  
E33  23614624.935   124095598.174         215.428          35.000  
G06  20840310.753   109516408.073        -646.932          26.000  
G09  22172608.822   116517772.819         484.670          32.000  
G11  21101251.607   110887796.976        1131.437          27.000  
G12  22401898.488   117722620.828        -241.627          34.000  
G17  23191927.163   121874357.834       -2923.652          24.000  
G19  20756073.269   109073820.574       -2182.672          36.000  
G20  21364419.620   112270607.541        2125.283          44.000  
J02  37532575.239   197234764.479        -287.865          29.000  
J03  39186490.357   205926231.331         350.756          20.000  
> 2025 04 09 08 14 41.0004252  0 19                     
C10  36097944.663   187971349.711        -194.610          38.000  
C19  22500378.062   117165286.129        -129.968          25.000  
C22  23191995.965   120766699.243        2813.335          28.000  
C29  24726432.397   128757021.7281      -2441.325          17.000  
C35  21632649.179   112646683.403         -86.368          37.000  
C38  36016101.921   187545058.656         255.527          36.000  
E24  26926372.110   141498926.8641       1265.184          15.000  
E26  25229174.756   132580183.679       -1533.824          23.000  
E31  24979924.908   131270297.0791      -1331.740           9.000  
E33  23614603.500   124095467.334         213.648          34.000  
G06  20840451.506   109517139.865        -650.638          30.000  
G09  22172540.620   116517355.545         521.887          32.000  
G11  21101051.796   110886748.468        1130.410          30.000  
G12  22401966.391   117722943.863        -238.634          28.000  
G17  23192502.615   121877362.766       -2920.451          22.000  
G19  20756505.720   109076087.266       -2181.155          38.000  
G20  21364031.539   112268561.164        2131.149          45.000  
J02  37532646.140   197235134.486        -287.230          24.000  
J03  39186439.842   205925960.075         356.943          21.000  
> 2025 04 09 08 14 42.0003641  0 17                     
C10  36097981.050   187971530.108        -190.254          37.000  
C19  22500397.362   117165406.509        -139.710          36.000  
C22  23191452.854   120763872.124        2818.877          33.000  
C29  24726917.574   128759450.9621      -2441.965          16.000  
C35  21632663.681   112646754.857         -84.123          37.000  
C38  36016048.971   187544790.552         257.618          34.000  
E24  26926132.389   141497648.7221       1270.870          12.000  
E26  25229463.269   132581705.367       -1535.110          30.000  
E31  24980177.446   131271614.1831      -1322.275           9.000  
E33  23614564.040   124095242.070         214.604          34.000  
G09  22172447.497   116516808.363         544.483          30.000  
G11  21100834.858   110885606.051        1130.984          28.000  
G12  22402009.374   117723168.047        -234.142          35.000  
G17  23193056.444   121880274.649       -2935.486          30.000  
G19  20756920.445   109078256.604       -2181.660          37.000  
G20  21363624.233   112266417.223        2134.253          45.000  
J02  37532700.515   197235671.875        -283.499          22.000  
> 2025 04 09 08 14 43.0003031  0 19                     
C10  36098045.730   187971859.925        -190.732          36.000  
C19  22500447.052   117165689.148        -141.415          38.000  
C22  23190942.232   120761193.505        2818.564          35.000  
C29  24727451.129   128762326.678       -2422.698          21.000  
C35  21632709.474   112646980.133         -85.713          37.000  
C38  36016026.711   187544672.665         259.224          31.000  
E24  26925918.562   141496519.2351       1269.281          14.000  
E26  25229780.974   132583383.819       -1537.789          34.000  
E31  24980459.775   131273077.6691      -1323.529           8.000  
E33  23614548.076   124095169.440         214.528          33.000  
G06  20840725.553   109518571.2121       -652.828          39.000  
G09  22172378.169   116516409.013         532.989          30.000  
G11  21100647.113   110884615.935        1132.133          25.000  
G12  22402081.849   117723540.649        -232.635          37.000  
G17  23193642.163   121883348.593       -2931.816          31.000  
G19  20757364.363   109080576.564       -2174.384          34.000  
G20  21363246.720   112264427.255        2129.628          40.000  
J02  37532784.681   197236092.389        -279.251          24.000  
J03  39186342.447   205925399.9011        332.325          29.000  
> 2025 04 09 08 14 44.0002420  0 18                     
C10  36098082.380   187972039.959        -193.537          35.000  
C19  22500475.308   117165818.708        -145.101          39.000  
C22  23190401.182   120758364.622        2816.230          36.000  
C29  24727930.872   128764736.7341      -2423.287          18.000  
C35  21632724.839   112647054.096         -87.942          37.000  
C38  36015978.220   187544402.422         257.711          31.000  
E24  26925682.700   141495238.0401       1267.069          18.000  
E26  25230076.644   132584909.564       -1539.571          36.000  
E31  24980713.175   131274390.0651      -1325.080           7.000  
E33  23614507.379   124094943.998         213.069          33.000  
G06  20840848.843   109519211.093        -654.648          40.000  
G11  21100431.338   110883471.534        1132.480          23.000  
G12  22402119.998   117723762.033        -236.484          38.000  
G17  23194199.252   121886259.954       -2916.401          27.000  
G19  20757778.751   109082732.308       -2162.448          30.000  
G20  21362842.075   112262289.602        2122.383          33.000  
J02  37532836.321   197236358.857        -280.995          24.000  
J03  39186277.767   205925059.642         326.231          30.000  
> 2025 04 09 08 14 45.0001809  0 19                     
C10  36098116.144   187972215.151        -191.630          35.000  
C19  22500500.078   117165948.031        -145.370          39.000  
C22  23189856.946   120755533.792        2816.304          37.000  
C29  24728394.239   128767142.1001      -2423.557          18.000  
C35  21632740.915   112647125.984         -88.907          37.000  
C38  36015925.943   187544129.081         256.798          30.000  
E24  26925440.955   141493954.9031       1265.855          17.000  
E26  25230369.129   132586433.848       -1539.969          36.000  
E31  24981170.845   131276939.022       -1375.428          34.000  
E33  23614464.696   124094715.673         212.371          32.000  
G06  20840971.945   109519850.043        -655.709          40.000  
G09  22172192.860   116515409.9001        471.954          40.000  
G11  21100213.876   110882323.131        1132.097          22.000  
G12  22402166.053   117723983.208        -237.296          37.000  
G17  23194754.655   121889148.787       -2897.776          24.000  
G19  20758190.254   109084889.524       -2187.198          33.000  
G20  21362436.943   112260151.168        2134.712          31.000  
J02  37532889.571   197236624.888        -283.457          25.000  
J03  39186213.799   205924716.947         328.628          32.000  
> 2025 04 09 08 14 46.0001199  0 20                     
C10  36098181.686   187972550.418        -193.061          34.000  
C19  22500557.526   117166235.600        -146.681          39.000  
C22  23189345.688   120752860.810        2815.718          37.000  
C29  24728896.579   128769707.5651      -2422.277          14.000  
C35  21632785.772   112647356.540         -90.597          37.000  
C38  36015904.246   187544014.955         257.538          31.000  
E24  26925232.487   141492832.880        1265.329          20.000  
E26  25230692.792   132588116.577       -1541.328          36.000  
E31  24981457.934   131278458.149       -1371.486          35.000  
E33  23614451.693   124094647.610         212.545          32.000  
G06  20841125.926   109520649.568        -657.052          40.000  
G09  22172131.890   116515083.324         469.101          41.000  
G11  21100029.691   110881335.749        1131.361          23.000  
G12  22402239.390   117724363.409        -237.904          36.000  
G17  23195337.939   121892182.491       -2880.707          21.000  
G19  20758636.832   109087225.266       -2192.634          34.000  
G20  21362057.593   112258163.334        2130.663          42.000  
G25  23737491.914   124741361.5011       1449.488          26.000  
J02  37532972.801   197237052.154        -284.620          28.000  
J03  39186180.110   205924532.942         329.249          33.000  
> 2025 04 09 08 14 47.0000588  0 20                     
C10  36098218.523   187972729.709        -192.853          34.000  
C19  22500583.270   117166369.074        -146.627          38.000  
C22  23188803.326   120750031.553        2816.211          37.000  
C29  24729366.316   128772113.7981      -2422.477          13.000  
C35  21632800.724   112647432.880         -89.524          37.000  
C38  36015854.743   187544006.376         256.198          30.000  
E24  26924994.114   141491552.553        1265.573          24.000  
E26  25230980.556   132589644.263       -1542.357          36.000  
E31  24981711.821   131279814.084       -1371.562          35.000  
E33  23614407.886   124094421.107         212.139          32.000  
G06  20841249.403   109521291.190        -656.210          40.000  
G09  22172040.416   116514599.477         470.451          40.000  
G11  21099813.203   110880190.797        1130.519          23.000  
G12  22402284.021   117724587.284        -238.959          34.000  
G17  23195895.516   121895040.758       -2893.993          23.000  
G19  20759052.307   109089399.597       -2186.584          33.000  
G20  21361648.938   112256017.126        2132.475          43.000  
G25  23737214.568   124739897.368        1448.303          25.000  
J02  37533026.726   197237322.378        -283.331          28.000  
J03  39186113.818   205924189.548         329.602          31.000  
> 2025 04 09 08 14 47.9999977  0 20                     
C10  36098254.049   187972908.099        -193.292          34.000  
C19  22500611.601   117166500.324        -146.458          38.000  
C22  23188260.551   120747201.302        2818.549          36.000  
C29  24729833.243   128774521.9881      -2372.401          12.000  
C35  21632817.662   112647507.009         -89.516          37.000  
C38  36015802.729   187543737.235         257.153          31.000  
E24  26924749.634   141490275.015        1262.488          29.000  
E26  25231277.800   132591172.013       -1540.013          29.000  
E31  24981975.788   131281174.577       -1372.387          35.000  
E33  23614369.362   124094196.947         211.211          33.000  
G06  20841372.768   109521933.781        -657.595          40.000  
G09  22171950.028   116514383.266         469.080          39.000  
G11  21099598.702   110879047.553        1129.568          22.000  
G12  22402332.438   117724813.300        -244.181          29.000  
G17  23196452.380   121898179.444       -2879.918          22.000  
G19  20759467.070   109091569.961       -2183.764          34.000  
G20  21361241.970   112253872.037        2131.724          43.000  
G25  23736933.513   124738435.383        1447.022          25.000  
J02  37533076.642   197237589.589        -281.990          28.000  
J03  39186049.512   205923845.304         332.016          31.000  
> 2025 04 09 08 14 48.9999367  0 19                     
C10  36098316.743   187973239.705        -190.896          33.000  
C19  22500668.599   117166785.877        -146.500          38.000  
C22  23187751.841   120744522.169        2822.261          30.000  
C35  21632862.968   112647738.501         -90.263          37.000  
C38  36015779.382   187543619.756         259.253          29.000  
E24  26924534.720   141489154.710        1262.209          29.000  
E26  25231597.416   132592849.842       -1533.557          24.000  
E31  24982263.626   131282686.936       -1369.976          35.000  
E33  23614355.609   124094128.490         211.075          32.000  
G06  20841525.699   109522731.281        -657.662          41.000  
G09  22171889.208   116514052.311         471.426          36.000  
G11  21099411.069   110878060.829        1128.449          22.000  
G12  22402409.222   117725202.929        -234.668          24.000  
G17  23197029.818   121901193.651       -2865.312          21.000  
G19  20759910.201   109093894.600       -2185.572          34.000  
G20  21360865.468   112251880.716        2134.827          42.000  
G25  23736685.922   124737130.783        1444.833          27.000  
J02  37533157.623   197238011.549        -279.389          27.000  
J03  39186016.573   205923655.154         331.915          31.000  
> 2025 04 09 08 14 49.9998756  0 19                     
C10  36098354.891   187973416.929        -191.584          34.000  
C19  22500694.156   117166921.801        -148.365          37.000  
C22  23187214.388   120741683.295        2829.766          26.000  
C29  24731029.527   128780959.7671      -2476.781          17.000  
C35  21632880.131   112648082.873         -93.150          38.000  
C38  36015729.392   187543347.689         257.797          30.000  
E24  26924297.659   141487881.123        1254.303          29.000  
E26  25231896.384   132594369.5281      -1514.913          19.000  
E31  24982520.623   131284043.406       -1368.915          35.000  
E33  23614314.613   124093907.502         206.849          32.000  
G06  20841650.188   109523377.397        -662.722          41.000  
G09  22171800.544   116513574.130         464.002          33.000  
G11  21099198.291   110876919.462        1126.771          22.000  
G12  22402449.170   117725428.003        -246.591          35.000  
G19  20760324.289   109096065.635       -2184.393          36.000  
G20  21360457.525   112249733.998        2131.970          43.000  
G25  23736411.986   124735676.399        1435.543          28.000  
J02  37533210.761   197238275.033        -274.192          28.000  
J03  39185952.792   205923310.120         330.010          32.000  
> 2025 04 09 08 14 50.9998145  0 19                     
C10  36098386.894   187973593.016        -188.692          33.000  
C19  22500720.763   117167052.514        -143.910          37.000  
C22  23186665.393   120738837.164        2833.948          36.000  
C29  24731499.227   128783421.2441      -2470.044          16.000  
C35  21632895.046   112648159.283         -91.512          37.000  
C38  36015678.952   187543075.299         258.329          29.000  
E24  26924057.450   141486877.136        1251.048          26.000  
E26  25232194.603   132595868.4421      -1517.074          20.000  
E31  24982786.464   131285397.817       -1369.727          31.000  
E33  23614274.965   124093688.067         204.354          32.000  
G06  20841774.227   109524024.896        -662.533          40.000  
G09  22171710.831   116513090.512         477.419          27.000  
G11  21098985.364   110875779.028        1125.942          21.000  
G12  22402491.665   117725659.066        -248.627          37.000  
G19  20760737.628   109098228.745       -2174.527          35.000  
G20  21360049.433   112247584.407        2136.561          42.000  
G25  23736136.702   124734230.160        1424.513          28.000  
J02  37533259.253   197238529.075        -256.274          27.000  
J03  39185887.062   205922963.897         334.099          32.000  
> 2025 04 09 08 14 51.9997535  0 19                     
C10  36098451.087   187973925.747        -189.980          32.000  
C19  22500777.461   117167340.783        -143.068          38.000  
C22  23186144.091   120736146.366        2839.761          38.000  
C29  24731985.528   128786036.7721      -2470.159          14.000  
C35  21632942.451   112648394.022         -91.372          37.000  
C38  36015657.104   187542961.571         259.720          30.000  
E24  26923849.132   141485776.215        1240.184          21.000  
E26  25232513.919   132597533.2611      -1527.673          15.000  
E31  24983085.695   131286916.906       -1373.509          25.000  
E33  23614265.409   124093634.515         200.781          32.000  
G06  20841928.658   109524834.968        -664.208          41.000  
G09  22171652.110   116512749.760         498.713          27.000  
G11  21098799.830   110874800.415        1123.638          22.000  
G12  22402567.850   117726059.340        -257.741          38.000  
G19  20761179.859   109100546.013       -2166.789          36.000  
G20  21359671.132   112245595.510        2135.347          41.000  
G25  23735896.906   124732958.295        1411.212          28.000  
J02  37533333.939   197238926.275        -249.276          28.000  
J03  39185852.924   205923046.834         337.964          33.000  
> 2025 04 09 08 14 52.9996924  0 20                     
C10  36098487.325   187974099.311        -188.998          34.000  
C19  22500803.206   117167465.730        -139.872          39.000  
C22  23185595.134   120733290.636        2843.707          38.000  
C29  24732436.678   128788494.1621      -2470.426          13.000  
C35  21632957.403   112648471.007         -92.413          37.000  
C38  36015605.503   187542688.732         256.974          29.000  
E24  26923611.659   141484525.474        1230.460          23.000  
E26  25232807.378   132599048.286       -1531.322          22.000  
E31  24983353.372   131288278.205       -1377.229          22.000  
E33  23614226.699   124093425.005         195.718          33.000  
G06  20842053.634   109525484.162        -666.681          42.000  
G09  22171560.036   116512229.075         494.896          24.000  
G11  21098589.038   110873666.298        1116.033          24.000  
G12  22402615.779   117726304.959        -263.227          36.000  
G17  23199470.129   121914038.1181      -2849.477          19.000  
G19  20761591.437   109102695.970       -2163.170          36.000  
G20  21359264.576   112243447.484        2131.576          35.000  
G25  23735627.055   124731536.304        1402.426          29.000  
J02  37533380.369   197239158.255        -243.232          27.000  
J03  39185787.531   205922693.891         339.050          33.000  
> 2025 04 09 08 14 53.9996313  0 20                     
C10  36098523.112   187974272.315        -189.442          37.000  
C19  22500826.402   117167589.273        -136.760          37.000  
C22  23185052.022   120730430.357        2847.430          35.000  
C29  24732912.261   128790948.7901      -2470.647          12.000  
C35  21632973.104   112648547.208         -90.898          38.000  
C38  36015558.248   187542416.481         257.225          34.000  
E24  26923381.831   141483284.581        1224.804          31.000  
E26  25233103.686   132600854.718       -1526.987          20.000  
E31  24983617.002   131289640.2871      -1376.882          19.000  
E33  23614187.838   124093215.446         195.480          32.000  
G06  20842178.760   109526134.524        -664.002          39.000  
G09  22171471.410   116511714.039         492.628          26.000  
G11  21098373.600   110872538.899        1108.191          23.000  
G12  22402663.559   117726552.987        -269.133          38.000  
G17  23199858.772   121916080.160       -2889.119          22.000  
G19  20762002.565   109104838.071       -2158.926          39.000  
G20  21358859.070   112241303.334        2127.256          29.000  
G25  23735359.153   124730120.071        1398.471          29.000  
J02  37533424.251   197239380.555        -235.670          24.000  
J03  39185722.589   205922337.947         342.463          31.000  
> 2025 04 09 08 14 54.9995703  0 20                     
C10  36098588.430   187974605.753        -192.371          38.000  
C19  22500882.726   117167868.973        -136.590          34.000  
C22  23184533.644   120727730.020        2842.169          38.000  
C29  24733416.475   128793562.0491      -2464.095          12.000  
C35  21633020.734   112648781.114         -90.065          34.000  
C38  36015537.225   187542303.840         254.630          39.000  
E24  26923175.536   141482208.893        1217.454          32.000  
E26  25233428.923   132602526.455       -1525.211          20.000  
E31  24983909.862   131291160.1991      -1379.863          14.000  
E33  23614180.605   124093166.533         193.658          35.000  
G06  20842334.614   109527207.415        -664.183          34.000  
G09  22171412.013   116511362.466         495.372          30.000  
G11  21098194.287   110871579.577        1100.460          26.000  
G12  22402744.165   117726969.376        -273.742          39.000  
G17  23200438.533   121919115.497       -2888.410          31.000  
G19  20762441.723   109107141.926       -2160.552          37.000  
G20  21358485.491   112239598.152        2138.642          25.000  
G25  23735122.879   124728867.166        1395.394          30.000  
J02  37533500.061   197239757.413        -230.378          23.000  
J03  39185686.276   205922138.992         345.211          28.000  
> 2025 04 09 08 14 55.9995092  0 20                     
C10  36098622.943   187974782.561        -193.093          38.000  
C19  22500906.147   117167985.337        -133.402          34.000  
C22  23183983.862   120724870.715        2844.789          35.000  
C29  24733887.186   128796009.3701      -2463.266          11.000  
C35  21633036.361   112648852.515         -90.603          31.000  
C38  36015486.597   187542033.830         254.453          41.000  
E24  26922939.937   141480978.294        1211.972          36.000  
E26  25233722.757   132604034.6041      -1522.811          16.000  
E31  24984177.314   131292524.636       -1381.604          21.000  
E33  23614142.569   124092957.558         192.162          36.000  
G06  20842459.965   109527852.547        -664.305          32.000  
G09  22171325.111   116510845.955         501.169          31.000  
G11  21097976.375   110870462.895        1100.559          35.000  
G12  22402793.369   117727229.040        -281.224          41.000  
G17  23200985.392   121921985.674       -2891.444          33.000  
G19  20762853.076   109109284.638       -2157.171          36.000  
G20  21358081.108   112237443.843        2133.222          23.000  
G25  23734853.403   124727457.036        1388.629          35.000  
J02  37533544.168   197239968.764        -240.804          26.000  
J03  39185618.561   205921776.857         346.400          37.000  
> 2025 04 09 08 14 56.9994481  0 20                     
C10  36098658.656   187974961.255        -195.405          40.000  
C19  22500929.868   117168101.432        -128.587          40.000  
C22  23183434.680   120722012.854        2843.652          33.000  
C29  24734359.996   128798458.6181      -2462.759          11.000  
C35  21633051.088   112648927.743         -88.767          30.000  
C38  36015437.169   187541767.786         251.836          42.000  
E24  26922713.631   141479756.332        1207.189          33.000  
E26  25234014.793   132605542.1651      -1524.174          16.000  
E31  24984441.469   131293893.035       -1386.117          24.000  
E33  23614103.934   124092753.546         190.500          32.000  
G06  20842583.517   109528502.374        -661.887          31.000  
G09  22171231.014   116510605.239         499.774          29.000  
G11  21097762.361   110869350.432        1097.802          39.000  
G12  22402845.870   117727499.496        -286.700          36.000  
G17  23201536.148   121924863.115       -2890.599          30.000  
G19  20763266.227   109111699.730       -2147.538          34.000  
G20  21357678.824   112235299.812        2125.674          25.000  
G25  23734586.325   124726057.992        1382.182          35.000  
J02  37533587.975   197240191.271        -237.103          30.000  
J03  39185549.346   205921414.505         350.807          39.000  
> 2025 04 09 08 14 58.0003870  0 20                     
C10  36098714.080   187975239.221        -195.687          39.000  
C19  22500971.502   117168308.747        -122.224          35.000  
C22  23182905.808   120719248.813        2842.127          36.000  
C29  24734849.520   128801005.7041      -2463.320          11.000  
C35  21633083.428   112649098.725         -87.251          34.000  
C38  36015406.553   187541598.880         249.696          43.000  
E24  26922498.342   141478635.744        1201.954          35.000  
E26  25234328.638   132607150.9171      -1523.909          16.000  
E31  24984712.443   131295367.022       -1396.701          21.000  
E33  23614085.609   124092646.984         189.447          27.000  
G06  20842726.481   109529245.224        -658.935          33.000  
G09  22171145.835   116510186.632         504.788          32.000  
G11  21097569.257   110868337.621        1094.305          43.000  
G12  22402920.181   117728140.126        -272.978          31.000  
G17  23202106.316   121927829.363       -2876.828          31.000  
G19  20763694.893   109113931.712       -2149.358          33.000  
G20  21357297.451   112233256.882        2124.593          30.000  
G25  23734341.357   124724758.879        1378.017          32.000  
J02  37533652.993   197240508.226        -228.692          27.000  
J03  39185499.843   205921144.880         355.021          35.000  
> 2025 04 09 08 14 59.0003259  0 19                     
C10  36098750.430   187975419.233        -199.445          38.000  
C19  22500995.260   117168415.519        -122.838          35.000  
C22  23182358.462   120716393.611        2840.445          33.000  
C29  24735319.370   128803454.9751      -2463.949          11.000  
C35  21633096.394   112649169.156         -86.908          37.000  
C38  36015358.061   187541335.636         247.402          43.000  
E24  26922269.376   141477424.081        1195.932          35.000  
E26  25234627.306   132608658.1591      -1521.226          18.000  
E31  24984981.732   131296750.7941      -1401.379          18.000  
E33  23614045.811   124092442.985         188.784          26.000  
G06  20842850.970   109529886.890        -655.720          35.000  
G09  22171047.578   116509663.330         510.373          33.000  
G11  21097359.477   110867230.324        1091.041          44.000  
G12  22402976.017   117728386.645        -256.384          30.000  
G17  23202674.198   121930684.808       -2874.724          31.000  
G19  20764104.185   109116064.321       -2148.419          29.000  
G25  23734078.814   124723368.061        1370.604          30.000  
J02  37533699.236   197240718.573        -239.579          25.000  
J03  39185429.467   205920773.801         356.114          33.000  
> 2025 04 09 08 15 00.0002649  0 20                     
C10  36098818.183   187975760.172        -199.940          38.000  
C19  22501048.323   117168679.931        -121.929          35.000  
C22  23181844.618   120713694.883        2842.049          33.000  
C29  24735820.323   128806060.7851      -2476.523          10.000  
C35  21633142.862   112649397.310         -86.824          38.000  
C38  36015339.175   187541231.149         247.308          43.000  
E24  26922073.012   141476374.308        1192.158          35.000  
E26  25234863.842   132610323.991       -1524.012          25.000  
E31  24985279.726   131298297.0831      -1404.706          17.000  
E33  23614036.518   124092397.449         188.545          29.000  
G06  20843005.662   109530685.235        -656.566          29.000  
G09  22170977.427   116509295.188         511.162          34.000  
G11  21097180.201   110866282.888        1089.259          44.000  
G12  22403057.561   117728786.716        -284.753          28.000  
G17  23203263.890   121933973.940       -2872.967          29.000  
G19  20764544.580   109118354.792       -2147.071          28.000  
G20  21356515.367   112229166.4921       2099.946          38.000  
G25  23733848.574   124722141.124        1370.188          30.000  
J02  37533774.783   197241096.415        -232.837          25.000  
J03  39185392.292   205920560.784         356.273          30.000  
> 2025 04 09 08 15 01.0002038  0 19                     
C10  36098854.421   187976207.354        -199.313          37.000  
C19  22501069.871   117168786.429        -121.233          34.000  
C22  23181300.457   120711114.478        2844.978          30.000  
C29  24736294.257   128808522.0051      -2476.891          10.000  
C35  21633159.013   112649467.914         -85.072          38.000  
C38  36015289.671   187540970.765         245.713          42.000  
E24  26921843.633   141475167.623        1192.440          33.000  
E26  25235159.700   132611832.0601      -1525.601          19.000  
E31  24985547.703   131299689.4041      -1409.952          18.000  
E33  23613999.906   124092194.523         189.050          29.000  
G06  20843130.339   109531326.778        -657.249          24.000  
G09  22170881.156   116508767.494         514.209          30.000  
G11  21096970.908   110865178.258        1089.524          44.000  
G17  23203806.776   121936834.555       -2876.422          33.000  
G19  20764950.162   109120484.982       -2147.306          31.000  
G20  21356111.809   112227050.666        2102.799          38.000  
G25  23733587.117   124720756.524        1367.869          28.000  
J02  37533817.017   197241313.512        -231.691          23.000  
J03  39185322.703   205920190.297         356.509          27.000  
> 2025 04 09 08 15 02.0001427  0 20                     
C10  36098892.644   187976393.932        -202.923          37.000  
C19  22501090.707   117168892.047        -118.708          34.000  
C22  23180761.580   120708246.280        2867.319          31.000  
C29  24736767.780   128810985.6791      -2477.049           9.000  
C35  21633174.452   112649537.421         -83.230          37.000  
C38  36015242.154   187540713.417         243.764          42.000  
E24  26921621.637   141473964.768        1184.017          27.000  
E26  25235449.449   132613345.5321      -1526.567          16.000  
E31  24985814.068   131301087.7201      -1414.971          17.000  
E33  23613957.785   124091990.997         190.636          28.000  
G06  20843254.902   109531969.5841       -656.239          20.000  
G09  22170782.674   116508240.632         513.925          26.000  
G11  21096762.103   110864075.147        1089.899          44.000  
G12  22403172.794   117729370.7071       -315.208          38.000  
G17  23204341.756   121939698.536       -2877.186          37.000  
G19  20765359.228   109122618.910       -2148.609          31.000  
G20  21355709.038   112224938.158        2096.604          39.000  
G25  23733325.548   124719376.855        1363.603          23.000  
J02  37533858.538   197241531.116        -232.795          21.000  
J03  39185254.201   205919816.846         362.836          27.000  
> 2025 04 09 08 15 03.0000817  0 19                     
C10  36098960.472   187976741.635        -202.671          37.000  
C19  22501143.245   117169152.003        -115.951          33.000  
C22  23180254.706   120705520.680        2872.826          32.000  
C35  21633218.597   112649764.369         -83.577          38.000  
C38  36015224.541   187540614.867         243.009          42.000  
E24  26921425.048   141472927.529        1181.349          21.000  
E26  25235771.801   132615014.9191      -1527.368          11.000  
E31  24986121.431   131302954.4741      -1420.663          17.000  
E33  23613954.862   124091945.246         191.577          29.000  
G06  20843406.672   109532770.0301       -655.490          16.000  
G09  22170715.595   116507871.611         515.669          22.000  
G11  21096584.101   110863132.389        1090.156          44.000  
G12  22403261.907   117729831.508        -314.720          35.000  
G17  23204912.036   121942718.581       -2876.580          36.000  
G19  20765797.600   109124914.864       -2149.511          31.000  
G20  21355338.569   112222988.525        2095.924          39.000  
G25  23733096.582   124718159.6551       1359.696          17.000  
J02  37533941.056   197242190.648        -241.909          27.000  
J03  39185213.204   205919597.627         366.816          27.000  
> 2025 04 09 08 15 04.0000206  0 18                     
C10  36098996.222   187976925.168        -203.538          38.000  
C19  22501165.205   117169250.748        -115.968          33.000  
C22  23179714.555   120702631.343        2873.783          32.000  
C29  24737506.618   128814688.3671      -2349.233          21.000  
C35  21633232.462   112649829.395         -81.751          37.000  
C38  36015175.750   187540355.463         241.319          42.000  
E24  26921200.278   141471728.5051       1181.997          18.000  
E26  25236064.474   132616525.0131      -1528.646          10.000  
E31  24986388.920   131304360.4811      -1425.281          17.000  
E33  23613917.463   124091736.929         191.034          29.000  
G06  20843532.360   109533408.3261       -655.899          17.000  
G09  22170618.538   116507334.707         520.779          22.000  
G11  21096374.621   110862026.006        1089.670          44.000  
G12  22403321.041   117730126.173        -312.908          30.000  
G17  23205455.635   121945580.846       -2892.143          30.000  
G20  21354936.623   112220876.624        2095.960          40.000  
G25  23732837.336   124716783.9791       1356.218          15.000  
J03  39185143.127   205919213.336         368.091          25.000  
> 2025 04 09 08 15 04.9999595  0 19                     
C10  36099033.921   187977114.020        -203.334          37.000  
C19  22501183.118   117169353.790        -117.372          30.000  
C22  23179169.757   120700019.036        2855.594          31.000  
C29  24737963.127   128817025.949       -2349.506          25.000  
C35  21633246.478   112649898.691         -82.831          37.000  
C38  36015128.008   187540100.159         242.605          42.000  
E24  26920976.258   141470531.9151       1183.222          13.000  
E31  24986662.256   131305774.8971      -1428.223          17.000  
E33  23613875.117   124091533.774         190.455          28.000  
G06  20843664.194   109534049.8941       -656.006          13.000  
G09  22170518.032   116506800.307         521.967          22.000  
G11  21096166.490   110860924.974        1089.162          44.000  
G12  22403379.426   117730426.937        -312.973          27.000  
G17  23206009.277   121948465.715       -2908.137          24.000  
G19  20766639.117   109129188.6521      -2157.566          27.000  
G20  21354537.224   112218770.638        2093.124          39.000  
G25  23732578.540   124715416.0851       1352.167          14.000  
J02  37534042.386   197242651.4881       -248.514          27.000  
J03  39185074.100   205918833.380         365.885          25.000  
> 2025 04 09 08 15 05.9998985  0 18                     
C10  36099101.824   187977461.817        -202.978          38.000  
C19  22501253.119   117169929.009        -123.581          27.000  
C22  23178656.662   120697317.797        2838.030          30.000  
C29  24738445.643   128819518.991       -2349.389          23.000  
C35  21633291.297   112650126.529         -83.293          37.000  
C38  36015109.571   187540001.641         243.888          42.000  
E24  26920779.445   141469493.1371       1184.242           7.000  
E26  25236667.431   132619581.9781      -1580.728          16.000  
E31  24986969.693   131307350.0001      -1433.368          17.000  
E33  23613867.772   124091488.572         191.998          28.000  
G06  20843825.332   109534862.5841       -667.857          13.000  
G09  22170446.532   116506423.697         522.839          24.000  
G11  21095987.664   110859981.771        1088.428          44.000  
G12  22403469.213   117730883.732        -314.421          26.000  
G19  20767083.860   109131761.617       -2159.530          24.000  
G20  21354167.730   112216823.602        2094.809          40.000  
J02  37534122.580   197243045.134        -248.954          27.000  
J03  39185034.677   205918614.760         362.574          27.000  
> 2025 04 09 08 15 06.9998374  0 19                     
C10  36099140.235   187977648.573        -202.442          37.000  
C19  22501300.224   117170046.468        -139.881          25.000  
C22  23178104.782   120694469.192        2847.614          31.000  
C29  24738897.468   128821853.820       -2348.648          22.000  
C35  21633305.424   112650194.454         -84.914          37.000  
C38  36015060.742   187539744.237         243.280          42.000  
E24  26920556.736   141468293.7751       1185.261           6.000  
E26  25236972.957   132621149.1371      -1586.927          15.000  
E31  24987235.047   131308772.1711      -1437.848          17.000  
E33  23613830.335   124091282.106         192.717          28.000  
G06  20843952.182   109535515.7711       -667.423          13.000  
G09  22170343.441   116505886.739         523.421          22.000  
G11  21095779.046   110858879.024        1087.584          44.000  
G12  22403528.910   117731185.174        -316.925          26.000  
G19  20767506.604   109133905.362       -2158.496          25.000  
G20  21353767.544   112214716.004        2091.876          40.000  
G25  23732450.716   124714870.1841       1431.095          21.000  
J02  37534169.685   197243279.613        -247.799          31.000  
J03  39184972.658   205918241.464         354.868          27.000  
> 2025 04 09 08 15 07.9997763  0 19                     
C10  36099175.798   187977837.071        -203.454          37.000  
C19  22501329.191   117170173.937        -150.311          22.000  
C22  23177562.345   120691607.505        2845.719          29.000  
C29  24739350.941   128824185.7291      -2347.524          17.000  
C35  21633321.800   112650263.385         -85.909          38.000  
C38  36015012.663   187539486.170         243.274          42.000  
E26  25237266.941   132622719.9141      -1586.981          13.000  
E31  24987504.448   131310195.9001      -1442.616          17.000  
E33  23613791.250   124091073.727         191.480          27.000  
G06  20844066.291   109536149.955        -652.568          26.000  
G09  22170242.598   116505348.163         520.795          21.000  
G11  21095570.278   110857775.853        1087.837          44.000  
G12  22403589.955   117731485.414        -319.033          26.000  
G17  23207764.037   121957622.3871      -2930.790          25.000  
G19  20767919.906   109136045.4941      -2158.818          20.000  
G20  21353367.809   112212607.464        2094.049          39.000  
G25  23732171.497   124713423.462        1429.624          23.000  
J02  37534215.441   197243509.291        -246.025          30.000  
J03  39184908.090   205917873.714         349.287          23.000  
> 2025 04 09 08 15 08.9997153  0 19                     
C10  36099243.214   187978181.257        -201.493          37.000  
C19  22501305.470   117170201.456        -125.243          22.000  
C22  23177040.669   120688907.887        2830.962          27.000  
C29  24739838.966   128826677.2461      -2348.036          15.000  
C35  21633366.132   112650490.718         -84.668          37.000  
C38  36014995.238   187539385.762         244.622          43.000  
E24  26920115.292   141466160.6091       1185.440          35.000  
E26  25237590.680   132624452.8681      -1588.444          13.000  
E31  24987805.102   131311785.6701      -1447.933          17.000  
E33  23613782.818   124091028.786         189.544          24.000  
G06  20844212.252   109536945.657        -651.351          27.000  
G11  21095391.864   110856831.723        1089.428          45.000  
G12  22403677.157   117731948.813        -316.868          28.000  
G17  23208352.492   121960695.624       -2930.085          21.000  
G19  20768277.221   109138032.589       -2151.738          23.000  
G20  21352997.827   112210656.688        2094.441          39.000  
G25  23731922.332   124712138.714        1365.988          22.000  
J02  37534293.050   197243897.142        -245.391          24.000  
J03  39184870.279   205917669.288         369.231          23.000  
> 2025 04 09 08 15 09.9996542  0 20                     
C10  36099280.576   187978367.258        -203.229          37.000  
C19  22501354.824   117170307.672        -120.517          34.000  
C22  23176496.433   120686062.396        2834.301          27.000  
C29  24740303.832   128829010.3901      -2348.341          16.000  
C35  21633381.009   112650559.951         -83.998          37.000  
C38  36014946.859   187539127.970         242.668          43.000  
E24  26919890.035   141464958.458        1186.574          36.000  
E26  25237885.263   132626027.2181      -1589.147           9.000  
E31  24988074.803   131313220.3691      -1453.337          17.000  
E33  23613745.831   124090825.1651        188.825          19.000  
G04  23679442.650   124436310.7601      -1141.437          33.000  
G06  20844326.061   109537582.271        -651.164          27.000  
G09  22170075.464   116504448.6841        515.129          28.000  
G11  21095183.696   110855728.621        1089.423          44.000  
G12  22403734.905   117732250.267        -316.683          32.000  
G17  23208763.095   121962872.7781      -2928.010          18.000  
G19  20768683.627   109140167.336       -2150.570          29.000  
G20  21352597.792   112208549.401        2092.463          40.000  
G25  23731409.575   124709398.550        1364.414          27.000  
J02  37534342.103   197244127.894        -245.983          21.000  
> 2025 04 09 08 15 10.9995931  0 21                     
C10  36099319.811   187978558.987        -204.967          37.000  
C19  22501383.866   117170416.442        -122.081          35.000  
C22  23175963.964   120683208.008        2863.308          28.000  
C29  24740772.370   128831694.130       -2349.111          23.000  
C35  21633395.962   112650629.988         -85.015          36.000  
C38  36014899.154   187538873.532         241.207          42.000  
E24  26919659.757   141463760.276        1184.548          34.000  
E26  25238181.720   132627602.6411      -1590.249           9.000  
E31  24988342.480   131314663.8231      -1458.149          12.000  
E33  23613709.819   124090623.2891        189.111          15.000  
G04  23679657.864   124437436.597       -1137.603          33.000  
G06  20844448.039   109538220.467        -652.399          28.000  
G09  22169976.495   116503921.008         514.939          23.000  
G11  21094975.302   110854628.394        1086.991          44.000  
G12  22403796.624   117732553.354        -317.112          26.000  
G17  23209320.372   121965784.3381      -2874.267          18.000  
G19  20769100.901   109142304.075       -2149.000          31.000  
G20  21352198.730   112206447.081        2089.071          39.000  
G25  23731076.168   124707646.373        1359.856          23.000  
J02  37534395.729   197244359.5231       -246.965          16.000  
J03  39184723.830   205916912.1341        364.366          34.000  
> 2025 04 09 08 15 11.9995321  0 21                     
C10  36099386.103   187978905.871        -206.787          37.000  
C19  22501438.766   117170679.806        -123.857          34.000  
C22  23175461.849   120680484.633        2864.257          31.000  
C29  24741268.863   128834185.123       -2348.675          26.000  
C35  21633439.469   112650857.999         -85.907          37.000  
C38  36014881.204   187538775.679         240.191          42.000  
E24  26919469.427   141462720.396        1177.483          28.000  
E26  25238510.330   132629337.5881      -1591.062           8.000  
E31  24988646.807   131316267.2871      -1462.126          13.000  
E33  23613702.661   124090845.0851        188.768          14.000  
G04  23679901.633   124438717.145       -1138.596          34.000  
G06  20844599.172   109539015.197        -651.158          27.000  
G09  22169912.976   116503549.890         515.015          20.000  
G11  21094798.163   110853687.015        1083.113          39.000  
G12  22403887.799   117733018.800        -323.616          21.000  
G17  23209904.105   121968809.439       -2887.764          28.000  
G19  20769544.031   109144594.085       -2149.789          32.000  
G20  21351830.023   112204503.269        2086.076          39.000  
G25  23730866.051   124706438.064        1343.950          26.000  
J02  37534480.008   197245022.8961       -253.661          16.000  
J03  39184683.695   205916694.099         358.714          31.000  
> 2025 04 09 08 15 12.9994710  0 21                     
C10  36099426.425   187979099.869        -206.932          38.000  
C19  22501460.800   117170788.302        -124.852          34.000  
C22  23174919.674   120677887.876        2847.021          31.000  
C29  24741738.488   128836519.354       -2349.949          27.000  
C35  21633455.508   112650928.549         -88.546          38.000  
C38  36014834.886   187538522.156         239.513          43.000  
E24  26919099.932   141460825.175        1195.894          22.000  
E26  25238810.872   132630913.3131      -1591.400           8.000  
E31  24988918.269   131317716.5311      -1465.758          14.000  
E33  23613668.935   124090641.6591        188.280          19.000  
G04  23680115.834   124439842.935       -1141.887          34.000  
G06  20844721.337   109539651.589        -651.648          28.000  
G09  22169820.790   116503037.9611        496.012          17.000  
G11  21094590.856   110852590.860        1079.561          32.000  
G12  22403947.607   117733327.0511       -323.726          17.000  
G17  23210471.762   121971684.994       -2897.275          33.000  
G19  20769957.895   109146730.603       -2156.819          31.000  
G20  21351431.749   112202402.986        2084.812          40.000  
G25  23730618.572   124705082.594        1335.101          22.000  
J02  37534535.619   197245262.0521       -255.757          15.000  
J03  39184612.795   205916321.068         358.832          31.000  
> 2025 04 09 08 15 14.0004099  0 20                     
C10  36099484.210   187979385.312        -205.592          38.000  
C19  22501498.199   117170999.240        -142.747          31.000  
C22  23174394.063   120675126.340        2832.639          32.000  
C29  24742213.584   128838953.147       -2351.411          22.000  
C35  21633488.710   112651096.434         -87.794          38.000  
C38  36014804.232   187538362.511         240.967          43.000  
E24  26918892.101   141459708.9021       1195.361          19.000  
E31  24989209.892   131319266.9391      -1469.757          13.000  
E33  23613661.365   124090535.635         186.777          23.000  
G04  23680351.097   124441070.439       -1149.982          34.000  
G06  20844862.464   109540384.729        -654.005          27.000  
G09  22169743.968   116502623.6931        495.142          14.000  
G11  21094403.411   110851594.229        1075.759          26.000  
G12  22404026.678   117733725.4021       -317.308          12.000  
G17  23211044.890   121974666.643       -2891.369          32.000  
G19  20770391.320   109148970.906       -2159.012          36.000  
G20  21351050.638   112200394.318        2091.528          39.000  
G25  23730392.753   124703830.666        1327.711          21.000  
J02  37534604.796   197245597.8221       -256.796          12.000  
J03  39184560.855   205916044.656         356.517          30.000  
> 2025 04 09 08 15 15.0003488  0 19                     
C10  36099521.384   187979574.134        -202.829          37.000  
C19  22501519.185   117171124.633        -138.809          32.000  
C22  23173841.846   120672282.991        2832.155          36.000  
C29  24742664.772   128841290.028       -2351.257          20.000  
C35  21633503.100   112651170.396         -89.722          38.000  
C38  36014755.966   187538106.703         243.448          43.000  
E24  26918663.360   141458499.0821       1194.326          14.000  
E31  24989487.800   131320724.6561      -1474.500          13.000  
E33  23613619.694   124090334.990         186.253          25.000  
G04  23680569.345   124442206.402       -1150.144          34.000  
G09  22169649.533   116502114.6041        495.126          14.000  
G11  21094201.950   110850779.332        1076.343          21.000  
G12  22404089.634   117734028.1941       -318.318          18.000  
G17  23211589.014   121977531.950       -2874.802          34.000  
G19  20770805.033   109151114.268       -2157.400          36.000  
G20  21350651.314   112198287.396        2093.894          39.000  
G25  23730148.722   124702773.0651       1321.293          14.000  
J02  37534650.365   197245820.8061       -238.188          11.000  
J03  39184491.004   205915676.736         351.787          28.000  
> 2025 04 09 08 15 16.0002878  0 19                     
C10  36099588.238   187979917.567        -201.333          37.000  
C19  22501574.647   117171404.223        -134.765          33.000  
C22  23173325.303   120669590.129        2837.380          35.000  
C29  24743151.935   128844085.1531      -2352.705          18.000  
C35  21633549.868   112651401.717         -88.724          38.000  
C38  36014738.278   187538004.018         245.119          42.000  
E24  26918456.203   141457447.5031       1193.947           7.000  
E33  23613608.601   124090289.175         190.003          27.000  
G04  23680816.374   124443498.946       -1152.980          34.000  
G06  20845139.173   109541824.4751       -657.533          30.000  
G09  22169585.977   116501762.4681        496.645          13.000  
G11  21094024.773   110849846.4111       1077.166          16.000  
G12  22404180.771   117734764.279        -323.256          22.000  
G17  23212162.517   121980546.070       -2884.751          31.000  
G19  20771243.630   109153413.224       -2155.561          33.000  
G20  21350280.471   112196335.637        2097.543          39.000  
G25  23729930.174   124701597.6521       1314.585          14.000  
J02  37534726.212   197246202.0421       -239.746          18.000  
J03  39184450.832   205915471.657         345.426          28.000  
> 2025 04 09 08 15 17.0002267  0 20                     
C10  36099624.288   187980100.775        -199.969          38.000  
C19  22501609.198   117171531.291        -154.673          34.000  
C22  23172778.257   120666739.776        2833.868          38.000  
C29  24743602.598   128846428.1101      -2359.478          20.000  
C35  21633567.031   112651477.189         -91.182          38.000  
C38  36014688.587   187537743.536         245.750          43.000  
E24  26918227.237   141456237.8621       1192.849           9.000  
E31  24990074.569   131323728.2241      -1420.490          22.000  
E33  23613566.705   124090085.028         187.964          29.000  
G04  23681036.797   124444638.747       -1157.841          34.000  
G06  20845262.762   109542467.842        -659.145          31.000  
G09  22169492.517   116501250.0911        497.929          11.000  
G11  21093814.094   110848752.172        1081.240          21.000  
G12  22404241.404   117735072.026        -324.161          21.000  
G17  23212706.715   121983415.859       -2885.361          29.000  
G19  20771649.324   109155554.140       -2158.471          33.000  
G20  21349879.424   112194223.538        2096.970          39.000  
G25  23729681.721   124700269.8161       1309.224          13.000  
J02  37534773.954   197246428.436        -242.083          20.000  
J03  39184384.053   205915115.491         338.480          29.000  
> 2025 04 09 08 15 18.0001656  0 19                     
C10  36099660.338   187980288.904        -201.558          37.000  
C19  22501638.952   117171938.656        -149.186          31.000  
C22  23172234.209   120663893.819        2835.195          38.000  
C29  24744058.357   128848774.7711      -2361.124          20.000  
C35  21633583.294   112651553.539         -88.899          37.000  
C38  36014640.995   187537486.389         245.561          43.000  
E24  26917999.169   141455032.9621       1184.074          17.000  
E31  24990273.406   131324773.242       -1423.663          21.000  
E33  23613530.805   124089886.326         185.413          29.000  
G04  23681258.119   124445783.883       -1156.339          34.000  
G06  20845385.452   109543112.749        -657.418          30.000  
G09  22169392.461   116500734.2091        505.014          17.000  
G12  22404304.135   117735382.740        -324.104          23.000  
G17  23213185.858   121986285.078       -2884.362          29.000  
G19  20772056.517   109157700.728       -2162.293          32.000  
G20  21349478.976   112192115.020        2097.547          39.000  
G25  23729358.619   124698620.7871       1357.070          13.000  
J02  37534817.799   197246657.999        -243.706          21.000  
J03  39184318.173   205914764.765         340.001          30.000  
> 2025 04 09 08 15 19.0001046  0 20                     
C10  36099729.702   187980632.083        -202.458          38.000  
C19  22501677.438   117172221.056        -129.065          31.000  
C22  23171718.078   120661203.236        2832.691          37.000  
C29  24744545.333   128851278.5001      -2362.050          19.000  
C35  21633628.076   112651785.229         -90.256          37.000  
C38  36014622.521   187537384.516         243.983          42.000  
E24  26917794.524   141453992.936        1183.668          29.000  
E31  24990579.907   131326340.390       -1426.174          29.000  
E33  23613518.926   124089844.159         186.987          28.000  
G04  23681505.560   124447083.141       -1154.883          34.000  
G06  20845538.759   109543912.081        -657.519          28.000  
G09  22169244.776   116500372.365         506.568          24.000  
G11  21093422.752   110846710.0191       1086.787          44.000  
G12  22404399.582   117735850.269        -325.969          22.000  
G17  23213765.170   121989311.521       -2880.029          29.000  
G19  20772500.622   109160010.944       -2170.396          31.000  
G20  21349109.444   112190163.807        2092.490          39.000  
G25  23729110.204   124697407.104        1358.347          32.000  
J02  37534812.215   197246768.634        -243.015          25.000  
J03  39184284.409   205914568.608         336.864          28.000  
> 2025 04 09 08 15 20.0000435  0 20                     
C10  36099767.289   187980820.611        -203.988          37.000  
C19  22501688.043   117172332.594        -125.403          32.000  
C22  23171173.168   120658359.623        2827.626          34.000  
C29  24745000.830   128853625.0111      -2360.537          19.000  
C35  21633643.478   112651860.786         -90.168          37.000  
C38  36014573.767   187537128.680         241.170          42.000  
E24  26917554.802   141452795.879        1182.222          29.000  
E31  24990864.822   131327754.868       -1430.340          32.000  
E33  23613482.764   124089642.616         188.984          28.000  
G04  23681723.022   124448220.641       -1153.174          33.000  
G06  20845661.486   109544555.868        -657.331          29.000  
G09  22169151.054   116499853.026         505.880          21.000  
G11  21093212.710   110845610.502        1085.867          45.000  
G12  22404469.546   117736161.962        -324.635          21.000  
G17  23214313.003   121992177.103       -2879.941          30.000  
G19  20772913.549   109162164.423       -2165.013          31.000  
G20  21348710.533   112188058.771        2090.737          38.000  
G25  23728842.002   124696036.028        1355.675          32.000  
J02  37534862.693   197246997.081        -243.613          26.000  
J03  39184219.467   205914221.940         333.506          28.000  
> 2025 04 09 08 15 20.9999824  0 20                     
C10  36099803.489   187981009.181        -203.355          37.000  
C19  22501708.954   117172441.498        -122.872          29.000  
C22  23170625.672   120655517.836        2826.299          31.000  
C29  24745463.035   128855969.2961      -2360.253          15.000  
C35  21633658.093   112651934.425         -87.641          37.000  
C38  36014525.425   187536871.464         243.471          42.000  
E24  26917324.487   141451598.490        1180.714          29.000  
E31  24991144.453   131329171.218       -1432.116          36.000  
E33  23613445.215   124089438.315         190.203          28.000  
G04  23681939.397   124449355.845       -1146.786          33.000  
G06  20845784.326   109545196.215        -654.939          28.000  
G09  22169062.240   116499332.8751        505.601          20.000  
G11  21093003.380   110844509.855        1085.674          45.000  
G12  22404537.224   117736471.525        -324.948          21.000  
G17  23214858.550   121995040.317       -2877.855          29.000  
G19  20773320.592   109164310.087       -2159.378          32.000  
G20  21348310.235   112185953.746        2090.024          38.000  
G25  23728579.009   124694663.606        1356.516          32.000  
J02  37534912.084   197247224.139        -243.253          29.000  
J03  39184151.939   205913873.574         335.098          28.000  
> 2025 04 09 08 15 21.9999214  0 20                     
C10  36099873.078   187981355.981        -205.895          37.000  
C19  22501756.958   117172709.429        -128.349          27.000  
C22  23170105.570   120652835.402        2823.673          28.000  
C29  24745943.340   128858471.1011      -2358.578          14.000  
C35  21633704.298   112652162.581         -86.326          37.000  
C38  36014506.876   187536772.202         239.781          43.000  
E24  26917133.556   141450562.114        1178.957          28.000  
E31  24991444.883   131330749.332       -1433.896          32.000  
E33  23613435.958   124089391.680         190.013          27.000  
G04  23682186.164   124450642.863       -1144.831          33.000  
G06  20845936.359   109545991.503        -651.686          28.000  
G09  22169000.520   116498970.9291        505.619          19.000  
G11  21092824.741   110843568.030        1085.684          44.000  
G12  22404617.606   117736940.112        -326.764          29.000  
G17  23215435.688   121998060.008       -2876.241          28.000  
G19  20773755.029   109166615.147       -2173.695          33.000  
G20  21347941.228   112184009.763        2085.778          38.000  
G25  23728348.506   124693450.357        1354.538          29.000  
J02  37534987.969   197247611.950        -247.228          29.000  
J03  39184117.800   205913682.836         335.782          25.000  
> 2025 04 09 08 15 22.9998603  0 21                     
C10  36099911.152   187981545.293        -205.118          37.000  
C19  22501781.541   117172822.202        -128.524          24.000  
C22  23169563.245   120649997.364        2822.480          26.000  
C29  24746405.020   128860811.4351      -2355.912          14.000  
C35  21633719.588   112652233.054         -88.036          37.000  
C38  36014459.508   187536515.623         242.461          42.000  
E24  26916896.121   141449366.730        1176.835          27.000  
E26  25241632.481   132645674.4431      -1492.185          26.000  
E31  24991717.094   131332169.723       -1436.499          27.000  
E33  23613394.887   124089185.488         190.581          27.000  
G04  23682401.115   124451772.528       -1144.765          34.000  
G06  20846058.974   109546627.265        -651.604          29.000  
G09  22168910.583   116498450.0141        504.582          19.000  
G11  21092616.086   110842467.368        1084.112          44.000  
G12  22404660.476   117737252.265        -328.931          36.000  
G17  23215981.011   122000916.175       -2873.226          28.000  
G19  20774164.545   109168770.894       -2160.679          32.000  
G20  21347541.305   112181908.200        2086.771          37.000  
G25  23728088.886   124692079.059        1355.820          29.000  
J02  37535034.736   197247839.949        -243.138          26.000  
J03  39183980.795   205913327.487         364.324          24.000  
> 2025 04 09 08 15 23.9997993  0 20                     
C10  36099977.743   187981891.739        -203.940          37.000  
C19  22501834.042   117173094.460        -128.206          22.000  
C22  23169044.642   120647318.332        2822.852          25.000  
C35  21633764.594   112652465.234         -89.002          38.000  
C38  36014442.158   187536417.284         242.442          42.000  
E24  26916704.890   141448332.978        1180.114          26.000  
E26  25241946.701   132647311.274       -1493.017          28.000  
E31  24991870.625   131333166.976       -1436.688          22.000  
E33  23613389.828   124089139.629         191.552          26.000  
G04  23682648.481   124453063.852       -1148.789          33.000  
G06  20846212.505   109547424.414        -653.685          30.000  
G09  22168856.957   116498091.3361        503.724          20.000  
G11  21092437.747   110841527.206        1086.143          44.000  
G12  22404745.055   117737723.056        -327.193          37.000  
G17  23216557.249   122003935.166       -2874.975          29.000  
G19  20774601.080   109171070.498       -2151.045          31.000  
G20  21347173.497   112179966.043        2089.140          38.000  
G25  23727858.383   124690867.615        1355.841          31.000  
J02  37535108.523   197248225.103        -241.170          26.000  
J03  39183941.859   205913106.620         367.975          21.000  
> 2025 04 09 08 15 24.9997382  0 20                     
C10  36100015.629   187982080.963        -205.857          37.000  
C19  22501858.737   117173206.3981       -127.941          19.000  
C22  23168426.282   120644074.553        2823.531          24.000  
C35  21633779.696   112652539.108         -91.359          38.000  
C38  36014394.603   187536160.571         241.289          43.000  
E24  26916477.760   141447137.360        1179.239          26.000  
E26  25242235.214   132648790.893       -1499.382          32.000  
E31  24992140.551   131334587.3131      -1435.954          18.000  
E33  23613353.665   124088933.969         189.102          27.000  
G04  23682866.243   124454199.255       -1155.581          33.000  
G06  20846334.033   109548063.066        -657.220          32.000  
G09  22168764.134   116497572.7231        503.343          19.000  
G11  21092229.503   110840427.663        1084.165          44.000  
G12  22404804.227   117738034.677        -321.809          36.000  
G17  23217102.684   122006795.211       -2879.414          28.000  
G19  20775008.311   109173207.484       -2155.425          31.000  
G20  21346775.785   112177862.327        2086.163          38.000  
G25  23727595.577   124689496.766        1353.375          30.000  
J02  37535152.704   197248448.843        -239.946          26.000  
J03  39183872.120   205912722.1451        371.277          18.000  
> 2025 04 09 08 15 25.9996771  0 21                     
C10  36100054.153   187982271.614        -203.214          37.000  
C19  22501876.275   117173320.1421       -127.482          17.000  
C22  23167894.001   120641237.171        2830.433          22.000  
C29  24747843.724   128868516.3511      -2408.684          17.000  
C35  21633796.334   112652616.583         -92.182          38.000  
C38  36014346.187   187535904.736         244.789          43.000  
E24  26916259.361   141445945.094        1177.418          26.000  
E26  25242517.469   132650280.042       -1501.922          31.000  
E31  24992416.810   131336009.7471      -1435.430          13.000  
E33  23613316.941   124088733.393         186.373          27.000  
G04  23683084.642   124455343.232       -1160.257          32.000  
G06  20846457.997   109548706.735        -657.912          33.000  
G09  22168673.447   116497056.9121        501.617          19.000  
G11  21092022.197   110839329.846        1086.029          44.000  
G12  22404863.736   117738344.334        -323.711          36.000  
G17  23217650.555   122009660.046       -2878.365          28.000  
G19  20775414.080   109175349.536       -2159.225          31.000  
G20  21346377.810   112175760.352        2091.873          38.000  
G25  23727337.306   124688130.234        1353.373          31.000  
J02  37535196.624   197248676.851        -242.428          28.000  
J03  39183800.320   205912335.4861        375.367          16.000  
> 2025 04 09 08 15 26.9996161  0 21                     
C10  36100122.018   187982613.950        -200.781          37.000  
C19  22501930.650   117173586.9141       -126.634          16.000  
C22  23167387.164   120638548.035        2831.248          22.000  
C29  24748337.595   128871067.8221      -2410.443          15.000  
C35  21633842.615   112652849.948         -93.122          38.000  
C38  36014327.712   187535800.595         245.437          42.000  
E24  26916061.911   141444908.118        1182.286          27.000  
E26  25242834.162   132651926.118       -1503.978          32.000  
E31  24992718.214   131337585.8191      -1433.608           6.000  
E33  23613312.257   124088689.140         187.419          26.000  
G04  23683334.181   124456646.639       -1164.015          33.000  
G06  20846612.503   109549507.974        -661.538          33.000  
G09  22168616.299   116496698.8251        498.878          19.000  
G11  21091843.633   110838386.749        1086.465          45.000  
G12  22404954.086   117738808.248        -323.301          37.000  
G17  23218230.166   122012683.132       -2879.976          29.000  
G19  20775849.491   109177651.833       -2161.171          32.000  
G20  21346007.379   112173809.215        2096.612          38.000  
G25  23727108.377   124686919.603        1353.215          32.000  
J02  37535270.785   197249060.490        -241.639          27.000  
J03  39183759.061   205912100.9241        378.724          15.000  
> 2025 04 09 08 15 27.9995550  0 19                     
C10  36100158.068   187982800.432        -199.952          38.000  
C22  23166847.613   120635703.921        2833.870          26.000  
C29  24748804.147   128873468.0781      -2412.754          13.000  
C35  21633861.577   112653193.429         -95.052          38.000  
C38  36014278.921   187535542.610         246.579          42.000  
E24  26915835.642   141443713.012        1182.052          27.000  
E26  25243116.641   132653422.567       -1511.658          32.000  
E31  24992991.100   131339054.5851      -1432.347           4.000  
E33  23613273.059   124088489.147         187.711          25.000  
G04  23683554.604   124457801.569       -1171.919          34.000  
G06  20846737.591   109550157.633        -664.507          33.000  
G09  22168531.832   116496190.200         494.629          21.000  
G11  21091635.652   110837288.296        1087.229          44.000  
G12  22405014.419   117739110.551        -314.166          37.000  
G17  23218782.159   122015551.942       -2883.503          29.000  
G19  20776261.481   109179801.599       -2161.377          29.000  
G20  21345606.332   112171699.039        2099.491          38.000  
G25  23726851.530   124685552.762        1356.760          27.000  
J02  37535315.829   197249287.247        -236.330          25.000  
> 2025 04 09 08 15 28.9994939  0 18                     
C10  36100194.043   187982985.541        -200.516          39.000  
C22  23166314.282   120632856.301        2830.833          32.000  
C29  24749268.825   128875864.7221      -2414.557          12.000  
C35  21633875.367   112653273.980         -97.588          38.000  
C38  36014230.055   187535545.717         246.716          43.000  
E24  26915605.102   141442512.628        1186.262          24.000  
E26  25243406.841   132654920.373       -1517.801          31.000  
E33  23613236.484   124088286.486         186.792          22.000  
G04  23683776.750   124458959.554       -1178.088          35.000  
G06  20846862.305   109550805.359        -665.628          33.000  
G09  22168447.591   116495978.150         487.898          21.000  
G11  21091426.996   110836184.286        1090.726          43.000  
G12  22405073.478   117739407.042        -311.471          36.000  
G17  23219330.779   122018424.023       -2889.849          29.000  
G19  20776673.096   109181947.354       -2166.676          31.000  
G20  21345204.910   112169583.940        2101.380          38.000  
G25  23726591.010   124684179.249        1361.097          29.000  
J02  37535360.498   197249505.368        -241.471          29.000  
