     3.04           OBSERVATION DATA    M: Mixed            RINEX VERSION / TYPE
RTKCONV demo5 b34k                      20250428 012726 UTC PGM / RUN BY / DATE 
format: RINEX                                               COMMENT             
log: E:\Proj-ES\GNSS-SPP\RTKLIB-py\data\unisoc\20250425\��·COMMENT             
  \rover.obs                                                COMMENT             
Geo++                                                       MARKER NAME         
                                                            MARKER NUMBER       
                                                            MARKER TYPE         
                                                            OBSERVER / AGENCY   
unknown             UNISOC              uis7865_6h10_go_a32bREC # / TYPE / VERS 
unknown             uis7865_6h10_go_a32b                    ANT # / TYPE        
 -2182478.7021  4380537.1428  4076355.6646                  APPROX POSITION XYZ 
        0.0000        0.0000        0.0000                  ANTENNA: DELTA H/E/N
G    4 C1C L1C D1C S1C                                      SYS / # / OBS TYPES 
E    4 C1C L1C D1C S1C                                      SYS / # / OBS TYPES 
J    4 C1C L1C D1C S1C                                      SYS / # / OBS TYPES 
C    4 C2I L2I D2I S2I                                      SYS / # / OBS TYPES 
  2025    04    24    04    18   08.0000292     GPS         TIME OF FIRST OBS   
  2025    04    24    04    43   31.0000161     GPS         TIME OF LAST OBS    
G L1C                                                       SYS / PHASE SHIFT   
E L1C  0.00000                                              SYS / PHASE SHIFT   
J L1C                                                       SYS / PHASE SHIFT   
C L2I                                                       SYS / PHASE SHIFT   
 24 R01  1 R02 -4 R03  5 R04  6 R05  1 R06 -4 R07  5 R08  6 GLONASS SLOT / FRQ #
    R09 -2 R10 -5 R11  0 R12 -1 R13 -2 R14 -7 R15  0 R16 -1 GLONASS SLOT / FRQ #
    R17  4 R18 -3 R19  3 R20  2 R21  4 R22 -3 R23  3 R24  2 GLONASS SLOT / FRQ #
 C1C    0.000 C1P    0.000 C2C    0.000 C2P    0.000        GLONASS COD/PHS/BIS 
                                                            END OF HEADER       
> 2025 04 24 04 19 17.9997547  0 17                     
C07  35762974.520   186227030.105         241.433          39.000  
C10  36524204.532   190190943.274         450.876          31.000  
C30  21725459.490   113129941.427        -140.903          42.000  
C38  37944542.352   197587042.881        1723.472          34.000  
C40  36031993.882   187627889.503         182.101          42.000  
C45  24338128.577   126734902.352        1390.096          22.000  
E11  25677163.882   134934174.287       -2078.249          32.000  
E34  25890076.785   136053134.208        2303.080          24.000  
E36  23377649.303   122850246.234         143.112          38.000  
G01  22615357.127   118844503.752       -2889.039          28.000  
G03  21267319.054   111760295.439        -270.270          44.000  
G06  22453879.615   117995714.701        2641.250          30.000  
G14  20347741.064   106927929.452       -1448.988          33.000  
G17  20711753.864   108840842.108         353.902          41.000  
G22  20699409.310   108775924.375          89.107          32.000  
J02  37830222.794   198799010.029         576.250          36.000  
J03  39030650.855   205107243.408        -342.327          36.000  
> 2025 04 24 04 19 18.9996937  0 17                     
C07  35762955.484   186226928.631         244.172          38.000  
C10  36524146.522   190190632.919         453.060          33.000  
C30  21725512.703   113130220.553        -137.955          42.000  
C38  37944240.012   197585461.726        1721.058          34.000  
C40  36031986.837   187627847.790         183.097          42.000  
C45  24337888.593   126733653.413        1389.075          22.000  
E11  25677587.638   134936393.696       -2078.635          33.000  
E34  25889670.417   136050973.949        2303.661          26.000  
E36  23377649.752   122850244.094         144.482          38.000  
G01  22615940.673   118847534.536       -2889.595          26.000  
G03  21267398.349   111760705.331        -269.796          44.000  
G06  22453406.093   117993217.010        2639.584          32.000  
G14  20348044.305   106929518.361       -1448.459          34.000  
G17  20711714.441   108840629.475         355.552          41.000  
G22  20699419.353   108775976.632          91.352          32.000  
J02  37830141.700   198798576.144         576.067          36.000  
J03  39030744.840   205107724.391        -338.769          36.000  
> 2025 04 24 04 19 19.9996326  0 17                     
C07  35762907.479   186226671.010         241.933          39.000  
C10  36524056.847   190190165.126         452.803          32.000  
C30  21725538.148   113130345.805        -140.487          42.000  
C38  37943906.305   197583725.711        1722.563          34.000  
C40  36031950.225   187627650.726         181.580          42.000  
C45  24337616.943   126732249.867        1389.633          23.000  
E11  25677986.325   134938728.741       -2077.256          35.000  
E34  25889224.588   136048656.622        2303.362          27.000  
E36  23377620.335   122850086.250         143.720          39.000  
G01  22616495.251   118850408.175       -2889.538          27.000  
G03  21267448.976   111760961.407        -271.766          44.000  
G06  22452904.203   117990563.563        2640.495          32.000  
G14  20348320.076   106930953.493       -1450.025          34.000  
G17  20711645.751   108840260.110         354.455          42.000  
G22  20699400.728   108775870.782          89.776          32.000  
J02  37830029.541   198797985.162         576.993          37.000  
J03  39030808.658   205108048.099        -339.356          36.000  
> 2025 04 24 04 19 20.9995716  0 17                     
C07  35762890.354   186226570.855         242.300          38.000  
C10  36523998.649   190189853.284         453.687          33.000  
C30  21725592.972   113130625.214        -138.721          41.000  
C38  37943604.677   197582145.348        1721.461          35.000  
C40  36031943.592   187627609.953         183.659          42.000  
C45  24337380.969   126731002.741        1388.806          23.000  
E11  25678406.297   134940946.571       -2075.945          35.000  
E34  25888801.243   136046497.648        2301.557          26.000  
E36  23377623.895   122850086.689         143.032          39.000  
G01  22617077.710   118853441.542       -2889.751          25.000  
G03  21267528.684   111761373.964        -271.423          44.000  
G06  22452425.996   117988066.769        2639.558          32.000  
G14  20348624.628   106932546.681       -1452.106          34.000  
G17  20711606.441   108840048.164         355.638          42.000  
G22  20699414.181   108775925.238          88.892          32.000  
J02  37829948.259   198797551.223         576.074          36.000  
J03  39030900.957   205108530.196        -339.810          36.000  
> 2025 04 24 04 19 21.9995105  0 17                     
C07  35762840.476   186226313.351         242.731          39.000  
C10  36523911.897   190189385.142         453.956          31.000  
C30  21725619.242   113130748.798        -139.272          42.000  
C38  37943271.195   197580410.171        1721.038          35.000  
C40  36031906.305   187627411.445         183.623          42.000  
C45  24337116.440   126729599.080        1389.355          24.000  
E11  25678801.311   134943008.057       -2076.873          35.000  
E34  25888367.331   136044182.099        2301.588          27.000  
E36  23377593.804   122849928.590         143.325          39.000  
G01  22617631.015   118856314.352       -2889.818          25.000  
G03  21267578.936   111761630.729        -272.628          44.000  
G06  22451922.832   117985413.389        2639.120          33.000  
G14  20348899.725   106933983.088       -1450.829          32.000  
G17  20711537.076   108839677.776         355.316          42.000  
G22  20699394.882   108775821.190          88.375          32.000  
J02  37829838.123   198796961.503         575.221          37.000  
J03  39030964.401   205108854.870        -339.089          36.000  
> 2025 04 24 04 19 22.9994494  0 17                     
C07  35762794.795   186226059.860         242.234          39.000  
C10  36523819.748   190188920.610         452.464          30.000  
C30  21725645.211   113130877.519        -141.004          43.000  
C38  37942941.611   197578677.440        1722.454          34.000  
C40  36031870.518   187627217.835         182.449          42.000  
C45  24336849.212   126728198.398        1388.532          23.000  
E11  25679194.826   134945073.176       -2078.298          35.000  
E34  25887923.526   136041869.537        2301.914          28.000  
E36  23377562.813   122849775.603         141.856          38.000  
G01  22618182.820   118859193.395       -2890.887          24.000  
G03  21267630.388   111761892.215        -273.674          44.000  
G06  22451419.668   117982762.858        2639.558          33.000  
G14  20349174.822   106935420.718       -1452.220          33.000  
G17  20711468.611   108839312.250         354.205          41.000  
G22  20699377.981   108775722.530          87.516          34.000  
J02  37829727.987   198796374.114         577.203          37.000  
J03  39031027.245   205109182.362        -340.084          36.000  
> 2025 04 24 04 19 24.0003883  0 17                     
C07  35762765.603   186225898.219         241.456          40.000  
C10  36523745.887   190188548.809         450.865          30.000  
C30  21725689.168   113131364.021        -141.827          43.000  
C38  37942629.114   197577033.196        1723.373          34.000  
C40  36031852.418   187627115.471         182.253          43.000  
C45  24336600.872   126726889.623        1387.691          21.000  
E11  25679607.827   134947234.782       -2079.005          37.000  
E34  25887492.012   136039647.022        2300.425          29.000  
E36  23377551.908   122849714.838         141.822          39.000  
G01  22618752.314   118862166.028       -2890.213          25.000  
G03  21267698.629   111762510.154        -275.250          44.000  
G06  22450933.592   117980202.600        2639.001          36.000  
G14  20349466.707   106936954.517       -1450.730          32.000  
G17  20711418.134   108839039.888         352.138          42.000  
G22  20699375.770   108775716.074          87.209          33.000  
J02  37829634.339   198795877.775         576.612          36.000  
J03  39031108.976   205109602.578        -340.181          35.000  
> 2025 04 24 04 19 25.0003273  0 17                     
C07  35762747.053   186225802.341         239.398          40.000  
C10  36523688.364   190188241.465         451.092          30.000  
C30  21725744.967   113131649.290        -144.230          43.000  
C38  37942325.162   197575454.630        1721.109          34.000  
C40  36031846.459   187627079.427         180.039          43.000  
C45  24336362.874   126725646.891        1384.391          21.000  
E11  25680034.170   134949460.627       -2081.578          36.000  
E34  25887089.129   136037491.813        2301.117          27.000  
E36  23377555.543   122849720.353         139.916          39.000  
G01  22619334.848   118865201.835       -2890.790          26.000  
G03  21267779.910   111762931.047        -277.965          44.000  
G06  22450462.056   117977974.340        2636.665          37.000  
G14  20349771.334   106938551.561       -1455.633          31.000  
G17  20711379.798   108838834.632         350.007          42.000  
G22  20699388.099   108775776.603          82.676          32.000  
J02  37829553.133   198795447.560         574.032          36.000  
J03  39031201.949   205110088.707        -343.085          35.000  
> 2025 04 24 04 19 26.0002662  0 17                     
C07  35762698.974   186225547.544         240.883          38.000  
C10  36523598.014   190187776.130         450.411          30.000  
C30  21725771.836   113131778.143        -142.443          43.000  
C38  37941992.580   197573720.790        1718.159          33.000  
C40  36031810.072   187626884.284         180.502          43.000  
C45  24336091.749   126724248.988        1383.469          21.000  
E11  25680428.584   134951526.067       -2080.876          36.000  
E34  25886660.013   136035176.590        2300.326          22.000  
E36  23377529.048   122849566.391         139.259          38.000  
G01  22619884.255   118868077.709       -2891.274          21.000  
G03  21267831.362   111763193.990        -276.593          44.000  
G06  22449958.892   117975324.456        2635.289          35.000  
G14  20350046.731   106939991.876       -1456.243          32.000  
G17  20711311.033   108838468.937         351.650          42.000  
G22  20699370.899   108775678.649          84.195          33.000  
J02  37829442.697   198794859.456         574.744          36.000  
J03  39031264.793   205110680.367        -342.054          34.000  
> 2025 04 24 04 19 27.0002051  0 18                     
C07  35762652.993   186225292.341         239.865          39.000  
C10  36523511.562   190187310.806         451.339          31.000  
C30  21725797.206   113131905.411        -143.355          43.000  
C38  37941661.197   197571988.700        1717.972          33.000  
C40  36031773.984   187626689.191         180.553          43.000  
C45  24335822.723   126722851.585        1383.915          20.000  
E11  25680816.403   134953590.095       -2080.478          35.000  
E16  26586200.119   139711424.9061      -2801.343          10.000  
E34  25886233.896   136032862.423        2298.055          23.000  
E36  23377498.957   122849412.784         139.192          38.000  
G01  22620433.063   118870952.765       -2891.754          24.000  
G03  21267883.113   111763454.682        -278.333          44.000  
G06  22449456.027   117972675.152        2634.365          33.000  
G14  20350323.027   106941433.374       -1457.196          32.000  
G17  20711242.268   108838102.768         351.192          42.000  
G22  20699353.698   108775580.646          82.205          33.000  
J02  37829331.062   198794271.209         573.193          37.000  
J03  39031327.037   205111006.767        -341.711          35.000  
> 2025 04 24 04 19 28.0001441  0 18                     
C07  35762636.055   186225195.439         239.537          39.000  
C10  36523453.552   190187002.959         450.385          32.000  
C30  21725853.717   113132191.516        -144.668          43.000  
C38  37941360.355   197570412.810        1719.440          33.000  
C40  36031767.539   187626651.478         180.321          43.000  
C45  24335588.435   126721611.585        1382.752          22.000  
E11  25681247.655   134955814.289       -2081.021          35.000  
E16  26586759.682   139714369.6861      -2801.398          12.000  
E34  25885840.418   136031009.414        2298.990          26.000  
E36  23377501.205   122849418.475         138.476          39.000  
G01  22621016.009   118873987.421       -2893.002          25.000  
G03  21267965.406   111763876.792        -280.404          44.000  
G06  22448980.707   117970184.336        2634.628          34.000  
G14  20350628.366   106943033.213       -1457.272          32.000  
G17  20711204.044   108837895.951         350.461          42.000  
G22  20699367.339   108775908.874          82.868          33.000  
J02  37829250.567   198793841.750         573.641          36.000  
J03  39031422.221   205111491.778        -342.220          34.000  
> 2025 04 24 04 19 29.0000830  0 18                     
C07  35762587.413   186224940.264         239.795          39.000  
C10  36523364.139   190186537.811         448.818          31.000  
C30  21725879.124   113132319.603        -145.455          43.000  
C38  37941028.110   197568677.339        1719.163          35.000  
C40  36031731.789   187626455.998         179.450          43.000  
C45  24335317.947   126720213.976        1380.627          22.000  
E11  25681637.310   134957880.583       -2082.672          34.000  
E16  26587291.439   139717155.6461      -2804.613          11.000  
E34  25885359.476   136028695.222        2297.773          27.000  
E36  23377476.547   122849264.869         137.723          39.000  
G01  22621561.556   118876863.199       -2893.690          24.000  
G03  21268016.896   111764140.613        -281.853          44.000  
G06  22448479.379   117967533.639        2635.396          34.000  
G14  20350902.601   106944472.668       -1458.311          32.000  
G17  20711135.916   108837530.386         348.269          42.000  
G22  20699348.677   108775811.419          80.444          32.000  
J02  37829139.269   198793252.577         572.307          37.000  
J03  39031483.604   205111817.614        -343.070          34.000  
> 2025 04 24 04 19 30.0000220  0 18                     
C07  35762569.388   186224844.775         238.209          39.000  
C10  36523311.038   190186231.727         449.373          33.000  
C30  21725936.047   113132606.628        -146.027          44.000  
C38  37940728.580   197567102.118        1719.398          35.000  
C40  36031725.456   187626419.961         179.082          43.000  
C45  24335083.472   126718977.329        1382.283          21.000  
E11  25682064.477   134960107.196       -2082.935          34.000  
E16  26587852.313   139720105.7041      -2804.556          11.000  
E34  25884958.616   136026541.882        2298.668          29.000  
E36  23377477.109   122849272.310         137.300          39.000  
G01  22622136.221   118879902.551       -2894.849          23.000  
G03  21268099.301   111764566.836        -281.856          44.000  
G06  22448008.067   117965044.270        2633.488          35.000  
G14  20351208.651   106946074.388       -1457.920          33.000  
G17  20711098.705   108837326.373         348.374          43.000  
G22  20699360.631   108775875.732          81.006          33.000  
J02  37829058.887   198792823.852         574.538          38.000  
J03  39031576.802   205112305.849        -343.158          35.000  
> 2025 04 24 04 19 30.9999609  0 18                     
C07  35762521.197   186224591.701         237.819          39.000  
C10  36523224.173   190185767.574         449.213          34.000  
C30  21725961.305   113132738.863        -146.978          44.000  
C38  37940396.185   197565366.045        1721.077          36.000  
C40  36031689.855   187626226.984         178.070          42.000  
C45  24334816.432   126717580.7651       1379.322          19.000  
E11  25682456.980   134962175.123       -2083.857          36.000  
E16  26588383.620   139722893.5821      -2804.920          10.000  
E34  25884519.495   136024228.556        2298.266          31.000  
E36  23377448.404   122849122.389         135.143          38.000  
G01  22622684.017   118882780.982       -2895.295          25.000  
G03  21268151.540   111764833.011        -283.339          44.000  
G06  22447505.091   117962395.970        2633.119          32.000  
G14  20351483.636   106947517.614       -1459.225          34.000  
G17  20711030.727   108836963.418         347.732          43.000  
G22  20699346.316   108775780.833          78.817          32.000  
J02  37828948.039   198792233.727         574.180          38.000  
J03  39031640.732   205112632.409        -341.925          33.000  
> 2025 04 24 04 19 31.9998998  0 18                     
C07  35762474.317   186224341.007         238.615          39.000  
C10  36523135.022   190185305.865         449.175          33.000  
C30  21725988.474   113132871.740        -145.162          43.000  
C38  37940064.802   197563634.664        1716.509          36.000  
C40  36031654.067   187626035.653         179.658          42.000  
C45  24334550.704   126716190.103        1378.998          23.000  
E11  25682854.392   134964244.599       -2083.720          36.000  
E16  26588912.941   139725687.0431      -2805.507          11.000  
E34  25884075.090   136021918.870        2296.498          31.000  
E36  23377422.809   122848973.930         135.511          38.000  
G01  22623232.824   118885661.816       -2894.733          26.000  
G03  21268203.592   111765102.809        -282.988          44.000  
G06  22447001.926   117959750.608        2631.945          34.000  
G14  20351761.131   106948964.559       -1461.338          33.000  
G17  20710963.161   108836602.925         349.016          43.000  
G22  20699328.815   108775689.122          79.187          32.000  
J02  37828838.203   198791648.303         571.385          38.000  
J03  39031704.476   205112961.125        -343.099          32.000  
> 2025 04 24 04 19 32.9998388  0 18                     
C07  35762457.678   186224245.289         238.836          39.000  
C10  36523077.912   190184999.471         449.655          35.000  
C30  21726046.483   113133158.157        -145.579          44.000  
C38  37939762.461   197562063.353        1713.473          34.000  
C40  36031647.322   187625998.811         179.839          42.000  
C45  24334310.120   126714954.112        1377.361          27.000  
E11  25683284.145   134966470.060       -2081.730          36.000  
E16  26589470.705   139728635.4961      -2805.821          10.000  
E34  25883654.631   136019768.597        2294.234          30.000  
E36  23377422.360   122848982.345         135.728          38.000  
G01  22623738.724   118888699.998       -2895.323          23.000  
G03  21268286.484   111765530.258        -284.585          44.000  
G06  22446530.203   117957264.947        2629.450          31.000  
G14  20352068.569   106950841.570       -1462.886          30.000  
G17  20710924.938   108836398.128         349.039          43.000  
G22  20699340.657   108775755.111          78.308          31.000  
J02  37828757.409   198791221.963         570.125          38.000  
J03  39031800.259   205113446.823        -342.679          30.000  
> 2025 04 24 04 19 33.9997777  0 18                     
C07  35762410.199   186224254.069         236.445          40.000  
C10  36522987.862   190184535.582         447.936          36.000  
C30  21726073.652   113133288.374        -147.170          45.000  
C38  37939434.376   197560335.286        1713.517          33.000  
C40  36031611.534   187625805.481         177.624          42.000  
C45  24334041.094   126713561.368        1379.118          29.000  
E11  25683676.161   134968535.937       -2083.203          36.000  
E16  26589996.129   139731428.4961      -2806.837          11.000  
E34  25883215.623   136017460.529        2293.725          29.000  
E36  23377396.465   122848833.200         134.076          39.000  
G01  22624289.930   118891580.4081      -2896.522          20.000  
G03  21268339.735   111765799.130        -285.953          44.000  
G06  22446027.039   117954620.939        2628.503          33.000  
G14  20352342.466   106952290.015       -1464.578          31.000  
G17  20710857.072   108836035.584         347.252          43.000  
G22  20699323.457   108775663.114          74.937          31.000  
J02  37828647.572   198790637.245         570.299          38.000  
J03  39031864.003   205113775.611        -343.670          29.000  
> 2025 04 24 04 19 34.9997167  0 18                     
C07  35762393.148   186224157.872         237.586          40.000  
C10  36522929.739   190184228.256         448.285          36.000  
C30  21726130.350   113133576.393        -148.327          45.000  
C38  37939132.822   197558763.865        1711.777          33.000  
C40  36031606.475   187626029.655         178.186          42.000  
C45  24333803.696   126712323.919        1378.221          28.000  
E11  25684101.004   134970763.292       -2084.909          36.000  
E16  26590552.281   139734377.3331      -2807.387          11.000  
E34  25882810.041   136015309.682        2293.337          28.000  
E36  23377400.400   122848842.065         133.714          39.000  
G01  22624873.364   118894618.2521      -2897.643          15.000  
G03  21268423.414   111766227.376        -287.116          45.000  
G06  22445555.203   117952134.785        2628.683          34.000  
G14  20352646.793   106953895.995       -1467.242          29.000  
G17  20710819.336   108835831.062         346.567          44.000  
G22  20699334.886   108775730.673          74.261          31.000  
J02  37828568.764   198790210.327         568.261          39.000  
J03  39031957.875   205114260.408        -344.120          31.000  
> 2025 04 24 04 19 35.9996556  0 18                     
C07  35762346.605   186223909.553         236.852          40.000  
C10  36522841.825   190183768.447         449.489          36.000  
C30  21726156.957   113133712.150        -147.349          45.000  
C38  37938803.276   197557304.126        1714.258          34.000  
C40  36031570.725   187625840.096         178.728          42.000  
C45  24333536.806   126710935.931        1376.065          26.000  
E11  25684495.756   134972833.680       -2083.651          35.000  
E16  26591080.441   139737172.4071      -2807.972          11.000  
E34  25882379.164   136013006.446        2292.685          29.000  
E36  23377372.744   122848698.692         132.399          39.000  
G01  22625435.699   118897503.9301      -2898.243          14.000  
G03  21268477.602   111766503.348        -287.305          44.000  
G06  22445056.873   117949495.659        2627.985          34.000  
G14  20352921.628   106955349.872       -1467.427          28.000  
G17  20710752.407   108835738.223         347.189          43.000  
G22  20699318.023   108775644.827          74.973          30.000  
J02  37828459.865   198789898.227         569.645          39.000  
J03  39032022.256   205114593.587        -344.446          32.000  
> 2025 04 24 04 19 36.9995945  0 18                     
C07  35762297.889   186223655.480         238.487          40.000  
C10  36522753.237   190183301.870         450.775          36.000  
C30  21726182.589   113133843.041        -147.193          44.000  
C38  37938472.754   197555573.248        1714.784          34.000  
C40  36031534.900   187625644.927         179.557          42.000  
C45  24333270.440   126709544.079        1375.734          26.000  
E11  25684894.030   134974898.176       -2082.028          35.000  
E16  26591607.626   139739965.5501      -2808.428          12.000  
E34  25881932.923   136010697.982        2293.535          29.000  
E36  23377346.512   122848548.731         133.281          38.000  
G01  22625999.159   118900383.6771      -2898.935          14.000  
G03  21268530.215   111766772.085        -286.994          44.000  
G06  22444559.667   117946851.437        2628.517          34.000  
G14  20353199.386   106956798.578       -1464.460          30.000  
G17  20710684.504   108835374.332         348.006          43.000  
G22  20699298.686   108775552.869          75.728          30.000  
J02  37828349.691   198789311.585         570.382          39.000  
J03  39032085.362   205114919.737        -343.598          32.000  
> 2025 04 24 04 19 37.9995335  0 18                     
C07  35762280.314   186223562.015         237.279          39.000  
C10  36522696.988   190183266.976         448.193          34.000  
C30  21726240.861   113134134.166        -148.600          44.000  
C38  37938170.076   197554003.966        1712.890          32.000  
C40  36031530.515   187625610.719         177.887          42.000  
C45  24333034.915   126708313.039        1374.882          25.000  
E11  25685317.750   134977127.050       -2084.025          35.000  
E16  26592170.448   139742918.5841      -2808.960          12.000  
E34  25881524.418   136008551.239        2290.522          28.000  
E36  23377348.723   122848562.248         132.345          38.000  
G01  22626592.561   118903429.0531      -2899.314          14.000  
G03  21268613.370   111767206.252        -289.422          43.000  
G06  22444091.504   117944368.319        2628.822          32.000  
G14  20353509.184   106958408.008       -1465.725          30.000  
G17  20710647.742   108835173.397         345.916          43.000  
G22  20699316.187   108775623.780          73.864          31.000  
J02  37828270.658   198788887.952         568.818          37.000  
J03  39032180.209   205115408.425        -343.945          32.000  
> 2025 04 24 04 19 38.9994724  0 18                     
C07  35762232.422   186223309.865         236.044          38.000  
C10  36522610.423   190182804.103         448.580          34.000  
C30  21726266.119   113134265.207        -149.985          44.000  
C38  37937838.881   197552275.619        1713.534          33.000  
C40  36031493.716   187625417.185         177.748          42.000  
C45  24332766.976   126706922.993        1375.778          25.000  
E11  25685712.951   134979194.174       -2084.305          35.000  
E16  26592705.053   139745712.2991      -2809.101          12.000  
E34  25881084.998   136006245.320        2291.694          28.000  
E36  23377321.217   122848414.426         132.342          37.000  
G01  22627157.745   118906311.1651      -2900.213          16.000  
G03  21268665.909   111767478.350        -290.140          43.000  
G06  22443590.626   117941725.551        2626.278          32.000  
G14  20353785.368   106959858.593       -1468.526          29.000  
G17  20710580.663   108834812.408         345.113          44.000  
G22  20699303.071   108775534.804          71.730          32.000  
J02  37828160.409   198788303.851         568.002          37.000  
J03  39032245.039   205115735.515        -345.484          32.000  
> 2025 04 24 04 19 40.0004113  0 18                     
C07  35762204.803   186223157.988         236.810          38.000  
C10  36522540.534   190182439.911         447.526          34.000  
C30  21726311.050   113134497.526        -148.607          44.000  
C38  37937526.759   197550645.235        1712.153          35.000  
C40  36031477.490   187625324.021         178.097          42.000  
C45  24332520.509   126705630.144        1374.036          25.000  
E11  25686131.424   134981365.482       -2084.516          34.000  
E16  26593258.733   139748609.0921      -2809.539          12.000  
E34  25880671.846   136004036.404        2290.078          30.000  
E36  23377317.283   122848631.143         131.354          38.000  
G01  22627741.703   118909585.150       -2899.847          24.000  
G03  21268738.121   111767853.826        -290.799          44.000  
G06  22443109.421   117939182.328        2626.057          32.000  
G14  20354083.923   106961413.642       -1468.587          32.000  
G17  20710531.760   108834551.520         345.338          43.000  
G22  20699306.631   108775548.622          71.170          33.000  
J02  37828068.935   198787820.323         567.993          38.000  
J03  39032326.845   205116164.387        -345.088          34.000  
> 2025 04 24 04 19 41.0003502  0 18                     
C07  35762160.022   186222904.942         237.012          39.000  
C10  36522451.383   190181976.177         448.344          34.000  
C30  21726337.619   113134630.901        -149.341          44.000  
C38  37937195.976   197548915.830        1714.950          35.000  
C40  36031440.203   187625129.710         177.840          42.000  
C45  24332258.678   126704240.768        1371.743          26.000  
E11  25686519.543   134983433.224       -2084.947          34.000  
E16  26593792.850   139751403.2631      -2806.421          12.000  
E34  25880229.240   136001729.540        2293.775          30.000  
E36  23377285.992   122848484.285         130.705          37.000  
G01  22628294.408   118912468.030       -2899.891          27.000  
G03  21268791.372   111768127.180        -291.767          44.000  
G06  22442604.458   117936539.087        2627.747          33.000  
G14  20354362.318   106962864.168       -1467.945          32.000  
G17  20710464.194   108834190.342         344.999          43.000  
G22  20699291.828   108775460.540          72.944          34.000  
J02  37827959.998   198787234.936         570.577          38.000  
J03  39032391.188   205116492.396        -343.449          34.000  
> 2025 04 24 04 19 42.0002891  0 18                     
C07  35762113.029   186222657.712         234.280          38.000  
C10  36522365.717   190181516.400         446.703          33.000  
C30  21726366.474   113134768.637        -151.639          44.000  
C38  37936865.679   197547188.029        1717.286          34.000  
C40  36031404.902   187624941.512         175.250          41.000  
C45  24331997.933   126702858.325        1370.341          25.000  
E11  25686913.245   134985506.828       -2087.653          34.000  
E16  26594325.956   139754196.3861      -2807.187          12.000  
E34  25879785.922   135999424.093        2293.178          30.000  
E36  23377263.582   122848341.939         130.463          37.000  
G01  22628779.847   118915040.259       -2901.799          24.000  
G03  21268845.110   111768406.818        -293.145          43.000  
G06  22442100.582   117933899.498        2628.187          32.000  
G14  20354641.800   106964319.099       -1467.673          33.000  
G17  20710397.715   108833835.063         342.108          43.000  
G22  20699276.614   108775375.818          72.902          32.000  
J02  37827850.049   198786652.065         571.520          39.000  
J03  39032456.018   205116823.507        -344.616          33.000  
> 2025 04 24 04 19 43.0002281  0 18                     
C07  35762095.941   186222562.984         236.180          38.000  
C10  36522306.358   190181209.878         446.503          33.000  
C30  21726423.435   113135058.550        -151.868          44.000  
C38  37936564.088   197545610.012        1719.661          34.000  
C40  36031398.607   187624905.935         176.818          41.000  
C45  24331763.496   126701628.407        1370.758          21.000  
E11  25687338.950   134987736.238       -2088.789          34.000  
E16  26594887.767   139757144.8811      -2807.395          12.000  
E34  25879386.898   135997272.160        2293.723          32.000  
E36  23377268.679   122848353.125         130.623          37.000  
G01  22629367.140   118918087.176       -2905.389          24.000  
G03  21268928.152   111768840.416        -293.989          43.000  
G06  22441628.409   117931412.072        2630.603          33.000  
G14  20354950.286   106965925.659       -1464.969          33.000  
G17  20710360.541   108833634.561         342.118          43.000  
G22  20699292.203   108775445.574          71.536          33.000  
J02  37827768.206   198786221.464         572.625          39.000  
J03  39032547.455   205117307.357        -345.772          32.000  
> 2025 04 24 04 19 44.0001670  0 18                     
C07  35762048.349   186222313.413         235.980          38.000  
C10  36522219.194   190180749.966         445.684          32.000  
C30  21726451.990   113135197.411        -152.681          44.000  
C38  37936232.293   197543875.930        1721.496          32.000  
C40  36031362.707   187624715.801         175.494          41.000  
C45  24331504.850   126700529.866        1369.476          21.000  
E11  25687736.550   134989811.931       -2089.373          34.000  
E16  26595421.773   139759938.3171      -2803.812          12.000  
E34  25878964.266   135994964.519        2294.792          27.000  
E36  23377241.173   122848209.878         129.853          36.000  
G01  22629922.131   118920977.516       -2905.425          26.000  
G03  21268983.089   111769120.790        -294.898          43.000  
G06  22441125.132   117928768.987        2630.091          31.000  
G14  20355230.667   106967378.398       -1467.225          33.000  
G17  20710294.062   108833279.274         341.314          43.000  
G22  20699278.488   108775360.275          71.642          32.000  
J02  37827657.358   198785634.478         574.504          38.000  
J03  39032612.285   205117638.732        -344.819          31.000  
> 2025 04 24 04 19 45.0001059  0 18                     
C07  35762001.694   186222064.282         234.385          38.000  
C10  36522131.767   190180290.728         446.427          32.000  
C30  21726479.684   113135336.762        -154.503          44.000  
C38  37935897.837   197542141.365        1719.981          33.000  
C40  36031328.343   187624526.978         174.783          41.000  
C45  24331240.545   126699147.890        1366.585          21.000  
E11  25688133.588   134991889.417       -2092.135          35.000  
E16  26595953.717   139762729.3621      -2800.664          12.000  
E34  25878541.371   135992655.711        2296.054          28.000  
E36  23377213.105   122848066.854         129.266          38.000  
G01  22630476.859   118923868.639       -2906.980          29.000  
G03  21269038.064   111769403.665        -297.225          44.000  
G06  22440620.994   117926125.039        2631.044          32.000  
G14  20355508.087   106968830.414       -1468.014          33.000  
G17  20710227.920   108832925.747         339.667          43.000  
G22  20699264.810   108775276.527          68.652          32.000  
J02  37827546.547   198785046.017         575.072          38.000  
J03  39032676.853   205117968.268        -343.436          33.000  
> 2025 04 24 04 19 46.0000449  0 18                     
C07  35761984.568   186221969.842         235.231          39.000  
C10  36522074.469   190179985.401         445.967          32.000  
C30  21726537.206   113135630.372        -153.255          43.000  
C38  37935596.208   197540561.337        1719.137          33.000  
C40  36031323.209   187624492.413         175.534          41.000  
C45  24331013.865   126697922.144        1365.611          20.000  
E11  25688556.857   134994121.994       -2091.645          35.000  
E16  26596517.289   139765670.2681      -2801.057          18.000  
E34  25878144.408   135990501.485        2295.315          24.000  
E36  23377219.063   122848079.735         129.058          38.000  
G01  22631059.618   118926917.776       -2907.302          31.000  
G03  21269123.467   111769841.541        -296.510          44.000  
G06  22440150.582   117923636.375        2629.336          31.000  
G14  20355815.337   106970438.296       -1466.486          33.000  
G17  20710191.608   108832727.366         340.489          42.000  
G22  20699279.162   108775348.427          70.026          33.000  
J02  37827464.966   198784613.848         572.820          37.000  
J03  39032770.350   205118452.939        -343.901          33.000  
> 2025 04 24 04 19 46.9999838  0 18                     
C07  35761937.988   186221721.889         237.329          38.000  
C10  36521991.914   190179527.246         447.955          32.000  
C30  21726565.574   113135769.182        -151.830          43.000  
C38  37935265.725   197538833.011        1715.436          32.000  
C40  36031287.721   187624304.817         177.659          41.000  
C45  24330741.541   126696545.216        1366.438          20.000  
E11  25688955.469   134996199.360       -2089.364          33.000  
E16  26596892.217   139767611.543       -2803.081          21.000  
E34  25877722.188   135988194.977        2293.971          21.000  
E36  23377191.370   122847938.490         129.784          38.000  
G01  22631611.124   118929810.783       -2905.097          30.000  
G03  21269179.116   111770124.270        -296.267          43.000  
G06  22439645.919   117920996.287        2628.303          30.000  
G14  20356094.631   106971893.400       -1469.542          33.000  
G17  20710125.541   108832375.128         341.702          42.000  
G22  20699264.360   108775267.676          68.738          33.000  
J02  37827355.129   198784030.563         571.615          37.000  
J03  39032834.094   205118785.611        -344.551          31.000  
> 2025 04 24 04 19 47.9999227  0 18                     
C07  35761890.321   186221469.784         234.865          38.000  
C10  36521904.674   190179063.846         447.395          32.000  
C30  21726592.855   113135904.918        -152.405          43.000  
C38  37934935.653   197537102.378        1715.200          32.000  
C40  36031250.847   187624112.019         175.993          42.000  
C45  24330476.224   126695162.433        1367.875          23.000  
E11  25689351.195   134998268.857       -2088.093          33.000  
E16  26597415.955   139770401.396       -2805.186          28.000  
E34  25877299.181   135985885.6751       2292.281          18.000  
E36  23377164.388   122847793.458         129.260          38.000  
G01  22632162.143   118932698.425       -2903.466          31.000  
G03  21269233.379   111770404.969        -297.698          43.000  
G06  22439149.762   117918352.963        2626.352          33.000  
G14  20356372.539   106973347.142       -1470.179          32.000  
G17  20710058.387   108832016.714         341.194          42.000  
G22  20699250.270   108775182.265          69.824          34.000  
J02  37827244.506   198783443.210         570.361          38.000  
J03  39032896.151   205119111.484        -342.899          30.000  
> 2025 04 24 04 19 48.9998617  0 18                     
C07  35761874.395   186221378.123         235.970          38.000  
C10  36521845.577   190178761.580         446.526          31.000  
C30  21726650.978   113136200.183        -153.339          43.000  
C38  37934633.725   197535529.520        1716.879          32.000  
C40  36031246.912   187624079.579         175.995          42.000  
C45  24330248.944   126693938.427        1367.122          22.000  
E11  25689779.561   135000501.782       -2089.779          33.000  
E16  26597976.829   139773352.394       -2805.251          31.000  
E34  25876895.623   135984004.1751       2293.497          17.000  
E36  23377170.647   122847810.156         128.340          38.000  
G01  22632744.002   118935744.953       -2903.655          31.000  
G03  21269319.082   111770846.491        -298.494          43.000  
G06  22438685.646   117915871.791        2627.423          31.000  
G14  20356680.388   106974961.915       -1471.589          31.000  
G17  20710022.075   108831820.746         340.626          42.000  
G22  20699266.421   108775258.856          67.885          34.000  
J02  37827164.424   198783017.403         571.552          38.000  
J03  39032990.548   205119598.950        -344.539          31.000  
> 2025 04 24 04 19 49.9998006  0 18                     
C07  35761828.451   186221125.982         235.412          39.000  
C10  36521758.263   190178300.053         445.095          32.000  
C30  21726679.083   113136337.830        -153.676          44.000  
C38  37934301.779   197533796.062        1718.186          32.000  
C40  36031210.862   187623887.519         175.578          42.000  
C45  24329991.048   126692555.953        1365.741          22.000  
E11  25690171.314   135002574.584       -2089.921          34.000  
E16  26598507.986   139776139.909       -2803.978          33.000  
E34  25876449.757   135981694.6721       2294.244          17.000  
E36  23377142.991   122847666.024         127.852          38.000  
G01  22633296.445   118938632.118       -2904.341          32.000  
G03  21269373.869   111771128.498        -299.117          43.000  
G06  22438195.710   117913514.213        2627.242          36.000  
G14  20356959.120   106976413.930       -1471.149          32.000  
G17  20709954.847   108831464.241         340.058          42.000  
G22  20699250.757   108775175.498          67.383          35.000  
J02  37827054.325   198782428.770         572.745          38.000  
J03  39033055.528   205119927.463        -344.547          32.000  
> 2025 04 24 04 19 50.9997396  0 18                     
C07  35761811.925   186221034.016         236.868          39.000  
C10  36521703.064   190177997.053         448.029          32.000  
C30  21726737.205   113136632.286        -153.495          43.000  
C38  37934000.450   197532221.154        1718.218          33.000  
C40  36031206.627   187623855.269         177.022          41.000  
C45  24329758.971   126691334.106        1365.156          22.000  
E11  25690602.379   135004809.946       -2090.265          34.000  
E16  26599073.957   139779088.503       -2803.681          36.000  
E34  25876032.408   135979545.544        2293.996          21.000  
E36  23377149.549   122847682.675         128.641          38.000  
G01  22633877.705   118941680.076       -2906.420          33.000  
G03  21269459.272   111771572.095        -300.859          43.000  
G06  22437743.586   117911032.937        2626.855          37.000  
G14  20357268.169   106978028.714       -1471.392          31.000  
G17  20709919.134   108831268.801         340.464          42.000  
G22  20699267.808   108775252.403          67.582          34.000  
J02  37826973.943   198782001.377         571.838          37.000  
J03  39033149.026   205120415.249        -343.219          33.000  
> 2025 04 24 04 19 51.9996785  0 18                     
C07  35761764.970   186220784.061         236.469          40.000  
C10  36521614.437   190177535.428         448.727          31.000  
C30  21726765.198   113136771.863        -154.318          43.000  
C38  37933667.493   197530490.034        1717.046          34.000  
C40  36031171.064   187623665.512         175.637          40.000  
C45  24329494.067   126689955.672        1366.896          24.000  
E11  25690996.718   135006885.893       -2091.296          33.000  
E16  26599603.203   139781879.683       -2805.729          35.000  
E34  25875514.179   135976745.088        2294.585          21.000  
E36  23377124.179   122847541.752         127.307          37.000  
G01  22634431.534   118944574.248       -2908.691          35.000  
G03  21269515.146   111771859.158        -303.862          41.000  
G06  22437270.626   117908395.159        2624.349          39.000  
G14  20357548.288   106979488.742       -1473.710          34.000  
G17  20709852.992   108830915.485         339.286          42.000  
G22  20699253.230   108775171.921          66.396          33.000  
J02  37826863.732   198781416.676         570.419          37.000  
J03  39033214.193   205120745.690        -345.307          35.000  
> 2025 04 24 04 19 52.9996174  0 18                     
C07  35761718.427   186220532.047         235.989          40.000  
C10  36521526.523   190177072.192         447.460          33.000  
C30  21726793.304   113136910.542        -154.414          42.000  
C38  37933336.747   197528757.535        1717.597          31.000  
C40  36031136.213   187623474.520         175.284          39.000  
C45  24329222.380   126688572.807        1367.330          31.000  
E11  25691392.969   135008960.880       -2092.623          28.000  
E16  26600139.756   139784671.668       -2807.227          35.000  
E34  25875080.305   135974434.051        2296.180          26.000  
E36  23377095.923   122847397.718         127.959          37.000  
G01  22634986.675   118947463.388       -2906.271          32.000  
G03  21269570.833   111772148.379        -306.515          37.000  
G06  22436779.791   117906073.489        2623.147          37.000  
G14  20357825.820   106980942.915       -1471.581          36.000  
G17  20709786.663   108830560.077         339.928          40.000  
G22  20699238.765   108775089.179          67.873          33.000  
J02  37826753.633   198780830.862         570.232          34.000  
J03  39033277.674   205121074.747        -346.052          39.000  
> 2025 04 24 04 19 53.9995564  0 18                     
C07  35761700.328   186220439.586         233.756          40.000  
C10  36521469.750   190176768.016         447.096          28.000  
C30  21726850.452   113137207.728        -155.686          39.000  
C38  37933035.344   197527182.268        1717.521          29.000  
C40  36031131.304   187623443.630         171.620          40.000  
C45  24328984.532   126687347.768        1368.807          30.000  
E11  25691822.459   135011199.110       -2096.138          32.000  
E16  26600703.853   139787624.761       -2810.086          34.000  
E34  25874686.265   135972282.000        2296.694          29.000  
E36  23377102.706   122847415.078         126.613          37.000  
G01  22635571.457   118950515.626       -2912.979          33.000  
G03  21269658.259   111772598.808        -310.177          40.000  
G06  22436237.054   117903221.282        2622.162          33.000  
G14  20358136.893   106982559.564       -1474.689          34.000  
G17  20709750.576   108830365.375         338.137          38.000  
G22  20699253.343   108775165.429          65.283          34.000  
J02  37826672.877   198780405.458         568.391          33.000  
J03  39033371.397   205121563.251        -350.847          42.000  
> 2025 04 24 04 19 54.9994953  0 18                     
C07  35761655.209   186220193.840         235.924          39.000  
C10  36521382.660   190176308.774         448.250          25.000  
C30  21726879.682   113137350.442        -155.128          37.000  
C38  37932704.223   197525456.101        1712.782          38.000  
C40  36031096.978   187623260.541         172.628          40.000  
C45  24328719.366   126685965.310        1373.228          30.000  
E11  25692219.234   135013285.129       -2098.480          32.000  
E16  26601235.236   139790427.977       -2816.664          32.000  
E34  25874258.611   135969973.073        2298.596          27.000  
E36  23377076.474   122847278.872         125.533          35.000  
G01  22636122.926   118953419.539       -2917.449          35.000  
G03  21269717.468   111772900.498        -318.469          35.000  
G06  22435735.051   117900582.045        2635.129          34.000  
G14  20358416.449   106984022.383       -1476.762          32.000  
G17  20709685.071   108830015.940         339.288          36.000  
G22  20699240.302   108775089.228          66.229          31.000  
J02  37826564.502   198779828.786         564.507          38.000  
J03  39033437.201   205121901.933        -348.581          41.000  
> 2025 04 24 04 19 56.0004342  0 18                     
C07  35761625.342   186220037.601         236.180          37.000  
C10  36521312.022   190175939.024         451.612          29.000  
C30  21726926.562   113137583.464        -153.381          37.000  
C38  37932393.151   197523823.031        1710.847          38.000  
C40  36031080.002   187623167.310         173.659          40.000  
C45  24328471.250   126684668.662        1378.158          30.000  
E11  25692635.758   135015468.172       -2099.367          27.000  
E16  26601782.169   139793330.382       -2817.417          34.000  
E34  25873838.414   135967751.408        2301.172          29.000  
E36  23377067.293   122847230.889         128.546          33.000  
G01  22636695.342   118956419.209       -2917.554          31.000  
G03  21269793.428   111773297.636        -315.938          39.000  
G06  22435245.603   117898022.763        2638.133          34.000  
G14  20358713.056   106985581.071       -1476.366          33.000  
G17  20709637.216   108829755.644         341.310          34.000  
G22  20699242.812   108775101.965          68.681          33.000  
J02  37826471.978   198779345.297         562.783          39.000  
J03  39033521.256   205122332.069        -351.556          41.000  
> 2025 04 24 04 19 57.0003731  0 18                     
C07  35761578.424   186219784.901         240.267          35.000  
C10  36521224.632   190175471.424         455.324          31.000  
C30  21726953.693   113137720.860        -152.832          35.000  
C38  37932061.131   197522096.555        1711.945          37.000  
C40  36031043.578   187622978.435         173.796          35.000  
C45  24328205.484   126683274.253        1381.115          28.000  
E11  25693031.035   135017551.892       -2100.319          31.000  
E16  26602321.646   139796133.343       -2818.583          31.000  
E34  25873401.767   135965432.406        2306.258          31.000  
E36  23377043.160   122847086.864         128.382          31.000  
G01  22637248.009   118959319.903       -2918.501          32.000  
G03  21269852.937   111773598.934        -319.250          38.000  
G06  22434738.504   117895368.711        2640.815          35.000  
G14  20358991.114   106987039.506       -1475.579          35.000  
G17  20709569.913   108829399.077         341.931          32.000  
G22  20699225.874   108775018.031          68.917          33.000  
J02  37826363.304   198778768.207         560.477          36.000  
J03  39033585.261   205122665.339        -351.399          41.000  
> 2025 04 24 04 19 58.0003120  0 18                     
C07  35761529.933   186219532.108         237.359          35.000  
C10  36521137.168   190175001.633         456.281          29.000  
C30  21726983.747   113137860.643        -154.871          33.000  
C38  37931732.033   197520372.289        1710.426          34.000  
C40  36031008.577   187622792.365         170.377          33.000  
C45  24327940.542   126681878.748        1383.850          27.000  
E11  25693430.433   135019641.158       -2104.392          32.000  
E16  26602856.551   139798940.996       -2821.418          29.000  
E34  25872962.346   135963110.640        2307.661          30.000  
E36  23377016.853   122846945.056         127.627          31.000  
G01  22637801.801   118962227.711       -2926.819          35.000  
G03  21269913.870   111773905.946        -325.588          38.000  
G06  22434233.428   117892713.341        2642.151          30.000  
G14  20359269.996   106988500.876       -1476.656          36.000  
G17  20709503.434   108829044.643         339.543          27.000  
G22  20699211.559   108774935.160          68.355          34.000  
J02  37826255.453   198778194.462         559.600          32.000  
J03  39033650.391   205123003.887        -354.883          41.000  
> 2025 04 24 04 19 59.0002510  0 18                     
C07  35761513.969   186219439.811         235.358          35.000  
C10  36521077.134   190174689.261         456.117          28.000  
C30  21727041.532   113138157.114        -156.224          34.000  
C38  37931431.267   197518804.424        1711.362          33.000  
C40  36031004.904   187622767.804         166.288          34.000  
C45  24327700.633   126680637.038        1386.803          27.000  
E11  25693863.259   135022162.851       -2110.360          30.000  
E16  26603424.582   139801909.370       -2824.774          31.000  
E34  25872551.555   135960944.162        2312.726          29.000  
E36  23377020.975   122846962.295         127.684          32.000  
G01  22638387.221   118965302.365       -2934.316          34.000  
G03  21270005.831   111774380.563        -335.556          37.000  
G06  22433758.482   117890216.695        2641.170          25.000  
G14  20359580.805   106990121.860       -1476.837          35.000  
G17  20709467.384   108828850.661         337.697          28.000  
G22  20699227.373   108775010.591          70.613          33.000  
J02  37826178.332   198777781.814         555.938          31.000  
J03  39033747.449   205123504.782        -357.488          41.000  
> 2025 04 24 04 20 00.0001899  0 18                     
C07  35761468.476   186219190.389         236.311          35.000  
C10  36520986.072   190174218.884         458.605          28.000  
C30  21727070.687   113138300.538        -157.790          32.000  
C38  37931098.572   197517079.764        1711.293          34.000  
C40  36030974.101   187622589.061         164.382          34.000  
C45  24327430.295   126679234.318        1393.206          28.000  
E11  25694262.657   135024266.616       -2117.618          31.000  
E16  26603958.588   139804724.631       -2828.509          29.000  
E34  25872107.038   135958613.319        2320.876          28.000  
E36  23376995.568   122846820.183         129.281          31.000  
G01  22638944.010   118968225.295       -2942.399          35.000  
G03  21270068.863   111774705.754        -343.184          37.000  
G06  22433251.608   117887559.478        2656.039          24.000  
G14  20359858.788   106991582.407       -1476.404          36.000  
G17  20709402.104   108828499.580         337.411          25.000  
G22  20699213.358   108774925.526          72.130          33.000  
J02  37826071.680   198777213.564         552.445          32.000  
J03  39033814.677   205123849.615        -361.793          41.000  
> 2025 04 24 04 20 01.0001288  0 18                     
C07  35761421.371   186218937.683         237.247          35.000  
C10  36520895.797   190173743.038         461.931          27.000  
C30  21727098.530   113138703.434        -156.106          32.000  
C38  37930766.664   197515354.515        1707.329          32.000  
C40  36030941.386   187622409.299         163.460          34.000  
C45  24327158.946   126677821.695        1400.127          30.000  
E11  25694668.539   135026372.435       -2122.308          32.000  
E16  26604494.579   139807542.994       -2836.398          29.000  
E34  25871662.109   135956271.665        2328.291          28.000  
E36  23376968.849   122846673.515         130.365          30.000  
G01  22639501.587   118971152.569       -2947.752          35.000  
G03  21270132.381   111775299.427        -347.775          37.000  
G06  22432743.722   117884885.836        2658.980          24.000  
G14  20360138.157   106993042.381       -1478.942          37.000  
G17  20709337.312   108828145.952         337.895          23.000  
G22  20699196.832   108774836.762          74.221          33.000  
J02  37825965.217   198776647.178         548.920          33.000  
J03  39033882.093   205124195.852        -364.251          41.000  
> 2025 04 24 04 20 02.0000678  0 18                     
C07  35761403.720   186218843.650         238.215          33.000  
C10  36520836.476   190173425.459         461.534          27.000  
C30  21727157.627   113139002.184        -156.384          33.000  
C38  37930467.809   197513791.688        1705.533          31.000  
C40  36030936.926   187622390.570         163.428          35.000  
C45  24326917.650   126676563.866        1403.108          30.000  
E11  25695098.778   135028640.359       -2122.826          30.000  
E16  26605064.222   139810529.803       -2843.230          26.000  
E34  25871246.334   135954086.044        2328.489          25.000  
E36  23376972.484   122846690.133         128.429          30.000  
G01  22640091.016   118974244.252       -2946.668          34.000  
G03  21270227.453   111775793.060        -349.747          37.000  
G06  22432265.291   117882369.768        2662.244          30.000  
G14  20360448.780   106994665.717       -1478.681          37.000  
G17  20709299.275   108827953.293         337.849          24.000  
G22  20699209.760   108774908.301          71.980          32.000  
J02  37825889.706   198776244.657         547.738          34.000  
J03  39033979.863   205124703.789        -364.960          41.000  
> 2025 04 24 04 20 03.0000067  0 18                     
C07  35761356.128   186218591.254         236.361          33.000  
C10  36520748.112   190172950.250         459.366          27.000  
C30  21727187.381   113139142.348        -159.000          34.000  
C38  37930140.210   197512071.357        1705.306          31.000  
C40  36030905.523   187622211.568         162.833          33.000  
C45  24326646.713   126675145.923        1395.758          32.000  
E11  25695506.571   135030749.733       -2125.752          30.000  
E16  26605603.024   139813357.222       -2842.814          20.000  
E34  25870801.817   135951739.407        2326.942          20.000  
E36  23376946.177   122846547.559         126.922          30.000  
G01  22640649.904   118977173.186       -2946.498          33.000  
G03  21270291.983   111776128.319        -352.169          37.000  
G06  22431756.318   117879692.053        2662.581          29.000  
G14  20360727.062   106996129.622       -1480.221          38.000  
G17  20709233.996   108827600.893         336.708          24.000  
G22  20699195.745   108774821.436          71.212          33.000  
J02  37825784.254   198775683.148         545.964          35.000  
J03  39034047.991   205125053.826        -366.004          41.000  
> 2025 04 24 04 20 03.9999456  0 18                     
C07  35761309.436   186218341.239         236.405          34.000  
C10  36520659.149   190172477.021         460.035          27.000  
C30  21727215.936   113139285.777        -157.523          33.000  
C38  37929811.413   197510350.112        1711.459          31.000  
C40  36030870.223   187622035.273         163.487          32.000  
C45  24326377.574   126673734.416        1399.695          29.000  
E11  25695902.372   135032861.311       -2125.715          30.000  
E16  26606144.824   139816186.6091      -2842.735          17.000  
E34  25870355.800   135949395.654        2329.221          23.000  
E36  23376915.073   122846405.952         128.603          31.000  
G01  22641209.692   118980105.652       -2947.630          33.000  
G03  21270357.113   111776462.930        -349.804          37.000  
G06  22431249.144   117877016.097        2662.595          26.000  
G14  20361007.143   106997594.905       -1478.559          36.000  
G17  20709169.315   108827251.081         335.864          23.000  
G22  20699180.830   108774737.568          69.903          34.000  
J02  37825678.802   198775121.277         550.490          33.000  
J03  39034115.819   205125402.981        -363.167          41.000  
> 2025 04 24 04 20 04.9998846  0 18                     
C07  35761292.460   186218246.600         234.768          35.000  
C10  36520596.305   190172159.046         458.859          26.000  
C30  21727275.108   113139585.722        -161.687          36.000  
C38  37929510.534   197508775.126        1719.729          36.000  
C40  36030868.836   187622014.053         160.689          37.000  
C45  24326137.553   126672479.387        1389.513          29.000  
E11  25696333.886   135035130.281       -2129.550          27.000  
E16  26606708.247   139819170.7471      -2827.743          11.000  
E34  25869942.499   135947206.571        2330.077          28.000  
E36  23376925.079   122846420.266         128.008          31.000  
G01  22641799.796   118983460.315       -2951.493          30.000  
G03  21270451.660   111776956.066        -350.066          38.000  
G06  22430770.488   117874495.847        2663.012          32.000  
G14  20361317.541   106999211.955       -1474.735          33.000  
G17  20709134.652   108827059.322         332.879          28.000  
G22  20699197.132   108774809.169          70.520          35.000  
J02  37825601.269   198774710.503         556.995          36.000  
J03  39034212.764   205126172.296        -363.445          41.000  
> 2025 04 24 04 20 05.9998235  0 18                     
C07  35761247.454   186217998.255         233.255          35.000  
C10  36520511.126   190171687.971         454.047          27.000  
C30  21727304.150   113139734.752        -165.032          36.000  
C38  37929179.226   197507037.793        1725.667          37.000  
C40  36030836.721   187621839.713         159.439          39.000  
C45  24325868.302   126671081.253        1378.463          30.000  
E11  25696744.564   135037245.260       -2130.058          25.000  
E16  26607246.037   139821983.7211      -2821.073          11.000  
E34  25869496.071   135944860.125        2329.894          31.000  
E36  23376900.459   122846280.513         125.155          32.000  
G01  22642361.269   118986396.387       -2954.016          29.000  
G03  21270515.778   111777288.911        -348.734          39.000  
G06  22430260.804   117871818.921        2662.473          30.000  
G14  20361596.910   107000669.958       -1470.539          31.000  
G17  20709069.859   108826714.555         328.552          33.000  
G22  20699183.304   108774724.473          70.186          34.000  
J02  37825492.107   198774136.420         560.957          41.000  
J03  39034280.480   205126518.613        -360.948          40.000  
> 2025 04 24 04 20 06.9997624  0 18                     
C07  35761198.775   186217752.582         231.801          36.000  
C10  36520421.676   190171222.696         450.446          25.000  
C30  21727334.317   113139887.016        -166.609          37.000  
C38  37928846.044   197505296.018        1731.142          38.000  
C40  36030804.531   187621667.834         159.660          40.000  
C45  24325603.473   126669693.453        1372.203          34.000  
E11  25697148.872   135039362.140       -2131.306          28.000  
E16  26607778.955   139824788.7671      -2813.941          11.000  
E34  25869052.565   135942789.054        2331.130          25.000  
E36  23376871.566   122846143.567         124.420          33.000  
G01  22642921.169   118989337.020       -2952.152          35.000  
G03  21270581.021   111777622.301        -344.587          34.000  
G06  22429752.243   117869144.346        2660.485          32.000  
G14  20361874.405   107002124.201       -1468.675          32.000  
G17  20709007.090   108826373.903         327.003          34.000  
G22  20699168.801   108774642.470          67.862          33.000  
J02  37825383.769   198773558.913         567.044          41.000  
J03  39034347.821   205126865.091        -358.376          40.000  
> 2025 04 24 04 20 07.9997014  0 17                     
C07  35761183.186   186217661.840         230.874          37.000  
C10  36520365.315   190170915.156         446.431          21.000  
C30  21727393.076   113140194.725        -169.849          36.000  
C38  37928540.855   197503703.983        1734.484          35.000  
C40  36030801.832   187621648.209         159.363          41.000  
C45  24325366.936   126668465.467        1366.164          28.000  
E11  25697580.573   135041635.117       -2131.682          30.000  
E34  25868635.254   135940599.113        2329.413          27.000  
E36  23376879.361   122846161.721         123.252          33.000  
G01  22643510.262   118992429.347       -2953.406          35.000  
G03  21270675.455   111778106.145        -341.346          30.000  
G06  22429274.074   117866627.585        2658.269          29.000  
G14  20362181.692   107003734.867       -1467.558          27.000  
G17  20708973.214   108826190.219         324.074          34.000  
G22  20699184.990   108774717.386          65.158          30.000  
J02  37825302.825   198773131.924         571.013          38.000  
J03  39034444.354   205127363.335        -358.208          41.000  
> 2025 04 24 04 20 08.9996403  0 18                     
C07  35761138.816   186217418.829         232.153          37.000  
C10  36520276.276   190170458.036         446.873          21.000  
C30  21727423.355   113140351.491        -170.495          35.000  
C38  37928206.586   197501956.573        1738.671          32.000  
C40  36030771.254   187621476.987         160.402          41.000  
C45  24325112.113   126667090.372        1364.047          23.000  
E11  25697976.598   135043752.468       -2129.866          30.000  
E16  26608858.808   139830496.8711      -2802.593          24.000  
E34  25868190.962   135938257.734        2329.067          24.000  
E36  23376855.977   122846028.580         122.781          32.000  
G01  22644069.674   118995369.274       -2953.387          35.000  
G03  21270737.812   111778436.039        -344.332          36.000  
G06  22428767.725   117863959.471        2657.065          28.000  
G14  20362462.598   107005462.199       -1468.340          26.000  
G17  20708909.658   108825854.940         323.763          33.000  
G22  20699172.099   108774642.042          64.029          29.000  
J02  37825193.701   198772547.463         574.920          36.000  
J03  39034510.308   205127707.721        -356.331          41.000  
> 2025 04 24 04 20 09.9995793  0 19                     
C07  35761120.641   186217329.029         230.112          37.000  
C10  36520220.627   190170151.457         448.147          22.000  
C30  21727484.625   113140663.764        -173.548          33.000  
C38  37927900.911   197500357.608        1741.143          30.000  
C40  36030769.267   187621459.728         157.433          41.000  
C45  24324884.083   126665866.9741       1365.144          20.000  
E11  25698414.108   135046027.554       -2137.581          31.000  
E16  26609422.230   139833439.8071      -2798.614          20.000  
E34  25867777.360   135936069.972        2330.669          22.000  
E36  23376860.586   122846048.636         122.434          33.000  
G01  22644660.078   118998465.359       -2958.424          35.000  
G03  21270832.659   111778924.686        -348.745          38.000  
G06  22428290.867   117861445.250        2657.215          28.000  
G14  20362771.497   107007072.902       -1469.012          29.000  
G17  20708877.093   108825674.952         321.913          31.000  
G19  21230813.963   111568679.6741       2067.894          30.000  
G22  20699189.899   108774719.369          66.838          29.000  
J02  37825114.068   198772116.036         572.741          35.000  
J03  39034606.654   205128207.236        -358.441          42.000  
> 2025 04 24 04 20 10.9995182  0 19                     
C07  35761076.347   186217085.288         229.588          38.000  
C10  36520128.966   190169690.300         447.256          23.000  
C30  21727515.279   113140821.777        -172.906          34.000  
C38  37927567.916   197498603.941        1739.458          29.000  
C40  36030737.564   187621289.095         155.889          41.000  
C45  24324620.341   126664487.2521       1366.694          20.000  
E11  25698826.697   135048150.688       -2137.862          32.000  
E16  26609957.435   139836225.6801      -2797.943          16.000  
E34  25867337.040   135933724.259        2331.639          22.000  
E36  23376835.179   122845913.213         121.701          34.000  
G01  22645220.765   119001410.815       -2962.490          35.000  
G03  21270896.590   111779259.814        -351.649          38.000  
G06  22427783.094   117858774.156        2658.303          27.000  
G14  20363050.079   107008527.273       -1468.879          28.000  
G17  20708814.811   108825339.600         320.173          32.000  
G19  21230418.312   111566598.191        2067.591          30.000  
G22  20699175.884   108774903.293          65.152          30.000  
J02  37825002.920   198771529.948         571.646          35.000  
J03  39034673.283   205128549.750        -359.649          42.000  
> 2025 04 24 04 20 11.9994571  0 19                     
C07  35761032.015   186216843.413         230.436          38.000  
C10  36520045.061   190169231.148         446.661          22.000  
C30  21727549.793   113140982.530        -174.872          33.000  
C38  37927233.985   197496852.809        1739.233          29.000  
C40  36030707.023   187621121.555         155.727          41.000  
C45  24324357.160   126663107.7551       1367.778          20.000  
E11  25699229.956   135050277.286       -2140.612          32.000  
E16  26610496.199   139839009.8841      -2798.835          17.000  
E34  25866893.685   135931379.294        2331.752          20.000  
E36  23376810.333   122845779.581         122.110          33.000  
G01  22645783.513   119004360.713       -2964.190          34.000  
G03  21270963.481   111779599.029        -354.870          38.000  
G06  22427275.283   117856102.782        2660.693          27.000  
G14  20363329.223   107009983.009       -1468.713          27.000  
G17  20708752.791   108825007.226         319.453          32.000  
G19  21230022.923   111564517.727        2069.394          31.000  
G22  20699163.330   108774827.150          62.684          30.000  
J02  37824893.534   198770945.114         571.606          34.000  
J03  39034740.474   205128896.094        -361.057          41.000  
> 2025 04 24 04 20 13.0003960  0 19                     
C07  35761002.710   186216692.388         230.686          38.000  
C10  36519972.886   190168864.950         445.220          22.000  
C30  21727599.933   113141236.473        -174.459          33.000  
C38  37926915.980   197495191.675        1741.402          27.000  
C40  36030693.308   187621045.505         155.386          41.000  
C45  24324112.005   126661818.1481       1369.539          19.000  
E11  25699653.338   135052501.041       -2141.730          32.000  
E16  26611059.884   139841891.5791      -2798.092          17.000  
E34  25866468.954   135929124.4311       2336.607          19.000  
E36  23376804.413   122845738.355         121.861          33.000  
G01  22646363.986   119007406.672       -2963.285          35.000  
G03  21271047.798   111780034.609        -356.179          38.000  
G06  22426784.897   117853519.236        2663.182          25.000  
G14  20363625.493   107011530.953       -1467.980          27.000  
G17  20708709.097   108824768.697         318.797          31.000  
G19  21229645.560   111562527.834        2067.677          32.000  
G22  20699168.202   108774845.223          64.729          30.000  
J02  37824802.172   198770454.058         572.328          35.000  
J03  39034825.690   205129337.035        -360.081          41.000  
> 2025 04 24 04 20 14.0003349  0 19                     
C07  35760957.180   186216448.723         229.663          38.000  
C10  36519885.684   190168406.520         445.201          24.000  
C30  21727632.348   113141396.516        -173.938          34.000  
C38  37926575.753   197493435.097        1742.389          26.000  
C40  36030662.167   187620877.276         154.349          42.000  
C45  24323848.525   126660434.5561       1370.402          19.000  
E11  25700059.894   135054630.258       -2141.997          32.000  
E16  26611598.049   139844675.462       -2798.328          20.000  
E34  25866021.401   135926772.5671       2338.383          18.000  
E36  23376778.068   122845602.533         121.598          33.000  
G01  22646928.832   119010354.875       -2965.692          34.000  
G03  21271115.288   111780376.508        -357.455          38.000  
G06  22426276.487   117850841.073        2665.432          26.000  
G14  20363904.038   107012984.600       -1467.358          27.000  
G17  20708647.377   108824436.672         317.673          32.000  
G19  21229250.471   111560445.894        2069.790          32.000  
G22  20699153.249   108774764.509          68.746          30.000  
J02  37824690.687   198769867.528         572.547          34.000  
J03  39034892.881   205129683.485        -360.434          42.000  
> 2025 04 24 04 20 15.0002739  0 19                     
C07  35760941.740   186216362.187         229.314          38.000  
C10  36519828.274   190168103.967         445.826          23.000  
C30  21727694.255   113141713.819        -174.996          34.000  
C38  37926271.913   197491836.413        1741.383          30.000  
C40  36030661.417   187620865.590         155.369          42.000  
C45  24323613.338   126659207.8461       1369.668          14.000  
E11  25700498.040   135056915.491       -2143.738          32.000  
E16  26612166.306   139847617.749       -2797.425          22.000  
E34  25865610.236   135924577.2711       2335.656          18.000  
E36  23376785.113   122845626.581         120.540          32.000  
G01  22647520.473   119013464.328       -2964.659          34.000  
G03  21271212.271   111780877.673        -357.657          38.000  
G06  22425798.168   117848319.897        2665.624          28.000  
G14  20364212.674   107014596.100       -1467.579          26.000  
G17  20708615.449   108824263.245         318.201          32.000  
G19  21228884.274   111558520.382        2069.855          31.000  
G22  20699168.089   108774841.407          66.017          29.000  
J02  37824609.892   198769438.388         573.687          35.000  
J03  39034989.564   205130186.249        -359.475          42.000  
> 2025 04 24 04 20 16.0002128  0 19                     
C07  35760895.909   186216118.679         229.830          39.000  
C10  36519741.971   190167643.703         446.871          25.000  
C30  21727723.972   113141875.090        -175.974          33.000  
C38  37925937.083   197490082.223        1741.385          29.000  
C40  36030629.976   187620696.390         154.669          42.000  
C45  24323346.260   126657825.3021       1368.079          13.000  
E11  25700903.997   135059045.783       -2145.726          33.000  
E16  26612683.185   139850402.048       -2799.159          26.000  
E34  25865163.582   135922226.566        2336.502          23.000  
E36  23376759.669   122845491.711         120.458          33.000  
G01  22648081.422   119016414.562       -2967.349          34.000  
G03  21271278.563   111781220.545        -359.761          37.000  
G06  22425290.357   117845641.244        2664.523          26.000  
G14  20364490.019   107016049.336       -1468.481          26.000  
G17  20708554.329   108823930.920         318.096          32.000  
G19  21228489.485   111556438.310        2066.255          31.000  
G22  20699153.737   108774762.785          62.964          29.000  
J02  37824499.606   198768851.427         573.254          35.000  
J03  39035056.455   205130532.708        -361.013          41.000  
> 2025 04 24 04 20 17.0001517  0 19                     
C07  35760850.266   186215874.815         229.590          39.000  
C10  36519654.657   190167182.748         446.558          25.000  
C30  21727753.277   113142036.595        -177.605          33.000  
C38  37925600.940   197488327.560        1740.194          29.000  
C40  36030599.023   187620527.638         154.671          42.000  
C45  24323089.863   126656710.8831       1359.338          15.000  
E11  25701305.044   135061176.251       -2145.543          33.000  
E16  26613206.248   139853186.435       -2799.096          28.000  
E34  25864711.121   135919874.957        2336.070          24.000  
E36  23376733.212   122845358.623         118.795          33.000  
G01  22648644.057   119019365.695       -2966.595          35.000  
G03  21271344.442   111781565.302        -359.504          38.000  
G06  22424782.434   117842963.202        2663.172          27.000  
G14  20364767.252   107017502.344       -1470.040          27.000  
G17  20708491.297   108823599.819         316.335          32.000  
G19  21228094.583   111554358.039        2066.269          30.000  
G22  20699139.272   108774686.885          61.426          30.000  
J02  37824388.009   198768264.182         573.250          35.000  
J03  39035123.234   205130876.459        -360.179          41.000  
> 2025 04 24 04 20 18.0000907  0 19                     
C07  35760833.590   186215786.118         229.617          38.000  
C10  36519597.509   190166877.183         446.751          24.000  
C30  21727817.545   113142353.503        -177.957          32.000  
C38  37925292.266   197486729.376        1739.641          30.000  
C40  36030597.936   187620777.684         154.157          42.000  
C45  24322859.135   126655493.0811       1358.519          15.000  
E11  25701749.449   135063464.206       -2146.182          34.000  
E16  26613768.771   139856128.117       -2799.085          30.000  
E34  25864292.423   135917680.368        2338.629          22.000  
E36  23376745.616   122845381.538         120.647          32.000  
G01  22649235.960   119022473.342       -2966.092          34.000  
G03  21271442.287   111782066.757        -361.621          38.000  
G06  22424304.077   117840442.707        2662.886          28.000  
G14  20365074.352   107019113.347       -1471.042          26.000  
G17  20708459.632   108823689.478         316.810          30.000  
G19  21227729.549   111552433.190        2066.694          31.000  
G22  20699154.374   108774766.443          63.241          29.000  
J02  37824308.376   198767833.307         571.890          34.000  
J03  39035219.880   205131379.563        -361.331          42.000  
> 2025 04 24 04 20 19.0000296  0 19                     
C07  35760789.446   186215814.761         228.698          38.000  
C10  36519510.794   190166417.499         447.202          23.000  
C30  21727850.747   113142516.196        -175.834          33.000  
C38  37924956.424   197484975.926        1741.895          29.000  
C40  36030566.083   187620610.772         154.567          42.000  
C45  24322592.545   126654122.5871       1357.560          14.000  
E11  25702154.094   135065595.911       -2144.950          32.000  
E16  26614295.432   139858913.927       -2799.089          28.000  
E34  25863845.657   135915328.1711       2340.180          19.000  
E36  23376719.159   122845249.696         118.739          31.000  
G01  22649799.195   119025427.712       -2966.717          34.000  
G03  21271509.066   111782414.139        -359.005          38.000  
G06  22423796.154   117837766.932        2663.077          25.000  
G14  20365353.384   107020571.866       -1471.617          28.000  
G17  20708396.301   108823360.128         317.532          30.000  
G19  21227337.345   111550353.346        2067.582          31.000  
G22  20699142.307   108774690.639          63.505          29.000  
J02  37824198.577   198767248.188         573.210          34.000  
J03  39035287.858   205131724.838        -358.201          41.000  
> 2025 04 24 04 20 19.9999685  0 19                     
C07  35760744.327   186215569.237         229.272          38.000  
C10  36519423.104   190166218.950         447.536          21.000  
C30  21727884.474   113142676.187        -175.640          34.000  
C38  37924617.209   197483217.970        1739.908          29.000  
C40  36030534.155   187620438.915         155.794          42.000  
C45  24322331.875   126652749.0171       1356.727          14.000  
E11  25702558.064   135067722.331       -2142.637          32.000  
E16  26614830.411   139861697.431       -2800.196          28.000  
E34  25863398.217   135912970.9531       2341.889          18.000  
E36  23376696.225   122845114.738         118.469          32.000  
G01  22650361.156   119028373.882       -2961.749          34.000  
G03  21271575.770   111782755.502        -359.079          38.000  
G06  22423288.156   117835088.628        2657.516          25.000  
G14  20365631.142   107022024.828       -1470.817          28.000  
G17  20708335.293   108823024.595         321.023          31.000  
G19  21226942.668   111548270.702        2065.926          31.000  
G22  20699129.266   108774613.175          58.983          29.000  
J02  37824087.204   198766660.215         570.569          34.000  
J03  39035353.962   205132066.336        -359.872          41.000  
> 2025 04 24 04 20 20.9999075  0 19                     
C07  35760728.813   186215483.915         228.767          37.000  
C10  36519366.519   190165915.816         446.857          21.000  
C30  21727945.406   113142994.020        -174.213          33.000  
C38  37924316.592   197481626.169        1734.193          30.000  
C40  36030532.731   187620427.131         156.280          42.000  
C45  24322097.212   126651536.5391       1356.377           8.000  
E11  25702994.637   135070007.258       -2140.518          32.000  
E16  26615387.501   139864643.613       -2801.846          26.000  
E34  25862980.081   135910774.1011       2343.065          14.000  
E36  23376698.099   122845141.833         118.191          32.000  
G01  22650954.520   119031478.262       -2959.075          34.000  
G03  21271673.277   111783257.380        -359.203          38.000  
G06  22422809.762   117832577.831        2654.936          28.000  
G14  20365940.303   107023641.435       -1472.534          27.000  
G17  20708302.690   108822848.435         319.689          31.000  
G19  21226576.697   111546349.037        2066.307          32.000  
G22  20699147.628   108774700.757          56.906          28.000  
J02  37824009.033   198766508.456         570.215          34.000  
J03  39035450.870   205132571.230        -359.456          41.000  
> 2025 04 24 04 20 21.9998464  0 19                     
C07  35760682.832   186215240.788         228.895          37.000  
C10  36519282.764   190165454.763         446.735          22.000  
C30  21727978.871   113143153.226        -176.088          34.000  
C38  37923981.911   197479878.019        1735.111          29.000  
C40  36030501.740   187620256.233         156.478          42.000  
C45  24321836.281   126650166.3391       1355.186           8.000  
E11  25703399.544   135072131.912       -2140.810          32.000  
E16  26615920.119   139867430.556       -2802.111          27.000  
E34  25862534.178   135908416.2211       2329.004          13.000  
E36  23376677.001   122845010.109         117.232          32.000  
G01  22651517.418   119034420.909       -2961.633          34.000  
G03  21271740.018   111783600.480        -358.725          38.000  
G06  22422302.700   117829909.597        2653.665          31.000  
G14  20366218.398   107025099.418       -1475.402          26.000  
G17  20708241.120   108822516.663         316.541          32.000  
G19  21226183.556   111544268.902        2066.084          32.000  
G22  20699132.526   108774626.761          62.322          29.000  
J02  37823896.799   198765923.262         571.743          34.000  
J03  39035518.211   205132914.393        -358.382          42.000  
> 2025 04 24 04 20 22.9997853  0 19                     
C07  35760637.413   186214999.004         230.998          37.000  
C10  36519193.876   190164996.702         446.512          21.000  
C30  21728012.597   113143316.401        -175.240          34.000  
C38  37923648.092   197478128.413        1740.967          29.000  
C40  36030470.412   187620087.791         157.185          42.000  
C45  24321573.812   126648800.0041       1354.665           7.000  
E11  25703807.112   135074258.774       -2140.204          32.000  
E16  26616444.906   139870220.880       -2801.152          28.000  
E34  25862093.932   135906074.8451       2330.496          18.000  
E36  23376651.369   122844880.969         117.844          31.000  
G01  22652079.679   119037371.755       -2962.012          34.000  
G03  21271805.823   111783949.461        -359.900          38.000  
G06  22421794.102   117827242.924        2656.341          29.000  
G14  20366500.053   107026563.036       -1475.362          26.000  
G17  20708179.813   108822188.408         317.389          33.000  
G19  21225787.680   111542191.615        2065.425          30.000  
G22  20699120.984   108774553.336          60.706          28.000  
J02  37823787.224   198765338.995         571.745          34.000  
J03  39035585.514   205133260.477        -357.941          42.000  
> 2025 04 24 04 20 23.9997243  0 18                     
C07  35760620.737   186214908.341         228.830          38.000  
C10  36519135.529   190164689.771         446.415          21.000  
C30  21728072.369   113143631.527        -175.974          34.000  
C38  37923343.616   197476801.454        1741.501          30.000  
C40  36030468.426   187620070.827         155.590          42.000  
E11  25704241.924   135076540.080       -2143.314          31.000  
E16  26617010.427   139873162.613       -2801.154          24.000  
E34  25861679.732   135903884.7571       2331.130          15.000  
E36  23376657.177   122844903.524         117.939          32.000  
G01  22652672.181   119040474.710       -2965.177          34.000  
G03  21271902.169   111784449.282        -362.383          38.000  
G06  22421320.243   117824727.817        2655.525          25.000  
G14  20366807.752   107028178.142       -1474.554          28.000  
G17  20708146.648   108822011.173         318.845          32.000  
G19  21225422.646   111540268.561        2063.740          24.000  
G22  20699138.185   108774635.558          55.965          28.000  
J02  37823708.192   198764909.008         571.343          33.000  
J03  39035681.860   205133758.503        -358.410          42.000  
> 2025 04 24 04 20 24.9996632  0 18                     
C07  35760574.982   186214666.033         228.876          37.000  
C10  36519049.001   190164230.289         445.731          20.000  
C30  21728106.058   113143792.302        -177.159          34.000  
C38  37923004.962   197475049.005        1737.333          29.000  
C40  36030436.760   187619901.821         155.235          42.000  
E11  25704645.257   135078668.547       -2142.961          32.000  
E16  26617545.669   139875951.703       -2804.388          21.000  
E34  25861238.250   135901539.6301       2332.436          19.000  
E36  23376635.105   122845046.716         117.207          32.000  
G01  22653234.704   119043423.343       -2965.107          34.000  
G03  21271970.334   111784797.370        -363.483          38.000  
G06  22420814.006   117822060.067        2654.040          24.000  
G14  20367086.672   107029637.147       -1475.089          28.000  
G17  20708084.104   108821680.081         315.405          32.000  
G19  21225030.030   111538190.651        2065.038          20.000  
G22  20699124.807   108774565.688          57.592          28.000  
J02  37823597.681   198764323.480         572.132          33.000  
J03  39035748.226   205134102.461        -359.862          42.000  
> 2025 04 24 04 20 25.9996021  0 18                     
C07  35760529.038   186214423.102         229.634          37.000  
C10  36518962.286   190163770.649         445.522          21.000  
C30  21728137.461   113143953.848        -176.919          34.000  
C38  37922670.919   197473298.281        1735.525          30.000  
C40  36030405.207   187619732.914         155.822          41.000  
E11  25705052.300   135080794.453       -2142.483          32.000  
E16  26618074.728   139878739.624       -2801.554          23.000  
E34  25860792.383   135899192.6531       2329.318          20.000  
E36  23376611.046   122844915.864         116.750          33.000  
G01  22653797.040   119046374.866       -2964.548          34.000  
G03  21272038.012   111785143.976        -362.742          38.000  
G06  22420308.781   117819392.365        2652.430          23.000  
G14  20367368.102   107031096.054       -1475.621          27.000  
G17  20708023.471   108821351.176         315.283          32.000  
G19  21224638.126   111536110.888        2065.941          24.000  
G22  20699111.541   108774494.943          55.005          28.000  
J02  37823489.081   198763738.266         569.832          33.000  
J03  39035815.305   205134447.390        -358.269          42.000  
> 2025 04 24 04 20 26.9995411  0 19                     
C07  35760515.023   186214335.915         230.484          37.000  
C10  36518906.899   190163467.928         444.998          21.000  
C30  21728197.494   113144272.942        -176.633          35.000  
C38  37922365.505   197471703.511        1738.362          30.000  
C40  36030404.383   187619719.966         155.110          41.000  
C45  24320585.322   126643669.6841       1355.195          18.000  
E11  25705491.571   135083080.818       -2143.020          32.000  
E16  26618633.616   139881684.244       -2801.400          22.000  
E34  25860376.346   135897007.0291       2326.759          19.000  
E36  23376617.117   122844944.056         115.986          31.000  
G01  22654390.105   119049481.510       -2965.154          34.000  
G03  21272135.220   111785650.628        -365.316          38.000  
G06  22419834.584   117816884.846        2650.879          22.000  
G14  20367679.062   107032716.293       -1476.799          25.000  
G17  20707991.468   108821178.637         316.139          33.000  
G19  21224270.656   111534187.762        2067.128          27.000  
G22  20699128.704   108774581.642          57.451          29.000  
J02  37823408.512   198763311.295         572.012          33.000  
J03  39035912.513   205134947.874        -358.810          41.000  
> 2025 04 24 04 20 27.9994800  0 19                     
C07  35760466.869   186214093.032         229.175          36.000  
C10  36518820.372   190163009.5121        445.116          20.000  
C30  21728234.481   113144435.115        -177.399          34.000  
C38  37922029.550   197469952.782        1738.021          31.000  
C40  36030373.017   187619551.210         155.628          40.000  
C45  24320323.415   126642300.2961       1355.163          18.000  
E11  25705896.403   135085208.461       -2146.915          31.000  
E16  26619161.063   139884471.561       -2801.713          25.000  
E34  25859931.267   135894666.3941       2333.680          15.000  
E36  23376594.745   122844814.040         115.997          31.000  
G01  22654953.527   119052432.400       -2967.256          34.000  
G03  21272203.985   111786003.675        -367.871          38.000  
G06  22419326.848   117814221.141        2650.359          24.000  
G14  20367958.281   107034178.323       -1477.862          26.000  
G17  20707929.224   108820848.320         316.303          32.000  
G19  21223877.440   111532108.418        2065.558          22.000  
G22  20699116.525   108774509.742          59.023          28.000  
J02  37823296.502   198762726.247         570.138          33.000  
J03  39035979.179   205135293.446        -361.362          42.000  
> 2025 04 24 04 20 29.0004189  0 19                     
C07  35760441.087   186213945.766         228.944          37.000  
C10  36518748.422   190162645.844         446.775          22.000  
C30  21728284.846   113144695.229        -176.993          36.000  
C38  37921712.070   197468297.074        1736.045          32.000  
C40  36030359.826   187619478.297         154.940          41.000  
C45  24320078.785   126641026.0271       1355.125          16.000  
E11  25706323.607   135087440.248       -2145.093          30.000  
E16  26619713.581   139887361.744       -2804.369          24.000  
E34  25859502.264   135892413.6381       2334.743          19.000  
E36  23376589.949   122844781.460         115.269          32.000  
G01  22655536.623   119055485.445       -2966.549          35.000  
G03  21272291.224   111786453.337        -368.237          36.000  
G06  22418839.086   117811653.119        2636.812          22.000  
G14  20368257.774   107035742.202       -1478.605          26.000  
G17  20707886.653   108820616.122         315.234          34.000  
G19  21223503.899   111530124.457        2065.817          20.000  
G22  20699122.820   108774535.833          57.204          28.000  
J02  37823204.166   198762238.364         570.800          33.000  
J03  39036064.920   205135736.749        -360.179          42.000  
> 2025 04 24 04 20 30.0003578  0 18                     
C07  35760396.755   186213701.797         229.169          36.000  
C10  36518655.523   190162183.524         446.983          20.000  
C30  21728316.962   113144855.948        -177.153          35.000  
C38  37921377.539   197466546.815        1733.739          33.000  
C40  36030329.584   187619308.278         154.477          41.000  
C45  24319821.001   126639654.8481       1355.372          15.000  
E11  25706729.564   135089568.598       -2144.998          31.000  
E16  26620243.352   139890149.534       -2804.119          23.000  
E34  25859056.210   135890064.146        2330.803          20.000  
E36  23376568.701   122844652.568         114.334          30.000  
G01  22656099.671   119058436.016       -2967.065          35.000  
G03  21272359.614   111786807.257        -369.550          34.000  
G14  20368534.819   107037203.999       -1481.951          25.000  
G17  20707825.233   108820285.583         314.549          33.000  
G19  21223109.110   111528043.2141       2066.011          20.000  
G22  20699109.667   108774464.235          56.055          28.000  
J02  37823093.879   198761653.705         568.658          35.000  
J03  39036132.410   205136080.942        -361.190          41.000  
> 2025 04 24 04 20 31.0002967  0 19                     
C07  35760349.125   186213457.123         229.550          36.000  
C10  36518568.921   190161721.3741        446.823          20.000  
C30  21728349.677   113145015.845        -178.296          35.000  
C38  37921041.509   197464797.564        1734.128          34.000  
C40  36030297.544   187619138.311         154.576          41.000  
C45  24319551.825   126638282.7651       1355.780          19.000  
E11  25707136.720   135091697.541       -2145.118          30.000  
E16  26620778.818   139892939.245       -2805.743          23.000  
E34  25858611.056   135887717.7291       2331.401          19.000  
E36  23376542.956   122844523.118         113.383          31.000  
G01  22656662.419   119061386.249       -2965.981          34.000  
G03  21272428.005   111787159.288        -368.546          34.000  
G06  22417839.053   117806539.2241       2654.256          28.000  
G14  20368814.563   107038668.317       -1480.673          23.000  
G17  20707763.813   108819955.190         315.731          33.000  
G19  21222714.021   111525961.754        2065.857          24.000  
G22  20699098.013   108774394.558          53.065          28.000  
J02  37822983.593   198761069.811         567.814          35.000  
J03  39036199.302   205136424.553        -359.115          41.000  
> 2025 04 24 04 20 32.0002357  0 19                     
C07  35760335.485   186213372.681         228.468          35.000  
C10  36518513.010   190161419.260         446.543          21.000  
C30  21728413.083   113145338.947        -177.574          34.000  
C38  37920738.569   197463208.569        1733.309          33.000  
C40  36030296.195   187619127.486         157.583          40.000  
C45  24319321.134   126637071.5221       1348.935          20.000  
E11  25707572.468   135093985.432       -2144.752          30.000  
E16  26621343.477   139895892.368       -2807.210          22.000  
E34  25858196.593   135885532.2811       2331.035          19.000  
E36  23376550.901   122844556.787         111.511          30.000  
G01  22657256.158   119064496.208       -2963.129          34.000  
G03  21272527.086   111787672.056        -367.479          36.000  
G06  22417362.233   117804032.023        2652.689          25.000  
G14  20369125.898   107040294.393       -1481.302          24.000  
G17  20707732.785   108819785.184         316.238          31.000  
G19  21222348.124   111524042.632        2064.634          23.000  
G22  20699115.850   108774486.887          52.872          28.000  
J02  37822905.797   198760649.161         567.295          34.000  
J03  39036297.484   205136930.795        -360.560          41.000  
> 2025 04 24 04 20 33.0001746  0 19                     
C07  35760291.603   186213128.510         230.398          34.000  
C10  36518427.756   190160957.706         447.656          21.000  
C30  21728444.748   113145499.109        -175.579          33.000  
C38  37920404.788   197461462.876        1729.046          32.000  
C40  36030263.705   187618955.085         157.791          39.000  
C45  24319063.200   126635707.9101       1348.322          17.000  
E11  25707977.375   135096114.607       -2137.566          28.000  
E16  26621878.495   139898684.496       -2804.796          26.000  
E34  25857751.289   135883187.1691       2327.633          20.000  
E36  23376528.304   122844429.833         113.386          30.000  
G01  22657816.957   119067440.428       -2956.442          33.000  
G03  21272595.326   111788020.218        -362.118          36.000  
G06  22416853.073   117801365.819        2650.700          23.000  
G14  20369407.290   107041761.744       -1484.242          25.000  
G17  20707670.316   108819453.633         317.593          30.000  
G19  21221953.185   111521964.4711       2063.224          17.000  
G22  20699105.545   108774419.073          52.857          26.000  
J02  37822796.560   198760064.609         572.033          33.000  
J03  39036363.326   205137271.268        -357.240          40.000  
> 2025 04 24 04 20 34.0001135  0 19                     
C07  35760244.273   186212883.920         227.206          35.000  
C10  36518340.854   190160494.691         448.424          23.000  
C30  21728476.264   113145659.540        -177.277          34.000  
C38  37920072.655   197459718.779        1728.844          30.000  
C40  36030231.665   187618782.130         158.014          40.000  
C45  24318806.915   126634343.2351       1349.092          16.000  
E11  25708381.833   135098233.462       -2136.455          28.000  
E16  26622412.462   139901473.893       -2805.823          24.000  
E34  25857310.032   135880844.8641       2326.583          20.000  
E36  23376502.859   122844302.693         111.174          30.000  
G01  22658378.206   119070378.698       -2954.866          31.000  
G03  21272663.117   111788365.956        -362.540          37.000  
G06  22416344.063   117798701.482        2647.070          22.000  
G14  20369688.233   107043230.934       -1487.266          25.000  
G17  20707608.296   108819122.163         315.437          32.000  
G19  21221558.696   111519886.3931       2062.229          12.000  
G22  20699094.190   108774351.830          50.610          25.000  
J02  37822685.375   198759480.432         567.857          34.000  
J03  39036429.617   205137614.386        -357.093          41.000  
> 2025 04 24 04 20 35.0000525  0 19                     
C07  35760230.595   186212801.374         227.505          37.000  
C10  36518281.607   190160191.320         447.431          25.000  
C30  21728540.532   113145981.845        -179.103          34.000  
C38  37919768.178   197458135.153        1726.525          31.000  
C40  36030230.878   187618768.471         158.656          41.000  
C45  24318583.083   126633136.8311       1350.441          15.000  
E11  25708817.244   135100512.806       -2134.220          30.000  
E16  26622973.486   139904424.761       -2809.510          25.000  
E34  25856899.728   135878665.3271       2323.645          15.000  
E36  23376511.066   122844338.930         109.857          32.000  
G01  22658969.809   119073476.899       -2953.759          33.000  
G03  21272760.962   111788873.188        -363.163          38.000  
G06  22415866.606   117796205.876        2639.352          27.000  
G14  20369999.530   107044865.046       -1489.526          26.000  
G17  20707577.530   108818952.207         315.912          32.000  
G19  21221196.359   111517970.5551       2061.411          13.000  
G22  20699114.089   108774448.506          47.401          27.000  
J02  37822606.342   198759058.436         567.537          34.000  
J03  39036525.963   205138115.692        -357.696          41.000  
> 2025 04 24 04 20 35.9999914  0 19                     
C07  35760182.853   186212558.213         229.184          37.000  
C10  36518195.192   190159729.687         447.172          22.000  
C30  21728572.835   113146143.436        -175.103          34.000  
C38  37919436.233   197456396.737        1722.205          30.000  
C40  36030198.725   187618594.324         160.434          41.000  
C45  24318320.689   126631769.977        1352.375          25.000  
E11  25709220.989   135102630.744       -2131.901          32.000  
E16  26623504.044   139907219.077       -2808.260          24.000  
E34  25856458.659   135876606.8971       2312.562          15.000  
E36  23376487.307   122844215.198         109.743          32.000  
G01  22659528.847   119076412.665       -2949.284          33.000  
G03  21272828.640   111789219.805        -359.700          38.000  
G06  22415356.884   117793554.116        2635.939          29.000  
G14  20370281.860   107046338.828       -1491.455          27.000  
G17  20707516.297   108818620.698         316.343          32.000  
G19  21220800.858   111515894.7521       2061.282          20.000  
G22  20699103.821   108774387.560          45.505          29.000  
J02  37822496.843   198758476.676         567.168          35.000  
J03  39036593.041   205138457.291        -355.161          41.000  
> 2025 04 24 04 20 36.9999303  0 18                     
C07  35760139.233   186212316.294         228.367          38.000  
C10  36518110.800   190159270.675         446.044          22.000  
C30  21728606.261   113146303.736        -175.977          34.000  
C38  37919103.913   197454662.174        1719.811          29.000  
C40  36030166.197   187618420.138         160.708          42.000  
C45  24318052.825   126630408.393        1343.483          28.000  
E11  25709628.557   135105010.205       -2126.519          32.000  
E16  26624044.120   139910296.275       -2811.860          22.000  
E34  25856021.411   135874282.4921       2309.466          15.000  
E36  23376465.872   122844092.729         108.758          33.000  
G01  22660088.710   119079344.786       -2945.462          34.000  
G03  21272895.943   111789564.294        -358.980          37.000  
G06  22414853.382   117790908.067        2629.721          30.000  
G14  20370563.815   107047817.629       -1494.227          24.000  
G17  20707454.090   108818290.706         316.432          33.000  
G22  20699095.577   108774329.228          43.222          30.000  
J02  37822387.568   198757896.797         565.226          35.000  
J03  39036658.846   205138797.321        -357.097          41.000  
> 2025 04 24 04 20 37.9998693  0 19                     
C07  35760123.382   186212228.166         229.441          38.000  
C10  36518052.079   190158966.198         444.310          22.000  
C30  21728665.058   113146618.986        -173.862          34.000  
C38  37918800.860   197453084.791        1715.790          32.000  
C40  36030162.338   187618397.055         165.164          42.000  
C45  24317828.018   126629206.708        1340.631          23.000  
E11  25710055.199   135107274.101       -2119.391          32.000  
E16  26624607.468   139913251.112       -2814.867          26.000  
E34  25855605.936   135872118.0281       2300.938          20.000  
E36  23376472.805   122844126.062         108.828          34.000  
G01  22660677.839   119082427.877       -2937.052          35.000  
G03  21272992.214   111790327.910        -353.383          37.000  
G06  22414380.947   117788423.372        2624.869          29.000  
G14  20370876.536   107049455.005       -1496.653          24.000  
G17  20707422.650   108818114.828         320.726          33.000  
G19  21220040.472   111511905.0871       2058.048          29.000  
G22  20699116.000   108774428.702          41.090          30.000  
J02  37822308.161   198757474.467         563.309          35.000  
J03  39036754.217   205139293.938        -352.436          42.000  
> 2025 04 24 04 20 38.9998082  0 19                     
C07  35760076.839   186211985.844         229.108          38.000  
C10  36517969.861   190158508.949         444.632          22.000  
C30  21728697.061   113146777.561        -170.291          35.000  
C38  37918476.110   197451360.924        1708.126          31.000  
C40  36030129.286   187618217.607         167.904          42.000  
C45  24317573.719   126627852.582        1340.850          21.000  
E11  25710459.244   135109376.502       -2114.307          31.000  
E16  26625145.520   139916054.071       -2816.428          26.000  
E34  25855167.565   135869807.0841       2292.311          15.000  
E36  23376453.243   122844006.396         107.151          34.000  
G01  22661235.378   119085345.530       -2927.010          36.000  
G03  21273056.594   111790665.100        -347.281          36.000  
G06  22413880.818   117785789.511        2617.975          26.000  
G14  20371161.264   107050938.291       -1500.920          25.000  
G17  20707361.117   108817779.934         323.302          34.000  
G19  21219649.767   111509834.446        2057.280          27.000  
G22  20699107.531   108774375.929          38.117          30.000  
J02  37822199.861   198756898.125         563.869          35.000  
J03  39036819.797   205139630.390        -349.696          42.000  
> 2025 04 24 04 20 39.9997471  0 19                     
C07  35760031.121   186211740.489         230.834          37.000  
C10  36517887.567   190158049.842         444.517          22.000  
C30  21728727.490   113146930.885        -167.987          35.000  
C38  37918145.589   197449640.972        1703.877          32.000  
C40  36030094.360   187618033.083         170.505          42.000  
C45  24317313.949   126626496.3711       1340.312          20.000  
E11  25710857.519   135111468.914       -2104.977          30.000  
E16  26625693.091   139918856.836       -2820.711          23.000  
E34  25854730.018   135867503.4901       2283.883          16.000  
E36  23376427.611   122843884.652         106.355          33.000  
G01  22661788.046   119088252.730       -2920.725          35.000  
G03  21273121.200   111790994.167        -343.384          36.000  
G06  22413382.713   117783161.074        2609.958          24.000  
G14  20371446.216   107052427.075       -1505.225          26.000  
G17  20707298.610   108817441.121         324.314          34.000  
G19  21219257.489   111507762.327        2057.101          27.000  
G22  20699099.587   108774324.341          35.312          29.000  
J02  37822090.587   198756320.156         561.716          34.000  
J03  39036884.402   205139964.938        -350.064          41.000  
> 2025 04 24 04 20 40.9996861  0 19                     
C07  35760014.257   186211652.585         230.655          37.000  
C10  36517830.532   190157748.189         445.190          21.000  
C30  21728790.971   113147516.266        -169.228          35.000  
C38  37917847.520   197448081.161        1704.500          33.000  
C40  36030090.687   187618004.346         171.803          41.000  
C45  24317085.132   126625298.5071       1340.324          19.000  
E11  25711281.650   135113715.818       -2104.332          30.000  
E16  26626254.228   139921824.878       -2823.958          22.000  
E34  25854327.621   135865367.670        2279.368          20.000  
E36  23376437.429   122843922.348         107.475          32.000  
G01  22662372.566   119091316.202       -2920.178          35.000  
G03  21273215.260   111791482.104        -343.186          36.000  
G06  22412916.161   117780700.512        2602.692          22.000  
G14  20371762.722   107054077.440       -1508.817          26.000  
G17  20707265.259   108817261.765         323.746          33.000  
G19  21218892.267   111505849.832        2057.516          30.000  
G22  20699123.495   108774434.541          33.991          27.000  
J02  37822013.165   198755903.078         562.217          35.000  
J03  39036979.661   205140457.186        -348.230          41.000  
> 2025 04 24 04 20 41.9996250  0 19                     
C07  35759968.239   186211408.810         229.927          36.000  
C10  36517751.537   190157290.032         444.294          21.000  
C30  21728825.597   113147672.736        -170.036          34.000  
C38  37917518.198   197446363.527        1703.213          31.000  
C40  36030056.961   187617819.490         171.334          42.000  
C45  24316833.756   126623943.3771       1341.197          20.000  
E11  25711682.023   135115802.107       -2103.027          30.000  
E16  26626785.910   139924634.999       -2821.306          24.000  
E34  25853891.274   135863078.206        2276.743          21.000  
E36  23376416.594   122843802.244         106.067          32.000  
G01  22662927.632   119094487.779       -2919.361          35.000  
G03  21273278.965   111791811.642        -344.726          36.000  
G06  22412421.054   117778087.714        2597.918          21.000  
G14  20372047.375   107055573.187       -1510.560          29.000  
G17  20707201.553   108816923.974         324.794          32.000  
G19  21218497.590   111503780.316        2055.026          31.000  
G22  20699116.750   108774387.320          33.666          28.000  
J02  37821904.191   198755328.440         561.289          34.000  
J03  39037044.566   205140792.032        -348.876          41.000  
> 2025 04 24 04 20 42.9995639  0 19                     
C07  35759925.706   186211164.413         229.581          35.000  
C10  36517666.133   190156830.711         444.860          21.000  
C30  21728855.914   113147825.672        -170.280          37.000  
C38  37917189.663   197444646.748        1700.376          31.000  
C40  36030022.822   187617633.533         170.890          42.000  
C45  24316577.171   126622586.1971       1340.977          19.000  
E11  25712085.281   135117886.633       -2101.583          31.000  
E16  26627309.085   139927444.246       -2824.538          26.000  
E34  25853463.807   135860789.6961       2269.604          19.000  
E36  23376392.648   122843683.272         104.116          34.000  
G01  22663481.985   119097391.722       -2919.197          35.000  
G03  21273342.259   111792140.003        -344.669          36.000  
G06  22411923.436   117775469.171        2600.811          23.000  
G14  20372334.314   107057339.037       -1512.315          27.000  
G17  20707138.334   108816584.594         323.531          36.000  
G19  21218106.098   111501710.398        2054.427          29.000  
G22  20699109.292   108774339.193          31.994          27.000  
J02  37821795.703   198754752.421         559.915          35.000  
J03  39037109.659   205141395.394        -348.171          41.000  
> 2025 04 24 04 20 43.9995028  0 19                     
C07  35759879.201   186210921.579         232.144          38.000  
C10  36517580.955   190156373.567         444.291          21.000  
C30  21728887.954   113147983.624        -169.849          36.000  
C38  37916859.554   197442935.037        1699.362          30.000  
C40  36029988.308   187617449.326         173.537          41.000  
C45  24316319.612   126621232.7701       1339.447          20.000  
E11  25712483.368   135119972.928       -2101.272          31.000  
E16  26627842.978   139930256.231       -2823.879          26.000  
E34  25853038.664   135858509.9721       2273.130          16.000  
E36  23376372.824   122843565.767         105.278          33.000  
G01  22664035.964   119100295.788       -2916.039          34.000  
G03  21273406.077   111792471.450        -343.644          36.000  
G06  22411427.841   117772858.553        2596.426          22.000  
G14  20372622.377   107058837.664       -1511.907          25.000  
G17  20707075.940   108816249.107         324.184          34.000  
G19  21217712.733   111499642.981        2056.074          29.000  
G22  20699102.360   108774295.531          31.394          28.000  
J02  37821687.740   198754180.554         561.502          36.000  
J03  39037174.377   205141730.441        -347.613          41.000  
> 2025 04 24 04 20 44.9994418  0 19                     
C07  35759863.199   186210831.785         230.995          38.000  
C10  36517518.785   190156071.088         443.995          22.000  
C30  21728946.301   113148292.788        -169.272          35.000  
C38  37916565.945   197441375.166        1702.680          30.000  
C40  36029982.500   187617417.522         172.611          41.000  
C45  24316090.758   126620035.250        1336.779          21.000  
E11  25712905.663   135122213.289       -2100.190          32.000  
E16  26628423.863   139933222.351       -2824.370          27.000  
E34  25852628.435   135856382.341        2272.289          24.000  
E36  23376379.607   122843603.748         104.617          34.000  
G01  22664618.948   119103351.788       -2916.590          35.000  
G03  21273499.200   111792955.756        -343.333          37.000  
G06  22410961.252   117770406.5971       2594.304          20.000  
G14  20372939.145   107060491.775       -1511.953          25.000  
G17  20707041.951   108816066.378         325.951          34.000  
G19  21217349.572   111497729.774        2054.946          35.000  
G22  20699123.532   108774406.813          31.741          29.000  
J02  37821608.183   198753761.728         561.203          35.000  
J03  39037268.699   205142219.035        -347.807          42.000  
> 2025 04 24 04 20 46.0003807  0 19                     
C07  35759835.506   186210682.922         230.653          38.000  
C10  36517447.922   190155710.072         442.850          25.000  
C30  21728993.556   113148543.143        -168.223          35.000  
C38  37916247.453   197439753.635        1701.455          30.000  
C40  36029967.398   187617327.304         172.346          41.000  
C45  24315856.508   126619044.987        1336.591          21.000  
E11  25713327.359   135124398.043       -2098.330          33.000  
E16  26628983.164   139936133.507       -2824.469          24.000  
E34  25852214.609   135854192.462        2273.162          24.000  
E36  23376382.792   122843582.375         104.032          34.000  
G01  22665191.739   119106353.780       -2917.102          36.000  
G03  21273581.531   111793382.864        -344.434          38.000  
G06  22410482.071   117767887.460        2598.119          22.000  
G14  20373244.821   107062087.693       -1512.734          26.000  
G17  20706995.670   108815823.492         325.371          32.000  
G19  21216976.518   111495755.745        2056.062          34.000  
G22  20699131.814   108774457.947          31.777          32.000  
J02  37821520.831   198753283.724         560.698          37.000  
J03  39037352.228   205142648.689        -347.146          42.000  
> 2025 04 24 04 20 47.0003196  0 19                     
C07  35759790.087   186210435.783         230.728          37.000  
C10  36517359.033   190155251.148         442.555          24.000  
C30  21729022.486   113148695.120        -168.570          33.000  
C38  37915915.433   197438036.907        1700.401          30.000  
C40  36029929.474   187617138.060         173.074          40.000  
C45  24315598.536   126617691.678        1335.632          20.000  
E11  25713723.235   135126478.581       -2100.213          32.000  
E16  26629513.946   139938941.750       -2826.068          25.000  
E34  25851783.058   135851904.934        2271.195          23.000  
E36  23376352.963   122843462.171         103.971          33.000  
G01  22665744.107   119109253.355       -2916.817          34.000  
G03  21273645.237   111793709.992        -345.254          38.000  
G06  22409986.064   117765274.405        2595.872          21.000  
G14  20373529.474   107063582.933       -1513.436          27.000  
G17  20706932.564   108815483.087         324.167          33.000  
G19  21216583.940   111493684.336        2054.334          31.000  
G22  20699124.170   108774410.322          30.479          32.000  
J02  37821410.957   198752706.765         561.323          35.000  
J03  39037415.934   205142979.406        -347.624          42.000  
> 2025 04 24 04 20 48.0002585  0 19                     
C07  35759743.732   186210193.288         230.591          36.000  
C10  36517269.508   190154796.515         442.387          22.000  
C30  21729051.978   113148850.334        -169.555          32.000  
C38  37915592.669   197436325.141        1700.506          31.000  
C40  36029895.710   187616953.668         172.512          40.000  
C45  24315338.729   126616343.729        1334.887          21.000  
E11  25714118.773   135128564.321       -2099.224          31.000  
E16  26630039.295   139941757.376       -2825.765          25.000  
E34  25851353.268   135849623.421        2270.799          24.000  
E36  23376329.991   122843346.563         103.674          32.000  
G01  22666297.336   119112157.696       -2915.847          33.000  
G03  21273711.304   111794041.841        -344.349          38.000  
G06  22409491.519   117762667.8101       2594.437          19.000  
G14  20373815.588   107065083.866       -1514.068          26.000  
G17  20706872.718   108815147.173         324.971          33.000  
G19  21216191.923   111491618.714        2053.734          31.000  
G22  20699118.886   108774368.578          29.483          32.000  
J02  37821304.343   198752133.943         560.911          35.000  
J03  39037482.301   205143314.656        -347.100          42.000  
> 2025 04 24 04 20 49.0001975  0 19                     
C07  35759727.656   186210101.836         230.918          35.000  
C10  36517206.664   190154494.205         442.537          21.000  
C30  21729112.349   113149159.414        -170.575          32.000  
C38  37915294.188   197434765.143        1698.981          30.000  
C40  36029891.025   187616920.180         172.736          39.000  
C45  24315122.091   126615147.662        1334.390          23.000  
E11  25714546.390   135130801.479       -2099.487          31.000  
E16  26630594.023   139944724.124       -2825.794          24.000  
E34  25850946.562   135847495.032        2270.658          22.000  
E36  23376339.997   122843384.320         103.054          33.000  
G01  22666876.648   119115212.238       -2915.818          33.000  
G03  21273805.251   111794526.692        -346.761          38.000  
G06  22409023.356   117760209.460        2597.837          21.000  
G14  20374130.183   107066739.133       -1515.017          27.000  
G17  20706841.052   108814963.895         324.022          33.000  
G19  21215828.088   111489705.226        2053.789          30.000  
G22  20699142.382   108774480.192          29.045          31.000  
J02  37821226.510   198751714.755         559.953          35.000  
J03  39037576.548   205143801.529        -347.769          42.000  
> 2025 04 24 04 20 50.0001364  0 19                     
C07  35759682.050   186209858.408         230.556          36.000  
C10  36517119.387   190154038.998         442.907          20.000  
C30  21729141.391   113149315.598        -170.259          33.000  
C38  37914964.679   197433053.801        1698.501          31.000  
C40  36029855.912   187616735.061         172.439          40.000  
C45  24314872.327   126613800.062        1333.751          21.000  
E11  25714947.775   135132888.576       -2099.241          31.000  
E16  26631141.707   139947536.050       -2826.116          23.000  
E34  25850516.023   135845212.960        2270.067          26.000  
E36  23376318.674   122843270.043         101.854          33.000  
G01  22667430.927   119118115.614       -2917.143          33.000  
G03  21273869.369   111794861.539        -347.988          39.000  
G06  22408528.961   117757600.2651       2596.348          19.000  
G14  20374419.146   107068240.279       -1515.042          25.000  
G17  20706779.258   108814626.992         324.198          33.000  
G19  21215433.523   111487639.025        2053.766          29.000  
G22  20699135.749   108774438.587          29.151          32.000  
J02  37821117.648   198751141.227         560.679          36.000  
J03  39037642.165   205144134.257        -347.655          43.000  
> 2025 04 24 04 20 51.0000753  0 19                     
C07  35759635.132   186209616.431         230.040          36.000  
C10  36517035.295   190153584.1481        442.768          19.000  
C30  21729175.417   113149473.146        -170.243          34.000  
C38  37914632.958   197431343.967        1697.369          29.000  
C40  36029820.387   187616551.419         171.572          40.000  
C45  24314617.653   126612454.332        1332.940          20.000  
E11  25715348.147   135134974.566       -2098.709          31.000  
E16  26631672.789   139950350.758       -2826.619          21.000  
E34  25850080.574   135842932.199        2269.402          25.000  
E36  23376299.337   122843155.693         102.873          34.000  
G01  22667983.294   119121019.465       -2916.721          33.000  
G03  21273934.574   111795196.480        -348.143          39.000  
G06  22408034.453   117754992.636        2595.653          22.000  
G14  20374704.098   107069743.518       -1516.883          26.000  
G17  20706717.350   108814292.213         322.079          33.000  
G19  21215037.648   111485573.540        2054.233          29.000  
G22  20699127.805   108774398.160          28.433          31.000  
J02  37821011.071   198750569.691         559.084          37.000  
J03  39037706.770   205144470.057        -347.767          43.000  
> 2025 04 24 04 20 52.0000143  0 19                     
C07  35759618.981   186209526.588         230.061          37.000  
C10  36516976.573   190153282.553         442.440          22.000  
C30  21729246.206   113149783.977        -171.471          36.000  
C38  37914343.696   197429786.502        1699.911          30.000  
C40  36029815.927   187616519.297         171.841          40.000  
C45  24314388.349   126611261.545        1332.288          20.000  
E11  25715768.494   135137214.539       -2101.352          30.000  
E16  26632243.032   139953317.219       -2825.700          22.000  
E34  25849674.393   135840805.457        2270.513          21.000  
E36  23376307.169   122843195.800         101.513          34.000  
G01  22668568.527   119124077.908       -2917.409          36.000  
G03  21274029.046   111795684.826        -349.620          38.000  
G06  22407568.013   117752539.263        2595.216          20.000  
G14  20375018.019   107071401.387       -1517.861          26.000  
G17  20706683.511   108814112.580         321.625          32.000  
G19  21214674.936   111483662.945        2052.015          33.000  
G22  20699147.628   108774512.729          27.551          32.000  
J02  37820934.662   198750152.589         559.235          38.000  
J03  39037800.943   205144957.462        -348.244          42.000  
> 2025 04 24 04 20 52.9999532  0 18                     
C07  35759573.675   186209284.548         229.840          37.000  
C10  36516889.296   190152827.835         442.244          23.000  
C30  21729273.749   113149940.504        -171.221          35.000  
C38  37914028.277   197428073.764        1700.618          30.000  
C40  36029785.911   187616334.757         173.409          41.000  
C45  24314113.702   126609916.399        1332.273          21.000  
E11  25716170.778   135139301.566       -2101.135          30.000  
E16  26632792.514   139956129.3451      -2826.445          20.000  
E34  25849242.055   135838523.575        2269.274          21.000  
E36  23376294.840   122843082.856         100.916          33.000  
G01  22669124.005   119126983.417       -2918.517          35.000  
G03  21274095.862   111796021.165        -349.195          38.000  
G14  20375305.482   107072905.591       -1517.712          28.000  
G17  20706622.316   108813777.008         323.668          34.000  
G19  21214285.168   111481597.681        2053.442          33.000  
G22  20699139.796   108774472.353          27.301          32.000  
J02  37820824.301   198749579.606         560.530          37.000  
J03  39037865.361   205145291.756        -347.041          41.000  
> 2025 04 24 04 20 53.9998921  0 19                     
C07  35759530.879   186209040.021         230.310          38.000  
C10  36516803.031   190152370.342         442.804          24.000  
C30  21729304.403   113150096.671        -171.436          34.000  
C38  37913704.276   197426360.138        1698.133          33.000  
C40  36029748.212   187616147.561         173.188          40.000  
C45  24313860.152   126608567.862        1331.842          20.000  
E11  25716571.975   135141385.937       -2101.417          29.000  
E16  26633337.012   139958940.5301      -2825.546          20.000  
E34  25848813.127   135836240.236        2268.735          24.000  
E36  23376273.330   122842967.132         100.480          33.000  
G01  22669675.698   119129885.073       -2917.133          35.000  
G03  21274159.194   111796355.193        -349.711          37.000  
G06  22406575.738   117747320.1651       2596.821          27.000  
G14  20375591.559   107074406.102       -1515.631          24.000  
G17  20706556.437   108813440.360         320.156          32.000  
G19  21213893.415   111479530.042        2051.594          31.000  
G22  20699132.976   108774429.746          27.981          30.000  
J02  37820716.450   198749004.480         560.408          38.000  
J03  39037928.092   205145622.262        -347.003          41.000  
> 2025 04 24 04 20 54.9998311  0 19                     
C07  35759515.627   186208951.824         229.979          38.000  
C10  36516747.607   190152069.617         443.481          23.000  
C30  21729366.198   113150408.477        -171.034          33.000  
C38  37913396.127   197424803.849        1698.709          32.000  
C40  36029744.052   187616116.516         173.163          40.000  
C45  24313635.346   126607377.609        1331.707          21.000  
E11  25717000.116   135143629.495       -2100.110          30.000  
E16  26633918.347   139962185.181       -2826.752          21.000  
E34  25848403.048   135834115.739        2269.092          24.000  
E36  23376281.162   122843009.697         100.783          33.000  
G01  22670259.431   119132944.486       -2918.017          35.000  
G03  21274256.664   111796847.305        -350.784          37.000  
G06  22406112.296   117744867.316        2596.162          30.000  
G14  20375908.477   107076062.906       -1513.297          22.000  
G17  20706521.698   108813262.285         323.277          31.000  
G19  21213534.301   111477622.084        2052.472          30.000  
G22  20699159.395   108774816.620          23.989          31.000  
J02  37820638.842   198748588.379         559.642          38.000  
J03  39038021.065   205146113.405        -347.154          41.000  
> 2025 04 24 04 20 55.9997700  0 19                     
C07  35759468.672   186208707.892         229.981          38.000  
C10  36516661.679   190151612.538         443.860          22.000  
C30  21729396.589   113150566.345        -172.054          33.000  
C38  37913060.772   197423092.261        1698.516          31.000  
C40  36029710.888   187615930.337         172.439          39.000  
C45  24313380.934   126606032.3331       1331.274          20.000  
E11  25717398.653   135145714.702       -2101.689          30.000  
E16  26634469.178   139964997.7151      -2826.123          19.000  
E34  25847966.962   135831834.058        2268.701          23.000  
E36  23376260.289   122842896.157         100.217          33.000  
G01  22670814.159   119135848.429       -2918.633          35.000  
G03  21274321.531   111797183.898        -351.104          37.000  
G06  22405615.053   117742258.389        2595.336          30.000  
G14  20376198.489   107077560.746       -1525.855          25.000  
G17  20706458.854   108812924.653         321.413          32.000  
G19  21213144.383   111475825.803        2052.806          30.000  
G22  20699153.212   108774779.090          23.962          30.000  
J02  37820531.628   198748015.344         559.259          38.000  
J03  39038085.333   205146444.124        -347.363          41.000  
> 2025 04 24 04 20 56.9997089  0 19                     
C07  35759421.568   186208462.293         230.320          37.000  
C10  36516576.500   190151153.090         444.334          22.000  
C30  21729430.428   113150721.536        -169.935          35.000  
C38  37912740.556   197421377.458        1700.260          32.000  
C40  36029676.374   187615742.396         172.534          40.000  
C45  24313120.677   126604684.543        1330.268          21.000  
E11  25717797.040   135147800.008       -2101.606          30.000  
E16  26634994.077   139967808.182       -2826.745          24.000  
E34  25847537.622   135829550.4531       2268.164          20.000  
E36  23376235.369   122842780.823          99.897          32.000  
G01  22671368.738   119138748.956       -2917.062          37.000  
G03  21274385.649   111797520.517        -351.310          36.000  
G06  22405117.060   117739646.636        2596.308          28.000  
G14  20376486.252   107079069.211       -1522.131          27.000  
G17  20706397.359   108812852.229         321.709          32.000  
G19  21212752.817   111473756.937        2054.239          27.000  
G22  20699145.380   108774738.306          25.996          28.000  
J02  37820424.265   198747439.896         562.365          37.000  
J03  39038150.651   205146775.369        -345.545          42.000  
> 2025 04 24 04 20 57.9996478  0 19                     
C07  35759377.536   186208219.914         229.945          38.000  
C10  36516486.600   190150697.100         443.181          24.000  
C30  21729459.845   113150880.382        -172.696          34.000  
C38  37912411.721   197419665.373        1700.568          30.000  
C40  36029642.835   187615558.046         171.113          41.000  
C45  24312860.195   126603341.524        1329.329          22.000  
E11  25718197.000   135149888.665       -2103.144          31.000  
E16  26635449.500   139970231.564       -2827.935          22.000  
E34  25847108.657   135827270.739        2267.853          22.000  
E36  23376217.419   122842668.804          99.702          32.000  
G01  22671923.392   119141654.988       -2919.475          36.000  
G03  21274451.042   111797859.912        -354.759          35.000  
G06  22404625.438   117737036.766        2597.768          27.000  
G14  20376775.290   107080576.906       -1520.547          27.000  
G17  20706332.642   108812518.665         320.184          33.000  
G19  21212364.023   111471690.889        2054.056          22.000  
G22  20699138.822   108774699.189          27.267          26.000  
J02  37820316.977   198746867.155         559.175          36.000  
J03  39038215.443   205147108.829        -348.539          41.000  
> 2025 04 24 04 20 58.9995868  0 19                     
C07  35759362.658   186208131.431         229.201          38.000  
C10  36516430.951   190150394.691         443.014          22.000  
C30  21729519.916   113151191.972        -172.883          35.000  
C38  37912120.135   197418107.467        1696.826          30.000  
C40  36029638.151   187615527.259         172.910          41.000  
C45  24312636.662   126602152.544        1329.043          21.000  
E11  25718621.919   135152133.233       -2102.436          30.000  
E16  26636031.209   139973200.638       -2828.138          24.000  
E34  25846701.351   135825146.063        2267.632          21.000  
E36  23376228.024   122842711.922          99.020          33.000  
G01  22672508.999   119144715.130       -2919.019          38.000  
G03  21274546.788   111798356.334        -355.584          36.000  
G06  22404157.574   117734582.725        2595.331          23.000  
G14  20377094.681   107082236.957       -1518.074          22.000  
G17  20706299.477   108812342.308         317.038          34.000  
G19  21212004.085   111469779.570        2052.922          29.000  
G22  20699164.417   108774816.118          21.889          32.000  
J02  37820237.944   198746451.481         556.934          37.000  
J03  39038310.590   205147598.229        -349.275          41.000  
> 2025 04 24 04 20 59.9995257  0 19                     
C07  35759317.802   186208150.879         230.461          38.000  
C10  36516352.518   190150229.298         443.397          23.000  
C30  21729549.408   113151351.380        -171.585          34.000  
C38  37911793.474   197416657.234        1699.284          32.000  
C40  36029602.288   187615339.777         173.032          41.000  
C45  24312369.959   126600808.904        1329.542          21.000  
E11  25719026.151   135154219.084       -2100.868          30.000  
E16  26636582.640   139976014.503       -2826.556          24.000  
E34  25846263.167   135822864.891        2268.007          25.000  
E36  23376205.052   122842598.293         100.897          32.000  
G01  22673063.727   119147618.491       -2919.389          37.000  
G03  21274614.353   111798696.632        -355.355          37.000  
G06  22403658.832   117731974.755        2593.728          23.000  
G14  20377385.292   107083740.672       -1517.083          25.000  
G17  20706236.933   108812008.299         322.191          35.000  
G19  21211613.568   111467712.627        2053.027          30.000  
G22  20699157.034   108774779.516          24.109          32.000  
J02  37820128.332   198745878.117         560.702          37.000  
J03  39038375.158   205147932.482        -346.119          41.000  
> 2025 04 24 04 21 00.9994646  0 19                     
C07  35759270.135   186207908.227         229.226          38.000  
C10  36516269.175   190149773.743         442.945          22.000  
C30  21729584.484   113151510.675        -174.899          37.000  
C38  37911467.899   197414946.261        1697.737          32.000  
C40  36029567.812   187615155.611         171.614          41.000  
C45  24312121.431   126599466.789        1328.496          23.000  
E11  25719419.179   135156308.112       -2102.410          31.000  
E16  26637129.761   139978828.397       -2826.796          21.000  
E34  25845829.367   135820584.321        2268.735          23.000  
E36  23376187.665   122842486.152          98.748          32.000  
G01  22673616.844   119150525.210       -2921.428          35.000  
G03  21274682.107   111799037.489        -356.514          36.000  
G06  22403162.676   117729369.518        2593.118          24.000  
G14  20377673.393   107085243.551       -1518.497          22.000  
G17  20706173.077   108811674.621         319.247          35.000  
G19  21211222.639   111465647.847        2051.853          27.000  
G22  20699151.038   108774743.198          22.167          34.000  
J02  37820021.307   198745306.322         558.080          38.000  
J03  39038440.213   205148265.671        -348.200          42.000  
> 2025 04 24 04 21 02.0004035  0 19                     
C07  35759243.229   186207757.238         230.989          37.000  
C10  36516199.399   190149408.716         443.839          23.000  
C30  21729632.826   113151763.383        -173.283          35.000  
C38  37911151.693   197413326.259        1696.997          32.000  
C40  36029551.398   187615328.260         172.866          42.000  
C45  24311886.769   126598215.118        1327.009          22.000  
E11  25719835.966   135158490.839       -2102.962          32.000  
E16  26637693.746   139982025.7761      -2827.130          20.000  
E34  25845416.028   135818393.171        2268.158          24.000  
E36  23376183.243   122842467.918          98.113          34.000  
G01  22674189.523   119153527.140       -2920.388          34.000  
G03  21274764.924   111799474.355        -357.069          37.000  
G06  22402687.280   117726852.579        2594.176          22.000  
G14  20377976.558   107086845.664       -1522.297          25.000  
G17  20706129.382   108811435.010         318.795          34.000  
G19  21210849.472   111463673.746        2051.740          26.000  
G22  20699161.606   108774800.975          21.798          30.000  
J02  37819930.844   198744826.699         561.007          37.000  
J03  39038522.431   205148691.734        -346.794          42.000  
> 2025 04 24 04 21 03.0003424  0 19                     
C07  35759195.337   186207513.450         229.727          37.000  
C10  36516115.832   190148951.691         443.357          23.000  
C30  21729667.976   113151921.474        -173.651          37.000  
C38  37910824.395   197411614.006        1701.496          30.000  
C40  36029516.697   187615143.596         171.151          42.000  
C45  24311626.624   126596873.8871       1326.422          19.000  
E11  25720238.062   135160580.009       -2104.780          31.000  
E16  26638239.443   139984839.344       -2828.219          20.000  
E34  25844976.008   135816111.359        2269.174          24.000  
E36  23376162.932   122842356.028          98.418          34.000  
G01  22674743.914   119156434.070       -2924.632          35.000  
G03  21274831.253   111799818.719        -360.449          37.000  
G06  22402189.999   117724244.057        2596.564          28.000  
G14  20378265.333   107088353.956       -1522.402          25.000  
G17  20706066.801   108811102.835         318.157          34.000  
G19  21210455.919   111461608.260        2051.849          30.000  
G22  20699156.285   108774765.568          21.483          29.000  
J02  37819821.495   198744252.004         560.757          36.000  
J03  39038587.561   205149024.791        -348.330          42.000  
> 2025 04 24 04 21 04.0002814  0 19                     
C07  35759179.747   186207426.514         227.877          37.000  
C10  36516049.577   190148649.923         444.283          25.000  
C30  21729728.235   113152236.902        -177.506          36.000  
C38  37910523.103   197410053.133        1704.101          30.000  
C40  36029512.500   187615116.934         166.633          42.000  
C45  24311400.880   126595688.4371       1326.777          19.000  
E11  25720667.065   135162831.072       -2110.328          30.000  
E16  26638806.650   139987809.506       -2824.410          21.000  
E34  25844570.089   135813984.650        2272.882          22.000  
E36  23376174.024   122842401.945          97.084          33.000  
G01  22675328.509   119159505.414       -2933.424          35.000  
G03  21274928.986   111800325.088        -367.140          38.000  
G06  22401724.721   117721788.469        2601.903          30.000  
G14  20378583.713   107090018.359       -1521.599          22.000  
G17  20706035.023   108810929.139         316.350          34.000  
G19  21210092.271   111459700.016        2051.127          28.000  
G22  20699181.467   108774886.391          23.993          29.000  
J02  37819742.350   198743834.784         560.694          36.000  
J03  39038682.895   205149515.869        -350.856          41.000  
> 2025 04 24 04 21 05.0002203  0 19                     
C07  35759134.666   186207186.648         229.234          35.000  
C10  36515965.523   190148194.538         443.584          24.000  
C30  21729761.999   113152403.550        -179.625          34.000  
C38  37910192.020   197408334.929        1708.389          29.000  
C40  36029479.410   187614939.083         165.831          40.000  
C45  24311128.556   126594348.644        1328.923          27.000  
E11  25721066.576   135164931.115       -2115.911          30.000  
E16  26639338.969   139990622.4311      -2824.380          19.000  
E34  25844144.571   135811699.3031       2275.252          20.000  
E36  23376153.825   122842293.478          97.879          32.000  
G01  22675885.711   119162428.776       -2938.441          35.000  
G03  21274999.025   111800680.871        -371.313          38.000  
G06  22401227.253   117719171.632        2608.733          30.000  
G14  20378869.602   107091526.838       -1519.808          24.000  
G17  20705973.153   108810602.832         313.301          32.000  
G19  21209700.330   111457637.430        2051.302          26.000  
G22  20699176.258   108774850.527          24.734          29.000  
J02  37819633.413   198743260.472         562.872          36.000  
J03  39038747.837   205149854.178        -351.476          41.000  
> 2025 04 24 04 21 06.0001592  0 19                     
C07  35759089.622   186206945.093         228.054          37.000  
C10  36515875.510   190147738.633         442.764          24.000  
C30  21729793.402   113152569.430        -181.298          34.000  
C38  37909863.672   197406612.447        1711.015          27.000  
C40  36029446.658   187614761.606         162.883          41.000  
C45  24310860.467   126593005.080        1328.406          31.000  
E11  25721472.420   135167035.632       -2121.390          30.000  
E16  26639873.724   139993432.0791      -2824.142          15.000  
E34  25843708.298   135809409.9101       2285.684          16.000  
E36  23376138.461   122842181.901          98.559          33.000  
G01  22676444.749   119165355.724       -2943.295          34.000  
G03  21275067.302   111801041.392        -376.532          38.000  
G06  22400729.223   117716547.126        2614.366          29.000  
G14  20379157.928   107093031.131       -1516.277          27.000  
G17  20705910.421   108810277.714         311.796          32.000  
G19  21209309.625   111455572.769        2052.255          31.000  
G22  20699169.588   108774812.090          24.395          29.000  
J02  37819524.213   198742684.743         563.067          36.000  
J03  39038813.717   205150193.550        -354.033          41.000  
> 2025 04 24 04 21 07.0000982  0 19                     
C07  35759075.570   186206860.348         227.012          37.000  
C10  36515817.688   190147438.179         443.025          24.000  
C30  21729858.195   113152894.144        -183.836          35.000  
C38  37909558.821   197405042.679        1712.015          27.000  
C40  36029443.398   187614741.724         161.450          42.000  
C45  24310631.463   126591818.938        1327.665          30.000  
E11  25721905.058   135169304.503       -2126.775          31.000  
E16  26640436.472   139996398.983       -2820.717          21.000  
E34  25843300.918   135807266.0061       2289.661          17.000  
E36  23376146.293   122842228.090          97.515          33.000  
G01  22677034.178   119168445.228       -2950.470          34.000  
G03  21275167.770   111801562.712        -381.533          37.000  
G06  22400260.085   117714074.504        2618.186          28.000  
G14  20379475.445   107094688.584       -1514.053          27.000  
G17  20705880.180   108810111.729         308.621          33.000  
G19  21208946.614   111453664.538        2051.961          31.000  
G22  20699193.009   108774931.845          24.477          29.000  
J02  37819445.705   198742266.180         561.096          34.000  
J03  39038909.388   205150691.271        -355.129          41.000  
> 2025 04 24 04 21 08.0000371  0 19                     
C07  35759029.439   186206618.751         225.989          38.000  
C10  36515731.685   190146980.331         441.499          24.000  
C30  21729890.610   113153061.510        -183.718          34.000  
C38  37909228.487   197403314.094        1713.936          24.000  
C40  36029411.058   187614566.105         159.845          41.000  
C45  24310371.280   126590475.993        1326.497          31.000  
E11  25722308.316   135171418.994       -2130.908          32.000  
E16  26640962.046   139999202.295       -2819.663          21.000  
E34  25842862.059   135804958.808        2293.788          22.000  
E36  23376127.444   122842379.088          97.288          33.000  
G01  22677594.828   119171380.773       -2953.610          34.000  
G03  21275238.859   111801927.740        -382.184          37.000  
G06  22399759.769   117711439.644        2620.919          28.000  
G14  20379761.185   107096185.923       -1513.160          26.000  
G17  20705820.259   108809788.343         308.377          33.000  
G19  21208552.724   111451597.171        2051.571          33.000  
G22  20699186.751   108774890.882          25.411          28.000  
J02  37819337.517   198741959.142         562.731          34.000  
J03  39038975.380   205151029.135        -355.384          41.000  
> 2025 04 24 04 21 08.9999760  0 19                     
C07  35758984.620   186206378.721         227.709          38.000  
C10  36515649.392   190146525.241         442.132          24.000  
C30  21729924.037   113153231.323        -183.253          34.000  
C38  37908893.469   197401585.927        1716.259          27.000  
C40  36029378.830   187614392.303         160.908          42.000  
C45  24310115.108   126589134.836        1327.714          30.000  
E11  25722712.587   135173538.928       -2131.899          31.000  
E16  26641500.623   140002006.662       -2818.307          22.000  
E34  25842422.113   135802649.730        2296.161          22.000  
E36  23376104.210   122842267.845          98.408          33.000  
G01  22678154.390   119174319.793       -2953.111          34.000  
G03  21275310.359   111802296.526        -382.436          37.000  
G06  22399258.966   117708804.431        2622.850          27.000  
G14  20380045.838   107097682.898       -1511.925          27.000  
G17  20705761.350   108809465.857         310.540          33.000  
G19  21208159.846   111449532.038        2052.202          31.000  
G22  20699180.905   108774852.083          26.268          29.000  
J02  37819228.243   198741381.761         565.151          35.000  
J03  39039041.184   205151370.180        -353.635          41.000  
> 2025 04 24 04 21 09.9999150  0 19                     
C07  35758969.368   186206293.426         227.260          36.000  
C10  36515590.670   190146224.927         442.574          23.000  
C30  21729988.829   113153555.119        -184.356          34.000  
C38  37908595.213   197400012.223        1715.994          28.000  
C40  36029376.769   187614374.769         159.500          41.000  
C45  24309896.896   126587950.127        1327.015          25.000  
E11  25723144.625   135175816.547       -2133.991          32.000  
E16  26642078.360   140004965.800       -2816.599          22.000  
E34  25842010.836   135800495.500        2297.220          22.000  
E36  23376114.140   122842313.288          97.317          32.000  
G01  22678744.419   119177416.323       -2956.041          33.000  
G03  21275412.026   111802824.609        -385.965          37.000  
G06  22398788.029   117706325.065        2623.436          27.000  
G14  20380363.056   107099339.082       -1512.712          26.000  
G17  20705731.708   108809300.049         308.017          33.000  
G19  21207797.435   111447623.557        2052.131          29.000  
G22  20699204.027   108774969.742          25.999          30.000  
J02  37819150.035   198740961.453         562.838          35.000  
J03  39039137.155   205151869.033        -356.390          42.000  
> 2025 04 24 04 21 10.9998539  0 19                     
C07  35758925.111   186206050.748         226.709          37.000  
C10  36515500.545   190145765.449         443.749          22.000  
C30  21730021.919   113153723.308        -186.473          35.000  
C38  37908266.153   197398279.962        1715.613          27.000  
C40  36029343.904   187614199.327         158.887          42.000  
C45  24309668.866   126586605.549        1328.098          29.000  
E11  25723551.556   135177934.220       -2135.396          32.000  
E16  26642616.001   140007765.934       -2816.113          20.000  
E34  25841571.752   135798180.2461       2298.855          19.000  
E36  23376095.066   122842199.847          97.132          32.000  
G01  22679303.645   119180355.795       -2957.924          33.000  
G03  21275483.189   111803193.671        -387.482          37.000  
G06  22398287.488   117703685.657        2622.026          27.000  
G14  20380649.470   107100834.161       -1513.842          28.000  
G17  20705670.363   108808975.572         307.222          33.000  
G19  21207403.920   111445555.621        2050.650          28.000  
G22  20699197.544   108774927.516          25.719          29.000  
J02  37819042.821   198740381.933         563.339          34.000  
J03  39039202.922   205152206.880        -356.318          41.000  
> 2025 04 24 04 21 11.9997928  0 19                     
C07  35758880.067   186205811.382         226.373          38.000  
C10  36515417.428   190145308.700         444.538          23.000  
C30  21730056.620   113153894.933        -183.302          35.000  
C38  37907933.009   197396552.194        1713.868          29.000  
C40  36029312.351   187614025.727         160.773          42.000  
C45  24309423.261   126585545.652        1325.706          29.000  
E11  25723957.700   135180056.220       -2130.298          30.000  
E16  26643154.053   140010566.132       -2818.993          20.000  
E34  25841134.880   135795867.7951       2295.139          19.000  
E36  23376074.006   122842091.143          95.986          33.000  
G01  22679864.482   119183294.814       -2949.294          34.000  
G03  21275555.365   111803564.650        -382.385          37.000  
G06  22397787.359   117701052.673        2618.573          26.000  
G14  20380935.397   107102334.704       -1516.542          28.000  
G17  20705610.329   108808654.632         309.105          34.000  
G19  21207011.117   111443492.470        2050.267          25.000  
G22  20699191.173   108774889.470          24.410          28.000  
J02  37818934.222   198739804.227         564.725          33.000  
J03  39039269.101   205152548.360        -353.997          42.000  
> 2025 04 24 04 21 12.9997318  0 19                     
C07  35758863.579   186205728.741         227.185          38.000  
C10  36515358.368   190145008.109         444.249          24.000  
C30  21730120.476   113154218.956        -182.689          35.000  
C38  37907630.219   197394982.063        1712.978          28.000  
C40  36029309.953   187614008.029         162.928          42.000  
C45  24309199.017   126584363.157        1323.865          25.000  
E11  25724389.101   135182331.725       -2128.315          30.000  
E16  26643723.959   140013529.328       -2818.312          21.000  
E34  25840728.361   135793717.6621       2295.166          20.000  
E36  23376085.398   122842140.650          95.340          33.000  
G01  22680454.473   119186385.090       -2945.391          35.000  
G03  21275657.594   111804090.737        -381.329          38.000  
G06  22397319.983   117698584.255        2612.506          28.000  
G14  20381252.877   107103996.952       -1518.634          26.000  
G17  20705580.650   108808489.116         309.381          34.000  
G19  21206650.466   111441587.899        2049.543          27.000  
G22  20699216.955   108775011.937          21.241          28.000  
J02  37818856.276   198739386.183         562.215          34.000  
J03  39039365.635   205153044.573        -353.673          42.000  
> 2025 04 24 04 21 13.9996707  0 19                     
C07  35758819.322   186205484.472         228.746          37.000  
C10  36515280.235   190144547.942         443.730          25.000  
C30  21730153.565   113154386.271        -182.653          36.000  
C38  37907302.958   197393256.122        1708.031          31.000  
C40  36029276.189   187613827.711         165.373          42.000  
C45  24308944.605   126583021.884        1324.094          24.000  
E11  25724794.233   135184706.180       -2125.296          30.000  
E16  26644257.402   140016329.588       -2817.868          20.000  
E34  25840297.072   135791677.8381       2285.041          17.000  
E36  23376067.523   122842029.787          94.845          33.000  
G01  22681013.698   119189310.535       -2939.600          34.000  
G03  21275728.457   111804452.370        -379.370          37.000  
G06  22396823.040   117695957.474        2608.443          27.000  
G14  20381540.191   107105499.163       -1521.054          25.000  
G17  20705519.605   108808163.383         310.801          34.000  
G19  21206258.150   111439522.238        2050.134          27.000  
G22  20699210.472   108774976.288          17.357          28.000  
J02  37818747.563   198738807.872         561.060          34.000  
J03  39039431.402   205153381.452        -352.255          42.000  
> 2025 04 24 04 21 14.9996096  0 19                     
C07  35758774.091   186205242.172         228.077          37.000  
C10  36515191.534   190144090.860         443.302          24.000  
C30  21730187.479   113154552.261        -179.625          33.000  
C38  37906973.523   197391536.981        1703.492          29.000  
C40  36029242.350   187613647.181         167.614          41.000  
C45  24308689.819   126581683.761        1323.370          25.000  
E11  25725190.896   135186815.893       -2115.557          28.000  
E16  26644793.768   140019132.449       -2825.007          20.000  
E34  25839862.710   135789380.2681       2277.583          17.000  
E36  23376047.174   122841922.020          93.574          33.000  
G01  22681571.350   119192230.711       -2931.886          34.000  
G03  21275798.646   111804814.946        -373.703          37.000  
G06  22396325.721   117693338.640        2601.697          28.000  
G14  20381829.528   107107007.673       -1524.326          24.000  
G17  20705459.684   108807837.014         313.843          32.000  
G19  21205866.059   111437458.532        2049.856          26.000  
G22  20699206.912   108774945.801          16.496          29.000  
J02  37818638.177   198738233.838         559.355          34.000  
J03  39039496.794   205153715.761        -350.591          42.000  
> 2025 04 24 04 21 15.9995486  0 19                     
C07  35758757.790   186205159.182         228.033          37.000  
C10  36515137.159   190143792.950         441.935          24.000  
C30  21730251.522   113154874.171        -179.377          35.000  
C38  37906676.017   197389980.356        1700.090          29.000  
C40  36029240.139   187613624.441         167.765          41.000  
C45  24308466.661   126580505.359        1321.009          24.000  
E11  25725627.281   135189075.791       -2112.864          31.000  
E16  26645356.966   140022103.372       -2831.249          23.000  
E34  25839460.276   135787250.0731       2275.199          17.000  
E36  23376056.955   122841975.353          93.366          32.000  
G01  22682157.931   119195307.729       -2932.730          33.000  
G03  21275898.964   111805603.616        -372.472          37.000  
G06  22395859.731   117690887.888        2594.326          30.000  
G14  20382150.493   107108679.566       -1529.010          24.000  
G17  20705429.292   108807670.088         312.171          33.000  
G19  21205506.796   111435554.983        2049.379          27.000  
G22  20699231.982   108775076.415          14.934          27.000  
J02  37818562.217   198737821.169         557.880          34.000  
J03  39039592.315   205154212.290        -349.562          41.000  
> 2025 04 24 04 21 16.9994875  0 19                     
C07  35758713.083   186204915.536         229.430          36.000  
C10  36515048.383   190143335.229         441.634          23.000  
C30  21730284.462   113155036.510        -177.816          34.000  
C38  37906348.606   197388266.393        1696.458          30.000  
C40  36029205.325   187613440.207         172.195          41.000  
C45  24308212.400   126579168.291        1320.130          24.000  
E11  25726023.569   135191169.467       -2109.760          31.000  
E16  26645888.160   140024917.556       -2828.614          21.000  
E34  25839024.341   135784960.909        2270.790          21.000  
E36  23376035.332   122841866.297          92.646          32.000  
G01  22682713.409   119198219.290       -2925.005          35.000  
G03  21275967.879   111805958.815        -370.467          36.000  
G06  22395366.236   117688279.770        2590.340          29.000  
G14  20382439.756   107110191.882       -1532.090          27.000  
G17  20705367.797   108807341.547         314.328          33.000  
G19  21205117.628   111433490.346        2048.402          25.000  
G22  20699226.549   108775046.015          14.234          30.000  
J02  37818453.355   198737246.983         557.327          34.000  
J03  39039656.733   205154544.276        -347.895          41.000  
> 2025 04 24 04 21 18.0004264  0 19                     
C07  35758684.828   186204766.029         229.360          34.000  
C10  36514981.155   190142973.864         441.657          22.000  
C30  21730334.153   113155293.155        -177.132          33.000  
C38  37906036.147   197386649.765        1694.478          30.000  
C40  36029189.361   187613348.005         170.778          41.000  
C45  24307977.587   126577926.928        1319.703          22.000  
E11  25726442.305   135193358.773       -2105.141          32.000  
E16  26646435.507   140027830.154       -2830.157          21.000  
E34  25838601.858   135782771.7381       2265.997          18.000  
E36  23376040.654   122841855.287          92.434          30.000  
G01  22683286.837   119201225.316       -2920.453          35.000  
G03  21276054.444   111806408.427        -367.384          35.000  
G06  22394889.790   117685771.046        2585.888          28.000  
G14  20382746.069   107111807.838       -1534.300          29.000  
G17  20705324.552   108807106.326         316.998          31.000  
G19  21204746.110   111431522.028        2047.352          26.000  
G22  20699238.765   108775113.403          13.346          28.000  
J02  37818363.642   198736770.219         557.588          35.000  
J03  39039739.101   205154971.516        -347.727          41.000  
> 2025 04 24 04 21 19.0003653  0 19                     
C07  35758641.620   186204525.303         227.202          35.000  
C10  36514895.376   190142520.190         440.697          22.000  
C30  21730368.292   113155729.590        -178.323          34.000  
C38  37905709.336   197384943.880        1693.952          29.000  
C40  36029157.246   187613164.552         171.050          41.000  
C45  24307714.932   126576594.635        1317.923          22.000  
E11  25726840.092   135195449.181       -2106.333          32.000  
E16  26646984.689   140030647.367       -2832.113          22.000  
E34  25838163.524   135780494.8571       2262.435          17.000  
E36  23376016.333   122841751.941          90.458          28.000  
G01  22683841.716   119204132.430       -2922.817          35.000  
G03  21276125.158   111806762.481        -369.348          35.000  
G06  22394395.995   117683173.742        2584.295          29.000  
G14  20383038.029   107113329.175       -1535.291          29.000  
G17  20705265.455   108806777.674         315.537          30.000  
G19  21204356.642   111429462.486        2046.816          28.000  
G22  20699232.432   108775088.772          10.410          25.000  
J02  37818255.379   198736200.579         557.409          36.000  
J03  39039803.819   205155306.048        -347.213          41.000  
> 2025 04 24 04 21 20.0003042  0 19                     
C07  35758596.651   186204285.433         227.414          34.000  
C10  36514805.739   190142067.8551        439.159          20.000  
C30  21730401.569   113155895.253        -178.790          33.000  
C38  37905383.761   197383236.637        1693.815          30.000  
C40  36029123.669   187612980.982         170.633          41.000  
C45  24307456.810   126575264.052        1316.582          22.000  
E11  25727240.614   135197540.694       -2107.357          32.000  
E16  26647527.013   140033467.150       -2833.546          23.000  
E34  25837739.318   135778221.6951       2259.287          17.000  
E36  23376000.744   122841648.527          91.013          27.000  
G01  22684396.931   119207309.697       -2925.115          35.000  
G03  21276195.309   111807118.402        -371.414          35.000  
G06  22393901.637   117680576.954        2585.103          29.000  
G14  20383330.027   107115121.275       -1534.700          29.000  
G17  20705204.598   108806450.070         314.574          30.000  
G19  21203968.710   111427403.445        2046.052          28.000  
G22  20699227.336   108775067.126          10.640          26.000  
J02  37818146.854   198735631.243         556.965          35.000  
J03  39039868.274   205155638.922        -348.604          41.000  
> 2025 04 24 04 21 21.0002432  0 19                     
C07  35758582.973   186204203.272         222.206          34.000  
C10  36514749.190   190141772.7911        436.626          18.000  
C30  21730462.839   113156217.861        -184.095          33.000  
C38  37905085.880   197381689.074        1687.275          30.000  
C40  36029119.585   187612956.366         165.171          40.000  
C45  24307233.577   126574091.077        1312.346          23.000  
E11  25727670.929   135199790.526       -2110.962          31.000  
E16  26648091.635   140036445.151       -2837.757          22.000  
E34  25837344.304   135776107.9001       2256.404          13.000  
E36  23376009.550   122841703.998          85.898          27.000  
G01  22684982.538   119210379.521       -2929.462          35.000  
G03  21276295.852   111807635.337        -377.064          35.000  
G06  22393435.572   117678137.004        2582.306          29.000  
G14  20383650.617   107116799.774       -1539.228          30.000  
G17  20705174.431   108806283.022         308.109          30.000  
G19  21203609.671   111425504.107        2040.941          30.000  
G22  20699252.331   108775202.917           5.796          24.000  
J02  37818069.620   198735221.128         549.985          35.000  
J03  39039963.721   205156133.900        -354.757          41.000  
> 2025 04 24 04 21 22.0001821  0 19                     
C07  35758538.979   186203966.843         218.315          35.000  
C10  36514663.225   190141320.7661        434.437          19.000  
C30  21730494.991   113156386.885        -189.023          33.000  
C38  37904763.678   197379987.923        1684.300          29.000  
C40  36029086.383   187612776.758         162.717          40.000  
C45  24306981.827   126572764.013        1307.744          23.000  
E11  25728070.028   135201885.185       -2113.508          31.000  
E16  26648643.628   140039567.283       -2840.360          22.000  
E34  25836909.380   135773836.5271       2253.094          13.000  
E36  23375993.137   122841603.954          82.864          27.000  
G01  22685536.930   119213291.926       -2932.799          34.000  
G03  21276365.479   111807997.499        -380.881          35.000  
G06  22392941.889   117675541.086        2576.856          30.000  
G14  20383942.990   107118326.429       -1546.374          31.000  
G17  20705113.049   108805960.441         304.450          30.000  
G19  21203220.316   111423449.168        2036.450          30.000  
G22  20699249.408   108775182.966           1.320          22.000  
J02  37817963.269   198734657.005         547.347          35.000  
J03  39040028.850   205156473.716        -356.569          41.000  
> 2025 04 24 04 21 23.0001210  0 19                     
C07  35758496.783   186203735.263         220.007          36.000  
C10  36514582.356   190140875.152         432.906          21.000  
C30  21730530.442   113156563.265        -188.026          32.000  
C38  37904439.977   197378290.022        1688.588          27.000  
C40  36029053.780   187612600.640         162.831          40.000  
C45  24306728.877   126571444.428        1304.600          21.000  
E11  25728470.925   135203984.383       -2117.809          32.000  
E16  26649180.331   140042393.589       -2840.772          25.000  
E34  25836484.049   135771571.774        2254.988          23.000  
E36  23375976.723   122841510.229          83.007          30.000  
G01  22686093.719   119216212.603       -2933.895          35.000  
G03  21276436.005   111808365.355        -381.074          36.000  
G06  22392452.703   117672951.641        2577.639          31.000  
G14  20384236.861   107119859.913       -1548.489          27.000  
G17  20705053.465   108805642.982         305.656          27.000  
G19  21202830.361   111421400.292        2037.523          30.000  
G22  20699250.382   108775168.505           3.096          28.000  
J02  37817857.817   198734095.456         550.785          35.000  
J03  39040096.079   205157089.458        -355.634          41.000  
> 2025 04 24 04 21 24.0000599  0 19                     
C07  35758451.402   186203498.600         228.445          37.000  
C10  36514492.006   190140428.566         434.406          21.000  
C30  21730563.007   113156732.856        -180.383          34.000  
C38  37904113.391   197376585.805        1693.028          26.000  
C40  36029017.992   187612422.022         170.351          39.000  
C45  24306475.140   126570126.5821       1310.326          18.000  
E11  25728870.436   135206086.431       -2108.458          31.000  
E16  26649714.749   140045218.988       -2834.657          22.000  
E34  25836055.234   135769303.8591       2259.727          19.000  
E36  23375959.822   122841412.595          87.106          31.000  
G01  22686650.621   119219128.887       -2927.726          35.000  
G03  21276506.044   111808730.311        -375.103          38.000  
G06  22391959.432   117670358.288        2584.501          31.000  
G14  20384530.246   107121394.068       -1535.337          26.000  
G17  20704992.494   108805321.651         310.914          31.000  
G19  21202440.219   111419347.415        2042.521          28.000  
G22  20699252.668   108775151.217           7.660          28.000  
J02  37817750.678   198733529.241         556.603          34.000  
J03  39040161.921   205157427.109        -347.464          42.000  
> 2025 04 24 04 21 24.9999989  0 19                     
C07  35758435.850   186203410.458         225.127          37.000  
C10  36514442.278   190140129.602         439.004          25.000  
C30  21730630.198   113157052.392        -183.261          35.000  
C38  37903817.533   197375032.556        1694.516          28.000  
C40  36029013.233   187612392.489         165.834          39.000  
C45  24306253.631   126568956.8141       1315.277          18.000  
E11  25729304.273   135208335.148       -2109.922          30.000  
E16  26650273.000   140048194.279       -2833.079          27.000  
E34  25835649.352   135767186.2011       2263.161          20.000  
E36  23375976.948   122841465.956          87.726          33.000  
G01  22687235.254   119222195.436       -2929.216          33.000  
G03  21276605.013   111809247.801        -378.543          37.000  
G06  22391496.889   117667913.131        2586.039          31.000  
G14  20384849.562   107123070.060       -1535.577          25.000  
G17  20704963.152   108805150.988         311.175          33.000  
G19  21202081.105   111417443.986        2047.468          25.000  
G22  20699281.785   108775283.609           9.882          28.000  
J02  37817673.969   198733113.738         555.721          35.000  
J03  39040256.992   205157916.199        -351.150          41.000  
> 2025 04 24 04 21 25.9999378  0 19                     
C07  35758389.682   186203172.271         223.441          39.000  
C10  36514360.434   190139677.009         438.141          24.000  
C30  21730659.877   113157222.098        -183.424          33.000  
C38  37903490.759   197373324.219        1693.007          30.000  
C40  36028980.256   187612212.781         165.202          40.000  
C45  24305999.107   126567627.8411       1312.306          18.000  
E11  25729702.398   135210430.194       -2113.436          33.000  
E16  26650806.630   140051011.873       -2834.927          28.000  
E34  25835211.955   135764910.246        2259.512          24.000  
E36  23375952.365   122841365.778          85.955          34.000  
G01  22687792.868   119225111.169       -2930.789          36.000  
G03  21276675.764   111809612.479        -382.082          37.000  
G06  22391002.232   117665314.869        2581.123          32.000  
G14  20385144.258   107124592.240       -1542.553          29.000  
G17  20704901.695   108804826.958         308.640          32.000  
G19  21201685.079   111415383.601        2043.899          28.000  
G22  20699278.188   108775261.816           3.458          31.000  
J02  37817566.344   198732546.288         551.948          36.000  
J03  39040322.047   205158252.961        -353.015          41.000  
> 2025 04 24 04 21 26.9998767  0 19                     
C07  35758346.624   186202935.223         221.455          39.000  
C10  36514275.106   190139224.717         436.369          22.000  
C30  21730697.763   113157389.479        -184.989          35.000  
C38  37903161.999   197371619.237        1687.997          32.000  
C40  36028945.293   187612033.230         163.906          39.000  
C45  24305742.297   126566302.1371       1304.285          19.000  
E11  25730103.932   135212526.972       -2112.971          33.000  
E16  26651351.766   140053833.327       -2838.241          27.000  
E34  25834779.167   135762638.102        2255.564          26.000  
E36  23375932.991   122841268.475          82.895          32.000  
G01  22688349.395   119228024.062       -2931.017          35.000  
G03  21276746.328   111809978.416        -382.912          35.000  
G06  22390511.584   117662721.461        2576.446          32.000  
G14  20385436.369   107126122.850       -1547.577          27.000  
G17  20704840.350   108804504.608         305.900          33.000  
G19  21201293.662   111413327.818        2038.815          33.000  
G22  20699279.499   108775246.743          -0.858          31.000  
J02  37817459.430   198731980.185         550.488          36.000  
J03  39040387.215   205158589.337        -354.536          41.000  
> 2025 04 24 04 21 27.9998156  0 19                     
C07  35758301.918   186202699.252         222.682          39.000  
C10  36514188.129   190138774.756         435.405          20.000  
C30  21730731.902   113157561.875        -186.027          36.000  
C38  37902837.287   197369918.192        1686.701          34.000  
C40  36028912.278   187611854.059         165.669          40.000  
C45  24305488.036   126564983.5011       1305.855          19.000  
E11  25730508.015   135214624.918       -2110.985          33.000  
E16  26651891.654   140056656.299       -2839.796          26.000  
E34  25834356.422   135760370.405        2253.610          26.000  
E36  23375913.467   122841172.851          82.708          30.000  
G01  22688903.674   119230940.417       -2929.432          37.000  
G03  21276818.840   111810344.648        -380.690          36.000  
G06  22390018.987   117660131.605        2575.188          32.000  
G14  20385731.627   107127654.837       -1549.156          27.000  
G17  20704779.454   108804184.635         307.348          33.000  
G19  21200907.792   111411275.185        2039.154          34.000  
G22  20699279.162   108775234.481          -1.504          31.000  
J02  37817356.264   198731415.697         551.463          37.000  
J03  39040452.232   205158929.672        -352.316          41.000  
> 2025 04 24 04 21 28.9997546  0 19                     
C07  35758286.328   186202615.619         229.110          38.000  
C10  36514137.763   190138481.668         435.334          21.000  
C30  21730795.758   113157885.934        -179.293          37.000  
C38  37902543.190   197368372.373        1692.571          33.000  
C40  36028907.481   187611826.627         172.336          40.000  
C45  24305268.887   126563819.1971       1311.496          19.000  
E11  25730938.817   135216875.766       -2106.993          34.000  
E16  26652459.161   140059637.686       -2836.078          24.000  
E34  25833955.600   135758259.975        2257.355          26.000  
E36  23375924.259   122841230.374          86.466          31.000  
G01  22689487.370   119234009.924       -2924.523          38.000  
G03  21276919.270   111810866.295        -376.976          37.000  
G06  22389557.007   117657696.739        2583.112          32.000  
G14  20386054.803   107129343.145       -1541.652          28.000  
G17  20704746.777   108804017.773         314.517          34.000  
G19  21200551.938   111409652.191        2045.599          35.000  
G22  20699305.844   108775374.785           5.491          31.000  
J02  37817281.916   198731004.340         557.845          38.000  
J03  39040546.667   205159419.061        -346.277          41.000  
> 2025 04 24 04 21 29.9996935  0 19                     
C07  35758240.160   186202371.929         233.777          38.000  
C10  36514049.924   190138027.4601        443.147          20.000  
C30  21730828.735   113158047.652        -174.074          37.000  
C38  37902215.817   197366665.736        1696.496          32.000  
C40  36028873.305   187611639.583         176.624          40.000  
C45  24305017.661   126562495.1441       1316.479          18.000  
E11  25731332.444   135218966.982       -2104.186          32.000  
E16  26652999.687   140062460.884       -2830.445          23.000  
E34  25833515.804   135755988.812        2262.696          24.000  
E36  23375912.268   122841127.316          90.999          35.000  
G01  22690043.185   119236916.639       -2918.583          37.000  
G03  21276988.223   111811226.091        -372.054          37.000  
G06  22389064.748   117655097.797        2589.578          30.000  
G14  20386347.101   107130866.546       -1532.598          28.000  
G17  20704685.619   108803688.906         318.155          36.000  
G19  21200163.407   111407592.062        2051.424          32.000  
G22  20699304.345   108775353.970          11.204          30.000  
J02  37817174.590   198730431.353         563.046          37.000  
J03  39040610.823   205159749.773        -341.172          41.000  
> 2025 04 24 04 21 30.9996324  0 19                     
C07  35758189.983   186202122.233         236.147          38.000  
C10  36513956.876   190137568.8241        445.543          19.000  
C30  21730858.602   113158206.018        -173.874          36.000  
C38  37901885.033   197364952.650        1700.965          32.000  
C40  36028837.218   187611447.344         179.042          41.000  
C45  24304766.922   126561163.8601       1315.570          18.000  
E11  25731729.257   135221053.506       -2099.605          33.000  
E16  26653529.008   140065272.502       -2827.328          24.000  
E34  25833087.888   135753709.469        2265.846          25.000  
E36  23375892.969   122841019.079          93.326          34.000  
G01  22690596.789   119239819.327       -2916.922          36.000  
G03  21277057.662   111811582.716        -371.132          36.000  
G06  22388568.479   117652493.808        2589.221          30.000  
G14  20386635.988   107132381.811       -1529.542          27.000  
G17  20704625.548   108803354.611         320.726          36.000  
G19  21199769.967   111405525.045        2053.126          29.000  
G22  20699299.136   108775325.952          14.194          28.000  
J02  37817063.554   198729852.829         564.850          35.000  
J03  39040673.667   205160073.821        -339.181          40.000  
> 2025 04 24 04 21 31.9995714  0 19                     
C07  35758174.169   186202026.215         237.011          39.000  
C10  36513898.492   190137259.607         450.699          24.000  
C30  21730915.038   113158520.529        -172.113          34.000  
C38  37901586.515   197363391.960        1702.499          33.000  
C40  36028832.796   187611408.707         179.865          40.000  
C45  24304542.753   126559987.716        1322.236          20.000  
E11  25732161.333   135223292.431       -2099.961          34.000  
E16  26654083.100   140068239.655       -2824.776          22.000  
E34  25832684.142   135751584.993        2266.414          22.000  
E36  23375901.737   122841065.513          95.617          36.000  
G01  22691181.160   119242876.071       -2916.782          34.000  
G03  21277154.270   111812093.411        -370.717          37.000  
G06  22388103.876   117650046.811        2590.670          33.000  
G14  20386955.642   107134053.482       -1530.582          26.000  
G17  20704591.747   108803176.267         320.979          34.000  
G19  21199408.792   111403613.449        2053.877          25.000  
G22  20699328.890   108775454.111          12.477          28.000  
J02  37816983.285   198729430.272         565.331          33.000  
J03  39040767.577   205160554.232        -337.870          40.000  
> 2025 04 24 04 21 32.9995103  0 19                     
C07  35758130.436   186201777.450         235.734          39.000  
C10  36513806.493   190136797.249         447.700          27.000  
C30  21730945.954   113158680.348        -174.119          34.000  
C38  37901256.781   197361677.521        1701.796          33.000  
C40  36028798.057   187611216.935         178.663          40.000  
C45  24304287.667   126558653.733        1319.841          24.000  
E11  25732555.298   135225378.571       -2098.862          33.000  
E16  26654614.070   140071050.108       -2823.873          21.000  
E34  25832258.475   135749305.427        2267.016          21.000  
E36  23375884.087   122840957.472          95.312          37.000  
G01  22691731.916   119245779.683       -2917.087          34.000  
G03  21277222.960   111812452.490        -372.567          38.000  
G06  22387610.755   117647443.828        2590.513          33.000  
G14  20387245.279   107135572.482       -1532.766          25.000  
G17  20704527.329   108802843.693         319.466          34.000  
G19  21199018.200   111401548.418        2052.101          23.000  
G22  20699327.729   108775701.280          12.321          28.000  
J02  37816872.399   198728852.896         565.348          31.000  
J03  39040831.770   205160879.977        -339.667          40.000  
> 2025 04 24 04 21 33.9994492  0 19                     
C07  35758082.657   186201527.912         235.149          39.000  
C10  36513722.139   190136334.454         448.841          28.000  
C30  21730980.618   113158839.702        -174.327          34.000  
C38  37900926.297   197359962.495        1700.572          34.000  
C40  36028761.970   187611024.731         179.151          40.000  
C45  24304033.330   126557318.737        1319.688          25.000  
E11  25732949.113   135227462.023       -2099.997          33.000  
E16  26655146.089   140073860.113       -2827.261          20.000  
E34  25831820.066   135747023.869        2265.595          20.000  
E36  23375861.490   122840849.530          93.702          37.000  
G01  22692284.621   119248683.649       -2918.457          33.000  
G03  21277291.800   111812811.088        -371.768          38.000  
G06  22387116.884   117644840.941        2588.749          34.000  
G14  20387535.066   107137091.024       -1534.927          26.000  
G17  20704464.260   108802511.149         318.647          34.000  
G19  21198632.555   111399482.532        2051.031          25.000  
G22  20699324.618   108775675.859          10.362          27.000  
J02  37816763.162   198728273.597         565.359          31.000  
J03  39040895.213   205161204.349        -338.163          40.000  
> 2025 04 24 04 21 35.0003881  0 19                     
C07  35758053.764   186201373.163         237.455          39.000  
C10  36513653.074   190135965.653         451.297          28.000  
C30  21731029.971   113159093.947        -171.955          34.000  
C38  37900617.099   197358341.956        1701.832          35.000  
C40  36028742.970   187610926.233         180.166          40.000  
C45  24303792.784   126556080.068        1318.126          25.000  
E11  25733372.307   135229643.369       -2098.738          33.000  
E16  26655696.096   140076770.839       -2825.365          21.000  
E34  25831402.942   135744838.3321       2267.314          17.000  
E36  23375860.479   122840836.748          95.407          37.000  
G01  22692857.712   119251685.425       -2916.498          34.000  
G03  21277379.527   111813263.193        -372.441          38.000  
G06  22386640.401   117642332.473        2589.096          34.000  
G14  20387843.739   107138709.920       -1535.764          27.000  
G17  20704420.378   108802273.739         321.271          34.000  
G19  21198262.798   111397511.817        2052.360          24.000  
G22  20699339.196   108775747.533          11.322          29.000  
J02  37816673.112   198727790.232         565.883          32.000  
J03  39040975.745   205161623.868        -337.984          40.000  
> 2025 04 24 04 21 36.0003271  0 19                     
C07  35758037.276   186201279.476         237.213          38.000  
C10  36513599.111   190135658.779         449.887          30.000  
C30  21731090.529   113159408.224        -172.764          35.000  
C38  37900318.505   197356783.089        1702.876          35.000  
C40  36028736.675   187610889.245         180.084          40.000  
C45  24303569.439   126554904.723        1318.230          25.000  
E11  25733801.010   135231885.526       -2098.105          32.000  
E16  26656262.703   140079739.925       -2824.776          20.000  
E34  25831001.520   135742715.4661       2268.979          12.000  
E36  23375872.470   122840886.770          94.847          36.000  
G01  22693440.208   119254745.495       -2916.134          33.000  
G03  21277479.058   111813780.916        -372.586          38.000  
G06  22386176.922   117640153.456        2589.888          34.000  
G14  20388163.618   107140388.303       -1535.579          26.000  
G17  20704385.902   108802097.960         320.215          34.000  
G19  21197905.445   111395604.557        2052.257          24.000  
G22  20699367.076   108775881.264          11.353          27.000  
J02  37816593.967   198727369.386         565.851          32.000  
J03  39041068.980   205162106.320        -337.618          40.000  
> 2025 04 24 04 21 37.0002660  0 19                     
C07  35757989.534   186201026.615         237.102          38.000  
C10  36513506.101   190135193.263         449.125          31.000  
C30  21731123.132   113159564.185        -173.685          36.000  
C38  37899989.858   197355065.308        1700.214          34.000  
C40  36028700.625   187610693.460         180.201          40.000  
C45  24303311.543   126553569.986        1318.106          25.000  
E11  25734194.263   135233966.472       -2099.065          32.000  
E16  26656810.349   140082547.595       -2825.775          22.000  
E34  25830569.744   135740430.1021       2266.406          14.000  
E36  23375852.309   122840776.499          94.296          36.000  
G01  22693992.951   119257645.324       -2917.790          32.000  
G03  21277548.834   111814137.025        -375.566          37.000  
G06  22385683.988   117637548.323        2588.859          35.000  
G14  20388453.143   107141907.183       -1536.328          25.000  
G17  20704323.170   108801762.834         317.682          34.000  
G19  21197515.041   111393536.318        2052.230          23.000  
G22  20699363.704   108775854.450          10.425          24.000  
J02  37816484.767   198726788.487         564.088          31.000  
J03  39041131.262   205162426.824        -339.282          40.000  
> 2025 04 24 04 21 38.0002049  0 19                     
C07  35757941.567   186200777.898         234.169          38.000  
C10  36513419.760   190134732.355         447.820          31.000  
C30  21731157.008   113159726.005        -176.644          36.000  
C38  37899661.885   197353353.744        1697.491          34.000  
C40  36028664.649   187610502.311         176.340          40.000  
C45  24303060.017   126552239.424        1316.128          25.000  
E11  25734598.683   135236051.750       -2103.898          32.000  
E16  26657361.668   140085359.836       -2829.123          23.000  
E34  25830134.145   135738150.8021       2264.667          14.000  
E36  23375834.022   122840671.345          92.594          36.000  
G01  22694546.068   119260549.695       -2919.892          32.000  
G03  21277618.087   111814500.160        -376.898          37.000  
G06  22385190.830   117634948.346        2585.841          35.000  
G14  20388742.742   107143429.896       -1538.517          26.000  
G17  20704259.914   108801432.599         316.146          34.000  
G19  21197124.111   111391472.070        2050.837          22.000  
G22  20699362.804   108775832.027           9.297          22.000  
J02  37816376.542   198726212.442         562.327          32.000  
J03  39041195.118   205162753.677        -341.279          40.000  
> 2025 04 24 04 21 39.0001439  0 19                     
C07  35757925.341   186200686.738         233.704          38.000  
C10  36513362.463   190134427.013         446.785          31.000  
C30  21731220.826   113160043.790        -175.855          36.000  
C38  37899361.755   197351798.864        1697.956          34.000  
C40  36028658.616   187610467.876         177.944          40.000  
C45  24302832.736   126551065.211        1317.733          26.000  
E11  25735023.751   135238296.914       -2102.044          32.000  
E16  26657933.334   140088332.362       -2829.563          24.000  
E34  25829728.788   135736029.4011       2262.921          18.000  
E36  23375845.976   122840723.442          91.285          36.000  
G01  22695126.428   119263612.229       -2921.512          32.000  
G03  21277718.480   111815019.587        -377.960          38.000  
G06  22384727.013   117632506.403        2585.730          35.000  
G14  20389064.382   107145112.190       -1540.509          26.000  
G17  20704228.099   108801261.578         315.584          34.000  
G19  21196761.925   111389565.791        2048.825          22.000  
G22  20699390.947   108775967.512           6.802          22.000  
J02  37816297.360   198725794.453         562.045          32.000  
J03  39041288.616   205163236.317        -339.979          40.000  
> 2025 04 24 04 21 40.0000828  0 19                     
C07  35757878.011   186200436.091         236.037          38.000  
C10  36513272.862   190133964.811         448.174          31.000  
C30  21731253.241   113160201.005        -174.066          36.000  
C38  37899034.120   197350084.192        1700.229          34.000  
C40  36028622.079   187610273.382         178.989          40.000  
C45  24302573.154   126549731.436        1317.399          25.000  
E11  25735421.613   135240381.447       -2101.173          33.000  
E16  26658458.908   140091142.945       -2827.976          25.000  
E34  25829294.726   135733750.313        2264.608          21.000  
E36  23375825.927   122840616.122          92.290          36.000  
G01  22695678.084   119266514.626       -2917.102          32.000  
G03  21277788.668   111815378.928        -375.843          38.000  
G06  22384232.094   117629904.858        2586.904          35.000  
G14  20389354.019   107146637.180       -1540.282          25.000  
G17  20704165.479   108800928.165         318.959          34.000  
G19  21196371.332   111387501.564        2049.195          22.000  
G22  20699390.385   108775945.873           5.901          22.000  
J02  37816187.373   198725215.739         564.694          32.000  
J03  39041351.310   205163559.163        -339.225          40.000  
> 2025 04 24 04 21 41.0000218  0 19                     
C07  35757861.672   186200344.818         236.126          38.000  
C10  36513216.651   190133659.983         450.543          31.000  
C30  21731314.849   113160519.876        -174.560          36.000  
C38  37898737.775   197348528.269        1700.340          34.000  
C40  36028617.732   187610239.089         179.564          40.000  
C45  24302351.457   126548558.913        1315.254          25.000  
E11  25735851.965   135242627.601       -2100.626          33.000  
E16  26659024.466   140094115.669       -2827.814          26.000  
E34  25828889.257   135731631.4241       2264.476          19.000  
E36  23375834.472   122840669.769          92.215          36.000  
G01  22696259.831   119269576.188       -2917.899          32.000  
G03  21277889.249   111815900.677        -377.373          38.000  
G06  22383768.764   117627463.779        2586.973          35.000  
G14  20389675.546   107148321.358       -1540.526          23.000  
G17  20704132.652   108800755.498         317.553          34.000  
G19  21196008.434   111385598.527        2049.139          22.000  
G22  20699419.015   108776085.998           5.752          21.000  
J02  37816108.378   198724795.626         565.940          32.000  
J03  39041444.695   205164041.697        -337.824          40.000  
> 2025 04 24 04 21 41.9999607  0 19                     
C07  35757814.305   186200094.838         235.686          38.000  
C10  36513127.013   190133195.382         451.191          30.000  
C30  21731344.828   113160678.253        -174.750          35.000  
C38  37898413.699   197346813.937        1700.803          35.000  
C40  36028582.656   187610045.571         179.884          40.000  
C45  24302095.434   126547230.021        1313.154          25.000  
E11  25736249.790   135244710.566       -2100.096          33.000  
E16  26659555.998   140096928.989       -2827.372          25.000  
E34  25828460.854   135729352.4621       2264.716          19.000  
E36  23375819.182   122840563.766          91.897          36.000  
G01  22696814.447   119272478.997       -2918.539          33.000  
G03  21277959.700   111816265.360        -377.901          38.000  
G06  22383275.006   117624863.466        2586.352          35.000  
G14  20389966.345   107149847.807       -1540.061          23.000  
G17  20704071.495   108800424.111         317.598          33.000  
G19  21195616.905   111383535.3021       2049.549          19.000  
G22  20699418.416   108776066.120           5.867          24.000  
J02  37815998.054   198724216.993         563.490          32.000  
J03  39041507.352   205164363.966        -338.415          40.000  
> 2025 04 24 04 21 42.9998996  0 19                     
C07  35757768.437   186199844.657         235.663          38.000  
C10  36513037.675   190132730.948         450.133          30.000  
C30  21731378.405   113160838.145        -176.149          34.000  
C38  37898086.925   197345100.111        1698.842          35.000  
C40  36028545.782   187609852.532         178.249          40.000  
C45  24301838.212   126545902.629        1312.437          24.000  
E11  25736646.715   135246795.846       -2100.054          33.000  
E16  26660094.126   140099740.657       -2827.375          24.000  
E34  25828029.752   135727073.3961       2265.753          14.000  
E36  23375802.694   122840457.570          91.825          35.000  
G01  22697368.464   119275384.621       -2919.907          32.000  
G03  21278030.151   111816628.609        -381.376          38.000  
G06  22382782.447   117622263.289        2584.995          35.000  
G14  20390258.043   107151372.406       -1540.583          25.000  
G17  20704009.737   108800093.784         315.180          33.000  
G19  21195221.478   111381471.7421       2049.806          16.000  
G22  20699413.020   108776046.368           5.339          25.000  
J02  37815888.630   198723640.368         562.949          32.000  
J03  39041569.709   205164689.184        -340.103          40.000  
> 2025 04 24 04 21 43.9998386  0 19                     
C07  35757751.424   186199750.338         232.637          38.000  
C10  36512978.991   190132422.006         447.113          29.000  
C30  21731438.138   113161154.263        -178.862          33.000  
C38  37897787.508   197343542.352        1695.850          34.000  
C40  36028538.662   187609814.831         176.572          40.000  
C45  24301615.242   126544729.494        1311.187          24.000  
E11  25737075.793   135249036.466       -2102.324          33.000  
E16  26660666.804   140102709.714       -2830.388          24.000  
E34  25827632.302   135724948.2891       2266.098          14.000  
E36  23375812.961   122840509.559          88.734          35.000  
G01  22697954.033   119278443.545       -2921.015          34.000  
G03  21278130.956   111817150.480        -382.118          37.000  
G06  22382319.043   117619821.500        2581.868          35.000  
G14  20390576.498   107153052.438       -1542.464          25.000  
G17  20703977.734   108799919.989         314.641          32.000  
G19  21194854.607   111379562.8731       2049.669          16.000  
G22  20699439.476   108776182.891           3.496          27.000  
J02  37815808.960   198723219.551         560.889          33.000  
J03  39041662.420   205165169.816        -340.431          40.000  
> 2025 04 24 04 21 44.9997775  0 19                     
C07  35757703.944   186199505.451         234.045          38.000  
C10  36512892.838   190131963.331         447.115          29.000  
C30  21731470.703   113161320.992        -177.801          33.000  
C38  37897459.422   197341834.252        1698.186          33.000  
C40  36028504.673   187609625.254         177.661          40.000  
C45  24301362.704   126543406.577        1310.393          25.000  
E11  25737474.705   135251125.616       -2102.292          33.000  
E16  26661203.021   140105526.442       -2830.327          24.000  
E34  25827203.187   135722671.2651       2261.883          14.000  
E36  23375794.262   122840408.311          89.688          35.000  
G01  22698510.935   119281352.355       -2919.831          34.000  
G03  21278203.094   111817519.933        -382.043          37.000  
G06  22381827.571   117617226.929        2584.118          36.000  
G14  20390870.182   107154584.705       -1543.758          23.000  
G17  20703916.764   108799593.807         315.096          32.000  
G19  21194467.763   111377501.9291       2049.444          15.000  
G22  20699435.167   108776168.605           2.339          28.000  
J02  37815701.222   198722646.126         562.628          34.000  
J03  39041725.863   205165498.671        -340.391          40.000  
> 2025 04 24 04 21 45.9997164  0 19                     
C07  35757657.851   186199257.798         233.458          38.000  
C10  36512806.572   190131764.542         445.645          28.000  
C30  21731504.055   113161483.161        -177.795          34.000  
C38  37897132.723   197340121.947        1698.611          33.000  
C40  36028468.473   187609434.732         176.822          40.000  
C45  24301107.956   126542081.819        1310.368          24.000  
E11  25737875.902   135253214.073       -2103.374          34.000  
E16  26661738.525   140108343.205       -2830.175          24.000  
E34  25826783.253   135720661.6671       2262.767          15.000  
E36  23375775.750   122840305.744          88.941          35.000  
G01  22699065.626   119284256.959       -2922.526          34.000  
G03  21278273.920   111817886.493        -384.364          37.000  
G06  22381334.787   117614629.692        2582.302          35.000  
G14  20391162.854   107156113.613       -1544.691          22.000  
G17  20703855.981   108799265.127         314.273          32.000  
G19  21194077.508   111375439.2241       2049.076          11.000  
G22  20699431.644   108776152.995           1.156          29.000  
J02  37815593.072   198722070.545         561.693          33.000  
J03  39041789.194   205165823.681        -340.989          40.000  
> 2025 04 24 04 21 46.9996554  0 19                     
C07  35757641.587   186199165.892         234.019          38.000  
C10  36512748.638   190131460.411         447.078          27.000  
C30  21731564.239   113161802.935        -178.965          34.000  
C38  37896836.753   197338565.403        1697.201          32.000  
C40  36028463.301   187609662.437         177.110          40.000  
C45  24300883.636   126540912.531        1309.634          23.000  
E11  25738299.134   135255458.894       -2102.957          34.000  
E16  26662305.957   140111314.949       -2830.220          24.000  
E34  25826381.156   135718542.1281       2262.405          14.000  
E36  23375790.065   122840361.044          87.949          35.000  
G01  22699651.346   119287322.725       -2921.952          33.000  
G03  21278374.875   111818414.318        -384.961          37.000  
G06  22380871.832   117612190.516        2582.717          35.000  
G14  20391485.356   107157800.661       -1545.408          23.000  
G17  20703824.428   108799093.173         314.569          33.000  
G19  21193714.384   111373533.3631       2049.025          16.000  
G22  20699458.251   108776294.915           1.126          29.000  
J02  37815515.051   198721651.325         562.030          33.000  
J03  39041882.055   205166306.713        -340.808          40.000  
> 2025 04 24 04 21 47.9995943  0 19                     
C07  35757594.407   186199176.895         234.101          38.000  
C10  36512659.487   190130996.281         448.523          26.000  
C30  21731599.502   113161966.470        -178.981          35.000  
C38  37896508.068   197336853.919        1696.155          33.000  
C40  36028428.113   187609469.660         177.270          40.000  
C45  24300627.800   126539586.383        1308.855          23.000  
E11  25738700.443   135257545.861       -2103.389          34.000  
E16  26662837.377   140114128.882       -2830.742          26.000  
E34  25825952.640   135716263.8151       2259.381          14.000  
E36  23375768.068   122840256.658          88.368          36.000  
G01  22700204.950   119290224.866       -2919.496          33.000  
G03  21278447.013   111818781.407        -385.129          38.000  
G06  22380379.461   117609592.258        2583.036          35.000  
G14  20391781.438   107159329.548       -1546.290          22.000  
G17  20703763.158   108798762.999         313.791          34.000  
G19  21193323.343   111371468.0531       2049.105          16.000  
G22  20699454.241   108776277.841           1.047          28.000  
J02  37815403.716   198721073.656         561.110          32.000  
J03  39041945.199   205166630.398        -340.303          40.000  
> 2025 04 24 04 21 48.9995332  0 19                     
C07  35757548.914   186198931.975         231.370          39.000  
C10  36512573.821   190130537.685         446.124          27.000  
C30  21731634.053   113162132.038        -179.352          36.000  
C38  37896180.470   197335146.071        1695.360          34.000  
C40  36028392.813   187609281.550         174.896          40.000  
C45  24300374.551   126538265.102        1307.662          23.000  
E11  25739103.439   135259901.661       -2104.340          34.000  
E16  26663380.076   140116946.196       -2831.728          27.000  
E34  25825518.016   135713992.4051       2260.613          14.000  
E36  23375750.754   122840158.115          86.192          36.000  
G01  22700759.042   119293132.631       -2923.071          33.000  
G03  21278519.038   111819154.455        -386.466          38.000  
G06  22379885.777   117606998.663        2580.452          35.000  
G14  20392078.608   107160861.544       -1547.481          23.000  
G17  20703701.776   108798437.123         313.031          35.000  
G19  21192931.889   111369407.3931       2048.198          15.000  
G22  20699454.016   108776267.129          -0.534          28.000  
J02  37815295.266   198720500.901         560.069          32.000  
J03  39042009.429   205166958.010        -342.121          40.000  
> 2025 04 24 04 21 49.9994722  0 19                     
C07  35757532.350   186198841.752         234.263          38.000  
C10  36512517.685   190130234.648         446.703          28.000  
C30  21731696.035   113162453.095        -178.824          36.000  
C38  37895884.200   197333593.467        1697.117          35.000  
C40  36028386.442   187609247.845         178.507          40.000  
C45  24300151.730   126537100.292        1307.153          23.000  
E11  25739532.068   135262149.230       -2103.645          34.000  
E16  26663952.305   140119921.883       -2831.387          26.000  
E34  25825102.728   135711876.713        2260.410          22.000  
E36  23375764.770   122840215.051          88.048          36.000  
G01  22701344.161   119296198.716       -2920.942          33.000  
G03  21278622.991   111819683.625        -386.167          38.000  
G06  22379422.223   117604562.235        2582.119          35.000  
G14  20392401.709   107162553.812       -1545.831          25.000  
G17  20703672.920   108798535.332         313.942          35.000  
G19  21192570.564   111367504.0891       2048.087          13.000  
G22  20699485.419   108776412.022          -2.339          26.000  
J02  37815219.044   198720085.180         559.976          32.000  
J03  39042102.890   205167442.378        -340.269          40.000  
> 2025 04 24 04 21 51.0004110  0 19                     
C07  35757474.041   186198534.975         231.846          38.000  
C10  36512419.203   190129713.977         445.836          28.000  
C30  21731718.969   113162558.063        -179.426          36.000  
C38  37895545.285   197331820.956        1696.096          34.000  
C40  36028339.525   187608997.058         175.250          40.000  
C45  24299888.662   126535716.991        1306.690          22.000  
E11  25739920.749   135264177.882       -2103.721          34.000  
E16  26664476.492   140122679.885       -2831.326          25.000  
E34  25824652.890   135709539.440        2260.701          22.000  
E36  23375733.142   122840054.469          85.696          36.000  
G01  22701888.435   119299047.895       -2923.431          34.000  
G03  21278684.598   111819994.660        -386.773          38.000  
G06  22378919.322   117601903.985        2581.563          36.000  
G14  20392680.966   107164024.669       -1545.559          25.000  
G17  20703600.221   108798147.021         312.749          35.000  
G19  21192167.493   111365379.5851       2047.876          13.000  
G22  20699473.278   108776341.023          -2.354          25.000  
J02  37815100.176   198719449.376         560.567          33.000  
J03  39042154.904   205167707.581        -341.254          40.000  
> 2025 04 24 04 21 52.0003500  0 19                     
C07  35757457.815   186198445.020         231.763          39.000  
C10  36512361.306   190129410.161         445.718          28.000  
C30  21731785.186   113162880.060        -181.605          36.000  
C38  37895249.652   197330268.134        1693.041          34.000  
C40  36028334.391   187608963.002         175.652          40.000  
C45  24299666.179   126534551.651        1305.779          23.000  
E11  25740348.515   135266425.470       -2105.034          34.000  
E16  26665048.758   140125654.065       -2832.389          25.000  
E34  25824255.028   135707422.2591       2259.579          18.000  
E36  23375742.997   122840112.077          85.504          36.000  
G01  22702472.393   119302112.249       -2922.648          34.000  
G03  21278787.689   111820526.425        -389.782          38.000  
G06  22378457.604   117599467.283        2578.967          35.000  
G14  20393005.903   107165712.693       -1547.542          26.000  
G17  20703569.305   108797979.100         310.319          35.000  
G19  21191802.908   111363475.3731       2047.157          16.000  
G22  20699502.320   108776484.266          -2.400          26.000  
J02  37815022.192   198719032.110         559.896          33.000  
J03  39042248.701   205168191.940        -342.700          40.000  
> 2025 04 24 04 21 53.0002889  0 19                     
C07  35757410.747   186198196.958         232.986          39.000  
C10  36512275.265   190128948.596         446.375          28.000  
C30  21731821.161   113163043.821        -180.926          36.000  
C38  37894923.778   197328559.509        1693.685          35.000  
C40  36028299.615   187608771.928         175.995          40.000  
C45  24299413.454   126533230.181        1304.337          23.000  
E11  25740749.637   135268514.462       -2105.493          34.000  
E16  26665587.186   140128470.211       -2833.368          25.000  
E34  25823826.025   135705147.5771       2256.290          20.000  
E36  23375727.708   122840278.446          85.206          36.000  
G01  22703028.208   119305018.708       -2923.298          34.000  
G03  21278859.640   111821161.373        -389.820          38.000  
G06  22377964.445   117596873.159        2578.937          35.000  
G14  20393294.603   107167245.347       -1548.914          27.000  
G17  20703508.147   108797652.905         310.353          35.000  
G19  21191408.681   111361412.982        2046.372          21.000  
G22  20699497.823   108776473.181          -4.016          24.000  
J02  37814914.267   198718457.912         557.958          32.000  
J03  39042312.257   205168518.274        -342.914          40.000  
> 2025 04 24 04 21 54.0002278  0 19                     
C07  35757364.542   186197952.370         232.081          39.000  
C10  36512190.087   190128490.262         445.548          29.000  
C30  21731853.201   113163212.477        -181.505          36.000  
C38  37894597.566   197327113.286        1693.415          35.000  
C40  36028263.902   187608584.530         175.294          40.000  
C45  24299164.888   126531913.644        1303.062          22.000  
E11  25741149.823   135270606.187       -2106.084          35.000  
E16  26666127.674   140131290.188       -2834.348          25.000  
E34  25823395.186   135702878.9261       2256.705          20.000  
E36  23375710.882   122840181.926          83.895          36.000  
G01  22703583.686   119307928.725       -2924.683          35.000  
G03  21278932.152   111821540.157        -391.383          39.000  
G06  22377470.949   117594282.676        2578.030          35.000  
G14  20393582.067   107168781.057       -1551.233          29.000  
G17  20703447.552   108797330.059         310.277          36.000  
G19  21191020.112   111359354.3411       2045.825          19.000  
G22  20699499.285   108776464.701          -7.194          22.000  
J02  37814806.005   198717886.623         560.304          33.000  
J03  39042375.776   205168845.820        -341.894          40.000  
> 2025 04 24 04 21 55.0001668  0 19                     
C07  35757350.789   186197861.477         231.551          39.000  
C10  36512132.564   190128185.864         444.921          29.000  
C30  21731915.296   113163532.761        -182.260          36.000  
C38  37894300.509   197325560.637        1693.615          35.000  
C40  36028258.543   187608550.072         175.037          40.000  
C45  24298948.176   126530750.834        1302.473          22.000  
E11  25741579.463   135272854.798       -2106.448          34.000  
E16  26666690.422   140134265.323       -2833.347          27.000  
E34  25822990.803   135700764.3021       2257.061          19.000  
E36  23375721.113   122840240.465          83.482          36.000  
G01  22704168.619   119310996.551       -2925.077          34.000  
G03  21279035.018   111822071.769        -392.372          39.000  
G06  22377008.107   117591846.656        2578.293          35.000  
G14  20393905.580   107170473.875       -1553.053          29.000  
G17  20703417.010   108797161.895         310.001          36.000  
G19  21190661.598   111357450.9531       2045.717          19.000  
G22  20699526.304   108776616.548          -8.502          22.000  
J02  37814726.897   198717730.976         560.544          32.000  
J03  39042469.049   205169328.942        -342.399          40.000  
> 2025 04 24 04 21 56.0001057  0 19                     
C07  35757306.794   186197623.317         223.978          38.000  
C10  36512045.100   190127731.003         441.377          29.000  
C30  21731949.847   113163707.106        -187.762          36.000  
C38  37893974.110   197323858.174        1688.674          34.000  
C40  36028224.742   187608367.860         168.087          40.000  
C45  24298696.425   126529436.969        1299.483          20.000  
E11  25741976.763   135274949.969       -2109.990          34.000  
E16  26667230.423   140137088.559       -2837.425          26.000  
E34  25822555.579   135698496.3061       2253.165          19.000  
E36  23375703.500   122840150.150          77.984          35.000  
G01  22704727.207   119313912.390       -2930.135          35.000  
G03  21279109.142   111822455.584        -397.635          38.000  
G06  22376517.122   117589260.569        2571.705          35.000  
G14  20394198.553   107172015.321       -1554.448          28.000  
G17  20703356.827   108796843.139         305.868          35.000  
G19  21190271.643   111355394.053        2043.931          22.000  
G22  20699524.280   108776612.999         -10.502          24.000  
J02  37814622.344   198717162.385         554.065          33.000  
J03  39042533.279   205169663.136        -346.624          40.000  
> 2025 04 24 04 21 57.0000446  0 19                     
C07  35757260.888   186197380.359         231.804          38.000  
C10  36511957.523   190127275.346         442.067          29.000  
C30  21731984.285   113164144.357        -183.302          36.000  
C38  37893647.599   197322153.039        1692.447          35.000  
C40  36028190.228   187608181.847         174.189          40.000  
C45  24298446.660   126528387.6681       1298.012          20.000  
E11  25742376.349   135277045.026       -2108.942          34.000  
E16  26667768.513   140139909.790       -2837.410          27.000  
E34  25822116.046   135696228.8911       2253.536          19.000  
E36  23375686.374   122840056.738          80.160          35.000  
G01  22705285.983   119316824.977       -2925.630          35.000  
G03  21279181.654   111822835.362        -393.574          38.000  
G06  22376025.125   117586672.704        2576.949          35.000  
G14  20394492.612   107173555.135       -1555.430          28.000  
G17  20703296.231   108796522.660         306.900          35.000  
G19  21189882.175   111353336.897        2042.003          23.000  
G22  20699521.245   108776609.857         -10.453          22.000  
J02  37814515.880   198716593.473         555.744          33.000  
J03  39042596.798   205169991.334        -343.316          40.000  
> 2025 04 24 04 21 57.9999836  0 19                     
C07  35757243.388   186197288.843         231.702          38.000  
C10  36511898.351   190126972.374         443.747          29.000  
C30  21732045.031   113164464.546        -183.453          35.000  
C38  37893352.191   197320600.401        1692.453          35.000  
C40  36028185.319   187608147.312         175.090          40.000  
C45  24298227.400   126527229.2881       1297.219          19.000  
E11  25742807.937   135279294.718       -2108.186          34.000  
E16  26668331.411   140142887.115       -2835.899          28.000  
E34  25821707.916   135694116.264        2255.223          20.000  
E36  23375699.453   122840116.040          81.664          35.000  
G01  22705870.765   119320155.774       -2925.996          35.000  
G03  21279283.471   111823370.383        -396.779          38.000  
G06  22375562.133   117584236.700        2576.164          35.000  
G14  20394817.474   107175251.399       -1555.405          29.000  
G17  20703266.140   108796356.245         307.295          35.000  
G19  21189522.611   111351437.190        2040.414          24.000  
G22  20699552.311   108776761.012          -9.529          21.000  
J02  37814438.422   198716177.315         558.356          33.000  
J03  39042690.520   205170476.011        -343.981          40.000  
> 2025 04 24 04 21 58.9999225  0 19                     
C07  35757198.607   186197045.950         227.740          38.000  
C10  36511811.599   190126515.944         443.155          30.000  
C30  21732079.095   113164635.539        -185.947          35.000  
C38  37893025.604   197318895.249        1691.229          35.000  
C40  36028150.430   187607960.892         171.159          40.000  
C45  24297976.361   126525918.3821       1303.241          20.000  
E11  25743205.949   135281386.632       -2108.571          35.000  
E16  26668872.724   140145708.705       -2836.694          28.000  
E34  25821282.098   135691847.8701       2255.528          20.000  
E36  23375684.650   122840022.031          80.319          35.000  
G01  22706426.768   119323068.264       -2928.641          35.000  
G03  21279357.108   111823752.035        -396.800          38.000  
G06  22375070.661   117581649.141        2573.371          35.000  
G14  20395114.156   107176793.349       -1555.980          31.000  
G17  20703206.668   108796035.742         306.192          35.000  
G19  21189133.968   111349650.324        2040.711          26.000  
G22  20699552.798   108776756.828          -8.784          23.000  
J02  37814330.684   198715606.624         556.471          32.000  
J03  39042754.563   205170805.617        -344.368          40.000  
> 2025 04 24 04 21 59.9998614  0 19                     
C07  35757153.188   186196801.987         232.500          38.000  
C10  36511723.910   190126057.731         444.207          30.000  
C30  21732114.021   113164805.000        -183.213          35.000  
C38  37892698.381   197317189.295        1692.336          35.000  
C40  36028113.406   187607772.942         174.735          40.000  
C45  24297725.585   126524600.7511       1300.886          20.000  
E11  25743604.823   135283479.734       -2108.464          35.000  
E16  26669408.902   140148530.043       -2836.154          28.000  
E34  25820846.050   135689577.7311       2255.135          19.000  
E36  23375668.911   122839927.220          80.570          35.000  
G01  22706983.333   119325981.088       -2925.603          35.000  
G03  21279431.306   111824133.509        -395.766          38.000  
G06  22374579.151   117579060.718        2575.385          35.000  
G14  20395410.201   107178603.021       -1555.847          30.000  
G17  20703148.958   108795714.191         308.253          35.000  
G19  21188745.587   111347594.906        2040.938          25.000  
G22  20699554.147   108776751.422          -8.382          22.000  
J02  37814223.208   198715034.329         558.859          33.000  
J03  39042817.670   205171132.236        -341.595          40.000  
> 2025 04 24 04 22 00.9998004  0 19                     
C07  35757137.187   186196712.973         229.933          38.000  
C10  36511665.637   190125756.101         444.957          30.000  
C30  21732177.764   113165129.685        -183.478          35.000  
C38  37892400.874   197315638.747        1692.937          34.000  
C40  36028109.097   187607741.036         173.804          40.000  
C45  24297501.227   126523442.9971       1299.146          18.000  
E11  25744033.114   135285730.317       -2106.913          34.000  
E16  26669976.297   140151509.900       -2835.371          28.000  
E34  25820449.013   135687466.912        2255.571          20.000  
E36  23375682.589   122839989.742          81.361          35.000  
G01  22707569.914   119329047.585       -2925.765          35.000  
G03  21279535.821   111824672.837        -396.854          38.000  
G06  22374117.358   117576629.008        2576.643          35.000  
G14  20395735.364   107180300.547       -1554.993          30.000  
G17  20703118.867   108795549.423         309.033          35.000  
G19  21188385.723   111345698.447        2041.256          26.000  
G22  20699586.112   108776903.142          -8.999          21.000  
J02  37814146.049   198714619.502         559.107          33.000  
J03  39042911.692   205171885.157        -343.371          40.000  
> 2025 04 24 04 22 01.9997393  0 19                     
C07  35757091.880   186196468.332         231.820          38.000  
C10  36511578.660   190125296.639         445.626          30.000  
C30  21732213.402   113165298.781        -183.760          36.000  
C38  37892076.761   197313931.690        1692.853          34.000  
C40  36028074.883   187607552.235         175.488          40.000  
C45  24297251.463   126522129.4181       1298.389          19.000  
E11  25744432.101   135287821.646       -2107.142          35.000  
E16  26670514.087   140154329.304       -2835.892          30.000  
E34  25820016.075   135685197.049        2255.169          21.000  
E36  23375665.763   122839895.114          80.768          35.000  
G01  22708125.392   119331959.883       -2926.466          34.000  
G03  21279609.533   111825052.647        -396.202          38.000  
G06  22373623.563   117574038.524        2575.972          34.000  
G14  20396029.423   107181841.901       -1555.967          31.000  
G17  20703059.770   108795226.687         308.141          36.000  
G19  21187996.855   111343642.599        2041.980          24.000  
G22  20699582.477   108776899.090          -9.521          20.000  
J02  37814038.086   198714046.371         558.636          32.000  
J03  39042975.510   205172211.280        -341.740          40.000  
> 2025 04 24 04 22 02.9996782  0 19                     
C07  35757044.850   186196224.340         231.854          38.000  
C10  36511493.856   190124839.194         445.253          29.000  
C30  21732247.616   113165469.055        -183.802          36.000  
C38  37891751.824   197312227.182        1692.108          33.000  
C40  36028039.845   187607364.810         174.417          40.000  
C45  24296998.475   126520818.2081       1297.867          19.000  
E11  25744832.661   135289916.502       -2107.231          35.000  
E16  26671052.852   140157150.523       -2835.083          29.000  
E34  25819582.912   135682929.480        2255.705          21.000  
E36  23375645.715   122839801.611          81.292          35.000  
G01  22708682.744   119334872.358       -2925.718          34.000  
G03  21279683.319   111825437.617        -397.807          38.000  
G06  22373130.442   117571450.242        2577.094          34.000  
G14  20396323.856   107183385.617       -1557.124          29.000  
G17  20703000.449   108794906.369         308.779          36.000  
G19  21187608.361   111341588.540        2041.909          24.000  
G22  20699582.515   108776896.823          -9.942          24.000  
J02  37813931.398   198713475.206         559.181          32.000  
J03  39043038.804   205172541.368        -341.706          39.000  
> 2025 04 24 04 22 03.9996172  0 19                     
C07  35757030.610   186196135.334         230.596          38.000  
C10  36511433.748   190124536.977         444.994          28.000  
C30  21732310.722   113165795.176        -184.196          36.000  
C38  37891455.179   197310677.600        1693.043          33.000  
C40  36028034.898   187607332.604         175.233          40.000  
C45  24296777.678   126519662.2871       1297.911          17.000  
E11  25745262.113   135292168.264       -2107.803          35.000  
E16  26671614.513   140160129.295       -2834.295          29.000  
E34  25819187.936   135680817.808        2256.156          21.000  
E36  23375659.955   122839864.945          80.804          35.000  
G01  22709266.889   119337938.960       -2925.159          34.000  
G03  21279787.497   111825977.449        -398.538          38.000  
G06  22372668.611   117569018.668        2574.908          33.000  
G14  20396648.082   107185085.338       -1558.290          28.000  
G17  20702971.219   108794741.611         307.918          36.000  
G19  21187249.660   111339690.830        2042.102          23.000  
G22  20699612.044   108777051.227          -9.776          26.000  
J02  37813853.302   198713060.506         557.697          32.000  
J03  39043131.890   205173025.022        -341.580          39.000  
> 2025 04 24 04 22 04.9995561  0 19                     
C07  35756984.068   186195887.755         232.717          38.000  
C10  36511344.335   190124076.738         445.146          28.000  
C30  21732342.725   113165961.959        -183.887          36.000  
C38  37891125.932   197308969.084        1692.574          34.000  
C40  36027998.248   187607141.070         176.664          40.000  
C45  24296526.377   126518347.4691       1298.141          17.000  
E11  25745663.461   135294257.278       -2107.082          35.000  
E16  26672155.264   140162945.823       -2834.458          29.000  
E34  25818761.856   135678545.681        2256.034          23.000  
E36  23375644.291   122839768.205          80.833          35.000  
G01  22709821.130   119340848.187       -2924.952          34.000  
G03  21279860.871   111826361.104        -399.104          38.000  
G06  22372176.877   117566428.803        2574.609          33.000  
G14  20396942.703   107186627.214       -1559.494          28.000  
G17  20702911.185   108794418.454         307.470          36.000  
G19  21186859.855   111337632.454        2043.074          23.000  
G22  20699608.072   108777043.551          -9.136          26.000  
J02  37813745.301   198712486.620         558.198          33.000  
J03  39043194.771   205173351.540        -342.228          39.000  
> 2025 04 24 04 22 05.9994950  0 19                     
C07  35756937.637   186195643.863         230.183          38.000  
C10  36511262.229   190123618.665         445.870          28.000  
C30  21732373.941   113166132.632        -185.197          36.000  
C38  37890798.296   197307263.988        1693.205          33.000  
C40  36027963.510   187606953.680         173.954          40.000  
C45  24296280.285   126517036.4091       1297.614          17.000  
E11  25746063.421   135296352.446       -2107.913          35.000  
E16  26672689.531   140165767.545       -2835.487          29.000  
E34  25818337.687   135676277.499        2255.295          22.000  
E36  23375629.938   122839675.262          80.387          35.000  
G01  22710377.583   119343761.013       -2926.981          34.000  
G03  21279934.958   111826746.096        -400.463          38.000  
G06  22371686.754   117563841.372        2573.283          34.000  
G14  20397237.137   107188173.690       -1559.967          28.000  
G17  20702852.463   108794098.168         307.920          36.000  
G19  21186470.761   111335577.148        2042.931          21.000  
G22  20699606.011   108777041.220         -10.674          26.000  
J02  37813638.313   198711915.738         557.944          33.000  
J03  39043258.964   205173678.453        -342.718          40.000  
> 2025 04 24 04 22 07.0004339  0 19                     
C07  35756909.906   186195492.764         230.897          39.000  
C10  36511194.626   190123251.635         444.906          28.000  
C30  21732428.953   113166396.453        -184.941          36.000  
C38  37890489.960   197305648.191        1692.679          32.000  
C40  36027946.871   187606858.615         174.438          40.000  
C45  24296050.494   126515815.4961       1297.490          17.000  
E11  25746479.983   135298540.389       -2108.130          34.000  
E16  26673248.794   140168685.307       -2834.418          28.000  
E34  25817928.020   135674099.9961       2252.080          20.000  
E36  23375633.386   122839676.207          79.011          35.000  
G01  22710952.135   119346769.284       -2926.995          34.000  
G03  21280027.444   111827227.125        -400.682          37.000  
G06  22371212.632   117561346.154        2572.324          33.000  
G14  20397549.370   107189814.396       -1560.190          25.000  
G17  20702810.642   108793869.986         307.752          36.000  
G19  21186100.967   111333613.066        2041.143          21.000  
G22  20699624.148   108777132.765         -12.999          27.000  
J02  37813548.225   198711436.315         559.166          33.000  
J03  39043340.358   205174100.401        -342.146          40.000  
> 2025 04 24 04 22 08.0003728  0 19                     
C07  35756863.738   186195248.251         231.328          39.000  
C10  36511112.183   190122794.040         445.104          27.000  
C30  21732462.529   113166569.714        -185.429          36.000  
C38  37890157.490   197303942.642        1692.479          31.000  
C40  36027911.796   187606670.464         174.379          41.000  
C45  24295803.165   126514504.8331       1297.025          17.000  
E11  25746879.306   135300634.913       -2108.079          35.000  
E16  26673785.423   140171506.411       -2836.107          28.000  
E34  25817499.917   135671835.0851       2254.857          19.000  
E36  23375611.201   122839584.873          79.023          35.000  
G01  22711508.550   119349683.052       -2927.772          35.000  
G03  21280101.492   111827613.861        -401.835          37.000  
G06  22370721.572   117558761.127        2572.909          32.000  
G14  20397842.268   107191360.847       -1559.955          26.000  
G17  20702752.183   108793550.342         306.441          37.000  
G19  21185707.940   111331560.1411       2040.301          20.000  
G22  20699625.348   108777132.857         -13.647          29.000  
J02  37813438.801   198710865.623         556.710          33.000  
J03  39043404.513   205174430.085        -342.712          39.000  
> 2025 04 24 04 22 09.0003118  0 19                     
C07  35756849.948   186195157.940         229.348          40.000  
C10  36511055.522   190122489.932         444.822          24.000  
C30  21732525.785   113166893.731        -186.862          36.000  
C38  37889863.693   197302391.053        1691.475          32.000  
C40  36027907.599   187606636.806         172.197          41.000  
C45  24295586.715   126513348.071        1297.105          21.000  
E11  25747305.012   135302885.034       -2109.634          34.000  
E16  26674348.133   140174482.853       -2836.093          26.000  
E34  25817095.796   135669722.540        2253.761          21.000  
E36  23375625.891   122839647.891          78.626          36.000  
G01  22712094.344   119352750.156       -2929.746          35.000  
G03  21280208.518   111828158.195        -405.309          37.000  
G06  22370259.292   117556330.217        2571.945          33.000  
G14  20398168.142   107193061.417       -1561.015          30.000  
G17  20702721.604   108793386.014         304.722          37.000  
G19  21185344.891   111329661.8981       2039.989          19.000  
G22  20699658.025   108777289.233         -13.795          29.000  
J02  37813360.555   198710450.039         557.205          33.000  
J03  39043497.749   205174912.195        -344.324          39.000  
> 2025 04 24 04 22 10.0002507  0 19                     
C07  35756804.717   186194916.016         226.118          39.000  
C10  36510971.318   190122032.106         443.166          24.000  
C30  21732561.798   113167067.958        -190.753          37.000  
C38  37889530.961   197300687.059        1688.693          29.000  
C40  36027873.460   187606451.960         169.198          42.000  
C45  24295337.026   126512036.547        1295.660          22.000  
E11  25747705.572   135304983.938       -2114.036          33.000  
E16  26674901.587   140177304.810       -2837.810          26.000  
E34  25816670.728   135667455.4051       2250.146          18.000  
E36  23375606.142   122839558.300          75.556          36.000  
G01  22712649.597   119355667.712       -2933.647          36.000  
G03  21280286.202   111828550.518        -409.551          37.000  
G06  22369768.569   117553745.182        2569.733          32.000  
G14  20398464.974   107194608.684       -1562.568          26.000  
G17  20702661.383   108793068.882         300.610          37.000  
G19  21184955.798   111327609.011        2038.226          23.000  
G22  20699661.660   108777289.956         -16.566          29.000  
J02  37813253.867   198709880.241         553.996          33.000  
J03  39043562.542   205175243.605        -347.156          40.000  
> 2025 04 24 04 22 11.0001896  0 19                     
C07  35756760.010   186194679.930         219.868          38.000  
C10  36510883.142   190121576.237         440.152          23.000  
C30  21732597.136   113167248.809        -199.696          36.000  
C38  37889202.351   197298988.097        1684.220          31.000  
C40  36027841.944   187606274.043         160.684          42.000  
C45  24295087.261   126510727.858        1292.021          21.000  
E11  25748108.156   135307090.487       -2122.962          32.000  
E16  26675451.669   140180445.151       -2842.915          25.000  
E34  25816241.088   135665191.671        2249.121          20.000  
E36  23375595.312   122839475.044          68.803          36.000  
G01  22713206.574   119358592.211       -2945.843          35.000  
G03  21280365.609   111828949.389        -420.542          36.000  
G06  22369279.870   117551164.173        2566.558          31.000  
G14  20398762.331   107196158.102       -1567.311          26.000  
G17  20702603.186   108792758.333         292.875          36.000  
G19  21184566.030   111325558.458        2034.005          24.000  
G22  20699664.920   108777296.014         -21.488          27.000  
J02  37813145.904   198709314.947         549.478          34.000  
J03  39043628.458   205175579.829        -354.900          41.000  
> 2025 04 24 04 22 12.0001286  0 19                     
C07  35756746.744   186194605.932         219.946          38.000  
C10  36510827.005   190121282.957         436.481          24.000  
C30  21732665.114   113167594.487        -201.970          36.000  
C38  37888913.276   197297446.335        1690.686          32.000  
C40  36027839.771   187606259.595         158.698          42.000  
C45  24294867.738   126509582.303        1287.939          21.000  
E11  25748538.283   135309366.757       -2129.774          33.000  
E16  26676021.500   140183434.045       -2843.476          26.000  
E34  25815844.688   135663087.869        2252.984          22.000  
E36  23375609.927   122839554.520          67.597          36.000  
G01  22713796.491   119361687.113       -2953.520          34.000  
G03  21280474.959   111829519.051        -424.605          37.000  
G06  22368820.213   117548741.786        2572.593          33.000  
G14  20399089.929   107197874.130       -1570.512          26.000  
G17  20702575.530   108792613.977         289.721          36.000  
G19  21184202.007   111323675.604        2028.890          29.000  
G22  20699699.022   108777464.888         -24.078          29.000  
J02  37813072.680   198708912.284         549.184          34.000  
J03  39043725.516   205176082.416        -355.765          41.000  
> 2025 04 24 04 22 13.0000675  0 19                     
C07  35756703.125   186194367.528         225.672          38.000  
C10  36510740.815   190120833.021         434.492          23.000  
C30  21732701.239   113167778.120        -195.312          36.000  
C38  37888588.151   197295737.071        1699.071          30.000  
C40  36027807.543   187606082.602         163.045          42.000  
C45  24294619.960   126508278.575        1288.511          20.000  
E11  25748944.052   135311483.988       -2131.653          32.000  
E16  26676558.578   140186262.154       -2840.924          21.000  
E34  25815411.637   135660819.2431       2263.876          18.000  
E36  23375594.188   122839468.587          71.591          35.000  
G01  22714356.653   119364625.809       -2953.599          34.000  
G03  21280553.354   111829927.074        -424.453          37.000  
G06  22368329.003   117546147.588        2585.077          32.000  
G14  20399388.372   107199425.219       -1565.360          23.000  
G17  20702518.120   108792306.107         296.738          36.000  
G19  21183807.630   111321630.402        2032.197          28.000  
G22  20699702.769   108777472.735         -21.759          26.000  
J02  37812966.103   198708345.434         555.269          33.000  
J03  39043791.021   205176419.420        -351.239          42.000  
> 2025 04 24 04 22 14.0000064  0 19                     
C07  35756657.219   186194125.153         227.382          38.000  
C10  36510656.536   190120383.034         434.431          22.000  
C30  21732735.977   113167956.088        -194.683          34.000  
C38  37888258.342   197294018.524        1705.538          29.000  
C40  36027774.228   187605903.031         164.889          42.000  
C45  24294368.396   126506973.897        1288.183          20.000  
E11  25749346.036   135313597.606       -2130.952          32.000  
E16  26677096.668   140189084.6171      -2833.266          18.000  
E34  25814977.800   135658537.759        2268.251          22.000  
E36  23375577.962   122839378.010          74.590          35.000  
G01  22714914.829   119367559.652       -2942.245          34.000  
G03  21280631.563   111830332.661        -423.033          37.000  
G06  22367835.207   117543542.788        2591.811          31.000  
G14  20399684.830   107200968.182       -1558.263          25.000  
G17  20702459.623   108791993.406         297.035          35.000  
G19  21183412.466   111319577.712        2037.824          29.000  
G22  20699703.631   108777473.229         -14.026          28.000  
J02  37812856.941   198707770.384         560.485          33.000  
J03  39043855.739   205176752.120        -349.852          41.000  
> 2025 04 24 04 22 14.9999453  0 19                     
C07  35756611.500   186193883.670         231.128          38.000  
C10  36510573.643   190119933.698         438.059          21.000  
C30  21732771.203   113168133.123        -190.679          34.000  
C38  37887932.018   197292299.518        1705.395          29.000  
C40  36027740.802   187605723.382         168.900          42.000  
C45  24294123.316   126505670.6941       1295.260          19.000  
E11  25749751.805   135315706.269       -2122.933          33.000  
E16  26677628.949   140191903.140       -2830.771          24.000  
E34  25814535.157   135656253.767        2272.960          25.000  
E36  23375560.424   122839287.203          77.674          35.000  
G01  22715471.694   119370455.854       -2901.888          36.000  
G03  21280710.558   111830740.630        -419.550          37.000  
G06  22367341.000   117540938.220        2591.192          30.000  
G14  20399979.675   107202509.939       -1553.503          27.000  
G17  20702402.213   108791681.383         300.911          35.000  
G19  21183020.488   111317524.998        2041.107          29.000  
G22  20699704.980   108777471.767         -10.562          29.000  
J02  37812749.466   198707195.575         563.078          35.000  
J03  39043920.644   205177085.909        -345.578          42.000  
> 2025 04 24 04 22 15.9998843  0 19                     
C07  35756595.574   186193794.502         229.853          38.000  
C10  36510518.444   190119629.571         446.985          21.000  
C30  21732835.321   113168466.470        -193.023          36.000  
C38  37887635.186   197290736.111        1704.351          31.000  
C40  36027735.967   187605695.997         168.550          42.000  
C45  24293890.340   126504516.0391       1296.318          19.000  
E11  25750182.270   135317971.640       -2126.964          32.000  
E16  26678198.517   140194876.658       -2827.825          23.000  
E34  25814135.496   135654122.363        2275.662          24.000  
E36  23375573.877   122839351.473          78.121          34.000  
G01  22716054.753   119373499.784       -2908.125          30.000  
G03  21280818.146   111831300.664        -420.253          36.000  
G06  22366876.883   117538490.695        2588.571          30.000  
G14  20400303.714   107204204.032       -1551.087          25.000  
G17  20702373.395   108791523.467         300.587          36.000  
G19  21182660.699   111315626.510        2042.070          30.000  
G22  20699734.922   108777623.520          -9.237          28.000  
J02  37812672.082   198706775.682         562.425          35.000  
J03  39044015.341   205177574.118        -346.409          42.000  
> 2025 04 24 04 22 16.9998232  0 19                     
C07  35756549.181   186193553.324         232.921          37.000  
C10  36510427.682   190119171.151         449.262          21.000  
C30  21732871.371   113168646.807        -190.386          35.000  
C38  37887305.789   197289023.591        1699.774          31.000  
C40  36027702.166   187605515.231         173.377          42.000  
C45  24293634.092   126503208.3661       1290.245          18.000  
E11  25750585.865   135320082.823       -2121.742          32.000  
E16  26678739.418   140197694.440       -2830.910          23.000  
E34  25813706.268   135651836.4881       2267.958          19.000  
E36  23375558.662   122839263.359          78.129          34.000  
G01  22716614.240   119376415.548       -2944.457          32.000  
G03  21280896.767   111831707.178        -414.639          35.000  
G06  22366383.200   117535895.618        2580.499          32.000  
G14  20400597.885   107205743.313       -1550.646          22.000  
G17  20702314.411   108791211.742         302.782          34.000  
G19  21182273.442   111313573.580        2042.754          28.000  
G22  20699734.697   108777624.483         -11.432          26.000  
J02  37812564.231   198706203.417         561.727          36.000  
J03  39044079.571   205177907.701        -342.668          41.000  
> 2025 04 24 04 22 17.9997621  0 19                     
C07  35756503.088   186193305.070         232.376          37.000  
C10  36510337.519   190118706.510         450.009          22.000  
C30  21732907.121   113168818.714        -186.454          35.000  
C38  37886977.291   197287309.309        1698.916          31.000  
C40  36027668.064   187605325.950         174.564          42.000  
C45  24293385.639   126501901.4481       1292.145          18.000  
E11  25750989.461   135322183.531       -2116.471          29.000  
E16  26679274.922   140200508.955       -2831.922          22.000  
E34  25813266.547   135649553.759        2265.217          24.000  
E36  23375540.750   122839168.958          78.487          34.000  
G01  22717175.527   119379343.846       -2935.577          34.000  
G03  21280973.589   111832102.231        -411.540          35.000  
G06  22365890.716   117533301.724        2576.221          32.000  
G14  20400893.255   107207284.482       -1555.967          20.000  
G17  20702253.328   108790892.947         304.675          34.000  
G19  21181883.187   111311515.148        2043.314          28.000  
G22  20699734.172   108777622.161         -13.679          28.000  
J02  37812455.482   198705626.956         561.664          37.000  
J03  39044142.603   205178233.485        -341.660          42.000  
> 2025 04 24 04 22 18.9997011  0 19                     
C07  35756486.974   186193214.246         231.313          37.000  
C10  36510274.938   190118398.728         447.582          23.000  
C30  21732972.551   113169145.551        -187.340          36.000  
C38  37886676.974   197285755.884        1690.503          30.000  
C40  36027662.143   187605292.431         175.364          42.000  
C45  24293162.069   126500748.6811       1293.082          20.000  
E11  25751417.939   135324437.286       -2110.876          27.000  
E16  26679837.708   140203483.090       -2836.312          24.000  
E34  25812859.804   135647432.5131       2255.869          18.000  
E36  23375553.716   122839234.557          76.686          35.000  
G01  22717762.595   119382417.489       -2928.569          34.000  
G03  21281079.190   111832654.529        -409.459          36.000  
G06  22365430.610   117530871.137        2569.594          31.000  
G14  20401216.806   107208981.2751      -1556.863          18.000  
G17  20702224.024   108790730.329         305.086          36.000  
G19  21181522.312   111309615.659        2040.423          29.000  
G22  20699764.526   108777779.529         -16.097          29.000  
J02  37812376.412   198705209.064         559.198          35.000  
J03  39044235.014   205178713.854        -340.768          42.000  
> 2025 04 24 04 22 19.9996400  0 19                     
C07  35756440.169   186192969.576         233.047          37.000  
C10  36510184.063   190117939.208         446.097          23.000  
C30  21733006.090   113169318.645        -186.386          36.000  
C38  37886351.362   197284051.022        1693.451          31.000  
C40  36027627.030   187605103.612         175.705          42.000  
C45  24292911.405   126499442.0791       1293.618          19.000  
E11  25751822.622   135326530.273       -2108.906          25.000  
E16  26680371.900   140206304.648       -2835.257          28.000  
E34  25812434.661   135645164.697        2256.290          25.000  
E36  23375542.886   122839144.355          77.481          35.000  
G01  22718319.572   119385332.086       -2928.889          34.000  
G03  21281154.401   111833049.277        -409.585          36.000  
G06  22364939.812   117528551.672        2570.779          31.000  
G14  20401514.763   107210530.703       -1562.898          24.000  
G17  20702166.126   108790412.354         304.938          35.000  
G19  21181131.645   111307563.191        2041.048          32.000  
G22  20699767.487   108777784.225         -15.983          31.000  
J02  37812269.948   198704636.595         560.856          36.000  
J03  39044298.832   205179041.477        -340.675          42.000  
> 2025 04 24 04 22 20.9995789  0 19                     
C07  35756395.313   186192722.129         229.358          37.000  
C10  36510099.334   190117478.534         445.015          22.000  
C30  21733039.480   113169491.219        -188.985          35.000  
C38  37886016.307   197282341.291        1695.984          30.000  
C40  36027592.067   187604913.652         172.292          42.000  
C45  24292664.488   126498132.6451       1293.437          18.000  
E11  25752215.462   135328624.100       -2111.612          26.000  
E16  26680908.941   140209124.954       -2835.005          25.000  
E34  25812005.171   135642893.627        2256.274          24.000  
E36  23375526.210   122839052.323          76.452          35.000  
G01  22718876.699   119388245.857       -2932.624          33.000  
G03  21281231.260   111833443.998        -413.566          35.000  
G06  22364448.265   117525964.043        2574.481          31.000  
G14  20401813.768   107212077.531       -1563.626          25.000  
G17  20702105.680   108790092.429         302.234          35.000  
G19  21180740.229   111305507.935        2039.331          33.000  
G22  20699768.798   108777786.248         -17.023          30.000  
J02  37812161.835   198704060.884         558.899          35.000  
J03  39044362.500   205179365.947        -343.762          42.000  
> 2025 04 24 04 22 21.9995179  0 19                     
C07  35756381.035   186192640.903         224.428          37.000  
C10  36510045.484   190117179.398         442.019          22.000  
C30  21733105.846   113169825.626        -195.710          35.000  
C38  37885721.124   197280792.568        1690.436          29.000  
C40  36027588.882   187604890.068         165.791          42.000  
C45  24292440.056   126496983.1411       1286.902          18.000  
E11  25752648.175   135330882.399       -2118.200          25.000  
E16  26681472.963   140212105.477       -2838.984          22.000  
E34  25811609.857   135640784.616        2253.266          24.000  
E36  23375542.811   122839127.155          70.819          35.000  
G01  22719466.503   119391602.142       -2939.690          29.000  
G03  21281341.097   111834007.646        -423.837          37.000  
G06  22363987.596   117523536.627        2570.687          32.000  
G14  20402140.654   107213788.272       -1567.195          26.000  
G17  20702077.912   108789938.953         295.179          34.000  
G19  21180382.689   111303617.077        2033.765          31.000  
G22  20699801.588   108777950.289         -21.694          29.000  
J02  37812085.500   198703650.957         553.036          35.000  
J03  39044457.647   205179857.608        -348.985          41.000  
> 2025 04 24 04 22 22.9994568  0 19                     
C07  35756336.403   186192403.845         219.212          37.000  
C10  36509961.580   190116723.202         436.956          21.000  
C30  21733144.257   113170010.349        -203.067          36.000  
C38  37885395.886   197279089.326        1683.001          27.000  
C40  36027555.043   187604711.832         160.161          42.000  
C45  24292193.364   126495679.3611       1280.597          18.000  
E11  25753052.633   135332986.301       -2128.025          27.000  
E16  26682012.327   140214926.875       -2843.102          22.000  
E34  25811177.893   135638516.811        2250.567          26.000  
E36  23375524.861   122839046.674          63.885          34.000  
G01  22720025.953   119394528.252       -2948.391          27.000  
G03  21281422.378   111834420.177        -431.368          36.000  
G06  22363497.773   117520953.224        2563.759          32.000  
G14  20402437.187   107215338.915       -1571.267          25.000  
G17  20702021.888   108789631.405         288.666          34.000  
G19  21179996.294   111301570.894        2027.501          32.000  
G22  20699805.823   108777960.719         -30.050          29.000  
J02  37811980.311   198703084.758         547.246          35.000  
J03  39044523.339   205180193.892        -355.197          41.000  
> 2025 04 24 04 22 24.0003957  0 19                     
C07  35756311.783   186192261.884         228.984          38.000  
C10  36509897.087   190116372.3061        433.002          20.000  
C30  21733198.782   113170290.871        -193.995          35.000  
C38  37885090.360   197277484.436        1691.776          29.000  
C40  36027540.315   187604628.612         170.158          42.000  
C45  24291971.181   126494479.0071       1284.833          18.000  
E11  25753469.606   135335199.879       -2122.689          27.000  
E16  26682571.103   140217856.576       -2840.499          23.000  
E34  25810764.142   135636347.761        2253.387          26.000  
E36  23375528.721   122839062.743          68.790          35.000  
G01  22720605.714   119397562.597       -2936.595          30.000  
G03  21281520.972   111834928.849        -421.878          36.000  
G06  22363025.262   117518467.588        2571.088          32.000  
G14  20402755.229   107216995.302       -1572.791          25.000  
G17  20701983.178   108789420.820         299.114          34.000  
G19  21179628.411   111299623.252        2033.706          31.000  
G22  20699829.469   108778337.989         -26.820          29.000  
J02  37811892.434   198702616.359         555.814          36.000  
J03  39044607.543   205180625.750        -344.985          41.000  
> 2025 04 24 04 22 25.0003346  0 19                     
C07  35756264.153   186192017.945         229.964          38.000  
C10  36509809.285   190115917.678         441.295          20.000  
C30  21733233.296   113170465.373        -189.109          35.000  
C38  37884766.322   197275774.709        1699.320          31.000  
C40  36027505.877   187604442.974         171.730          42.000  
C45  24291728.386   126493178.7481       1286.367          18.000  
E11  25753877.062   135337306.883       -2118.158          30.000  
E16  26683099.674   140220681.586       -2836.373          27.000  
E34  25810338.175   135634079.819        2257.961          24.000  
E36  23375513.469   122838975.302          73.045          35.000  
G01  22721162.467   119400486.621       -2939.813          33.000  
G03  21281599.555   111835333.308        -417.610          38.000  
G06  22362534.839   117515880.071        2576.177          31.000  
G14  20403055.059   107218553.012       -1573.474          23.000  
G17  20701923.557   108789104.819         302.588          35.000  
G19  21179236.620   111297572.117        2040.238          30.000  
G22  20699833.703   108778346.871         -20.337          30.000  
J02  37811784.246   198702043.105         561.165          35.000  
J03  39044671.137   205180955.525        -342.678          42.000  
> 2025 04 24 04 22 26.0002735  0 19                     
C07  35756219.072   186191773.977         230.139          38.000  
C10  36509720.734   190115458.460         445.609          22.000  
C30  21733270.358   113170641.399        -190.683          35.000  
C38  37884440.635   197274062.915        1696.311          31.000  
C40  36027471.288   187604257.587         172.111          42.000  
C45  24291479.146   126491877.7591       1293.099          18.000  
E11  25754278.671   135339410.662       -2117.453          32.000  
E16  26683644.885   140223502.135       -2834.769          30.000  
E34  25809900.965   135631808.330        2259.020          25.000  
E36  23375496.868   122838887.932          73.929          35.000  
G01  22721718.469   119403410.313       -2937.266          33.000  
G03  21281677.689   111835736.819        -420.927          38.000  
G06  22362043.667   117513290.670        2576.482          30.000  
G14  20403353.540   107220112.785       -1573.868          20.000  
G17  20701863.785   108788790.067         300.094          35.000  
G19  21178847.077   111295518.036        2039.564          30.000  
G22  20699834.790   108778352.106         -18.748          30.000  
J02  37811675.609   198701469.969         559.715          35.000  
J03  39044734.880   205181282.573        -344.425          42.000  
> 2025 04 24 04 22 27.0002125  0 19                     
C07  35756203.745   186191687.035         229.935          38.000  
C10  36509661.937   190115155.879         444.125          21.000  
C30  21733332.677   113170975.657        -192.135          34.000  
C38  37884144.403   197272510.604        1693.727          31.000  
C40  36027467.353   187604229.076         170.301          42.000  
C45  24291259.361   126490726.5611       1287.847          18.000  
E11  25754710.335   135341671.807       -2120.214          32.000  
E16  26684210.555   140226480.689       -2836.797          29.000  
E34  25809493.809   135629692.944        2257.913          25.000  
E36  23375513.319   122838957.565          73.205          35.000  
G01  22722305.125   119406490.381       -2939.529          33.000  
G03  21281786.776   111836302.486        -422.789          37.000  
G06  22361580.750   117510860.310        2573.047          31.000  
G14  20403681.475   107221828.131       -1571.437          24.000  
G17  20701835.268   108788634.779         299.082          34.000  
G19  21178488.188   111293623.101        2037.965          30.000  
G22  20699866.830   108778515.256         -19.939          30.000  
J02  37811596.726   198701055.053         558.369          34.000  
J03  39044828.678   205181770.182        -343.491          41.000  
> 2025 04 24 04 22 28.0001514  0 18                     
C07  35756158.289   186191442.285         233.619          38.000  
C10  36509573.311   190114698.023         445.161          22.000  
C30  21733369.364   113171152.084        -189.812          35.000  
C38  37883815.643   197270801.101        1700.326          30.000  
C40  36027432.990   187604044.035         172.860          42.000  
C45  24291011.545   126489424.1291       1288.208          18.000  
E11  25755113.968   135343778.233       -2120.517          32.000  
E16  26684760.487   140229301.833       -2834.535          25.000  
E34  25809066.418   135627420.658        2261.511          24.000  
E36  23375496.343   122838870.505          74.337          35.000  
G01  22722864.051   119409415.413       -2941.923          33.000  
G03  21281865.434   111836708.079        -421.608          37.000  
G06  22361087.104   117508271.210        2580.151          32.000  
G17  20701777.220   108788321.843         299.049          35.000  
G19  21178095.872   111291571.677        2038.527          31.000  
G22  20699869.641   108778520.289         -18.132          30.000  
J02  37811488.014   198700482.787         560.346          34.000  
J03  39044892.346   205182098.890        -342.245          41.000  
> 2025 04 24 04 22 29.0000903  0 19                     
C07  35756111.746   186191456.573         234.143          38.000  
C10  36509486.296   190114235.636         447.856          22.000  
C30  21733404.665   113171324.818        -189.642          36.000  
C38  37883487.895   197269083.210        1702.918          29.000  
C40  36027398.439   187604117.801         173.958          42.000  
C45  24290759.645   126488119.0101       1294.410          18.000  
E11  25755514.716   135345882.135       -2120.378          32.000  
E16  26685287.447   140232119.088       -2832.425          25.000  
E34  25808628.646   135625141.388        2265.665          24.000  
E36  23375481.279   122838778.393          75.755          35.000  
G01  22723423.089   119412339.678       -2939.640          33.000  
G03  21281943.005   111837114.652        -422.000          36.000  
G06  22360592.971   117505673.297        2583.181          30.000  
G14  20404274.802   107224930.1021      -1564.306          23.000  
G17  20701719.285   108788268.466         302.169          36.000  
G19  21177703.968   111289515.299        2041.656          31.000  
G22  20699871.065   108778522.501         -16.579          30.000  
J02  37811379.114   198699904.772         563.558          34.000  
J03  39044954.928   205182423.623        -340.450          42.000  
> 2025 04 24 04 22 30.0000293  0 19                     
C07  35756095.333   186191365.353         234.228          38.000  
C10  36509430.310   190113929.874         449.419          22.000  
C30  21733468.895   113171655.515        -187.464          36.000  
C38  37883190.276   197267525.168        1697.655          29.000  
C40  36027393.117   187604084.898         176.561          42.000  
C45  24290539.372   126486966.5461       1287.964          17.000  
E11  25755946.492   135348412.363       -2112.517          31.000  
E16  26685844.237   140235092.282       -2831.871          25.000  
E34  25808226.099   135623020.289        2262.445          24.000  
E36  23375493.345   122838846.286          76.162          35.000  
G01  22724010.457   119415417.858       -2932.374          34.000  
G03  21282051.905   111837677.266        -417.810          36.000  
G06  22360129.867   117503236.579        2578.613          27.000  
G14  20404603.150   107226912.591       -1562.492          21.000  
G17  20701691.480   108788108.882         304.435          36.000  
G19  21177346.091   111287617.974        2040.985          30.000  
G22  20699903.817   108778683.220         -17.182          29.000  
J02  37811300.044   198699485.580         562.933          34.000  
J03  39045048.238   205182904.872        -338.615          42.000  
> 2025 04 24 04 22 30.9999682  0 19                     
C07  35756049.352   186191118.668         236.138          38.000  
C10  36509343.557   190113732.576         451.652          22.000  
C30  21733503.858   113171828.624        -185.578          36.000  
C38  37882863.989   197265817.739        1695.372          30.000  
C40  36027357.629   187603895.026         179.574          42.000  
C45  24290296.428   126485947.5971       1289.101          19.000  
E11  25756343.305   135350510.693       -2107.004          32.000  
E16  26686381.353   140237911.657       -2833.582          25.000  
E34  25807805.378   135620747.803        2256.818          23.000  
E36  23375479.742   122838757.994          76.744          36.000  
G01  22724565.261   119418334.851       -2926.006          34.000  
G03  21282130.038   111838347.537        -413.572          36.000  
G06  22359638.994   117500649.059        2573.572          26.000  
G14  20404901.930   107228464.908       -1564.100          22.000  
G17  20701631.109   108787792.200         305.727          36.000  
G19  21176956.248   111285564.774        2041.389          30.000  
G22  20699904.904   108778690.692         -20.038          31.000  
J02  37811192.906   198698911.465         561.779          35.000  
J03  39045111.082   205183230.891        -337.069          42.000  
> 2025 04 24 04 22 31.9999071  0 19                     
C07  35756003.671   186190869.429         234.497          38.000  
C10  36509257.405   190113268.090         449.516          24.000  
C30  21733541.520   113171998.903        -187.148          35.000  
C38  37882538.602   197264109.721        1692.923          33.000  
C40  36027321.242   187603702.115         177.552          42.000  
C45  24290036.095   126484642.8861       1289.509          20.000  
E11  25756745.214   135352601.745       -2108.929          32.000  
E16  26686913.672   140240731.502       -2835.348          25.000  
E34  25807374.764   135618478.199        2254.287          24.000  
E36  23375466.139   122838668.381          74.758          35.000  
G01  22725120.364   119421245.140       -2926.924          34.000  
G03  21282206.073   111838745.459        -414.866          36.000  
G06  22359148.721   117498062.453        2571.202          24.000  
G14  20405198.912   107230016.296       -1569.440          24.000  
G17  20701572.837   108787472.577         304.617          34.000  
G19  21176566.406   111283510.078        2026.973          26.000  
G22  20699905.691   108778696.842         -21.248          29.000  
J02  37811084.568   198698335.802         560.765          33.000  
J03  39045173.326   205183551.538        -337.359          42.000  
> 2025 04 24 04 22 32.9998461  0 19                     
C07  35755986.770   186190776.466         233.194          38.000  
C10  36509199.432   190112960.001         448.550          22.000  
C30  21733602.565   113172326.388        -186.835          35.000  
C38  37882239.596   197262556.791        1695.240          31.000  
C40  36027315.434   187603665.785         176.752          42.000  
C45  24289815.336   126483494.204        1289.530          21.000  
E11  25757172.306   135354853.017       -2109.213          31.000  
E16  26687496.656   140243707.757       -2835.463          29.000  
E34  25806972.030   135616367.816        2254.516          21.000  
E36  23375480.417   122838736.224          74.926          33.000  
G01  22725706.346   119424314.539       -2929.819          35.000  
G03  21282315.085   111839305.937        -418.703          36.000  
G06  22358689.326   117495634.848        2569.978          22.000  
G14  20405523.775   107231728.293       -1570.230          25.000  
G17  20701543.345   108787310.773         302.929          36.000  
G19  21176207.442   111281624.880        2041.446          22.000  
G22  20699939.155   108778862.414         -24.676          27.000  
J02  37811005.011   198697917.148         559.612          35.000  
J03  39045266.150   205184031.595        -339.263          41.000  
> 2025 04 24 04 22 33.9997850  0 19                     
C07  35755940.715   186190528.596         234.272          37.000  
C10  36509114.703   190112496.394         449.148          23.000  
C30  21733634.455   113172501.211        -189.166          34.000  
C38  37881908.138   197260847.401        1695.406          31.000  
C40  36027279.871   187603474.322         178.417          42.000  
C45  24289566.321   126482188.4681       1290.220          18.000  
E11  25757572.641   135356946.642       -2112.077          31.000  
E16  26688035.495   140246527.372       -2833.708          30.000  
E34  25806542.240   135614099.445        2254.439          23.000  
E36  23375460.443   122838647.378          73.906          35.000  
G01  22726262.873   119427230.560       -2932.734          35.000  
G03  21282393.443   111839709.208        -419.967          37.000  
G06  22358200.178   117493050.713        2569.883          28.000  
G14  20405821.881   107233283.104       -1571.269          23.000  
G17  20701482.899   108786994.473         302.007          36.000  
G19  21175817.224   111279568.707        2038.921          28.000  
G22  20699941.366   108778873.343         -25.229          30.000  
J02  37810896.299   198697343.051         560.889          35.000  
J03  39045329.219   205184355.067        -338.567          42.000  
> 2025 04 24 04 22 34.9997240  0 19                     
C07  35755923.027   186190437.356         235.391          37.000  
C10  36509052.946   190112190.206         450.438          25.000  
C30  21733700.110   113172831.630        -188.320          36.000  
C38  37881611.344   197259291.831        1701.904          31.000  
C40  36027274.175   187603440.551         176.081          42.000  
C45  24289346.273   126481041.3061       1289.993          18.000  
E11  25758005.242   135359203.926       -2116.060          31.000  
E16  26688610.197   140249506.079       -2829.841          28.000  
E34  25806141.418   135611989.550        2259.388          22.000  
E36  23375477.831   122838718.244          74.484          35.000  
G01  22726849.567   119430308.704       -2936.197          35.000  
G03  21282501.968   111840273.304        -421.691          38.000  
G06  22357739.996   117490623.700        2574.241          28.000  
G14  20406149.554   107234998.140       -1570.726          24.000  
G17  20701453.220   108786836.513         303.409          36.000  
G19  21175459.572   111277673.416        2042.001          31.000  
G22  20699974.044   108779041.258         -21.067          28.000  
J02  37810818.353   198697190.831         564.429          34.000  
J03  39045422.754   205184835.751        -337.572          42.000  
> 2025 04 24 04 22 35.9996629  0 19                     
C07  35755876.784   186190188.574         233.842          38.000  
C10  36508963.833   190111725.764         449.923          25.000  
C30  21733737.809   113173275.201        -191.821          35.000  
C38  37881284.495   197257574.988        1701.649          32.000  
C40  36027239.923   187603251.732         173.836          42.000  
C45  24289100.068   126479736.0031       1290.433          19.000  
E11  25758407.788   135361306.645       -2121.590          31.000  
E16  26689138.057   140252320.622       -2830.428          25.000  
E34  25805707.543   135609714.894        2263.678          21.000  
E36  23375460.968   122838628.739          74.583          35.000  
G01  22727408.005   119433233.077       -2942.613          35.000  
G03  21282581.338   111840682.616        -427.930          37.000  
G06  22357248.262   117488028.925        2580.433          30.000  
G14  20406445.674   107236554.0301      -1570.242          19.000  
G17  20701394.086   108786519.756         301.872          35.000  
G19  21175068.867   111275616.630        2041.856          31.000  
G22  20699975.168   108779045.581         -17.334          30.000  
J02  37810708.554   198696611.690         563.368          35.000  
J03  39045485.635   205185160.386        -341.597          42.000  
> 2025 04 24 04 22 36.9996018  0 19                     
C07  35755831.403   186189942.426         228.971          38.000  
C10  36508877.380   190111263.385         448.607          25.000  
C30  21733773.072   113173452.790        -194.437          35.000  
C38  37880957.309   197255860.724        1698.383          32.000  
C40  36027205.335   187603064.739         171.355          42.000  
C45  24288850.529   126478431.392        1290.626          21.000  
E11  25758810.297   135363413.308       -2119.842          32.000  
E16  26689673.673   140255135.520       -2831.853          25.000  
E34  25805270.933   135607437.848        2263.800          20.000  
E36  23375447.664   122838806.515          72.296          36.000  
G01  22727967.306   119436160.935       -2941.359          34.000  
G03  21282661.570   111841096.263        -428.317          37.000  
G06  22356755.890   117485436.872        2578.416          29.000  
G14  20406741.457   107238108.523       -1568.224          20.000  
G17  20701335.214   108786206.045         297.306          35.000  
G19  21174677.826   111273561.618        2041.115          27.000  
G22  20699978.353   108779050.235         -21.046          30.000  
J02  37810600.516   198696035.880         559.903          35.000  
J03  39045549.079   205185488.854        -343.575          42.000  
> 2025 04 24 04 22 37.9995408  0 19                     
C07  35755815.477   186189856.205         229.950          38.000  
C10  36508820.382   190110956.945         448.176          24.000  
C30  21733839.588   113173788.382        -194.422          36.000  
C38  37880661.376   197254309.089        1690.579          32.000  
C40  36027201.100   187603036.159         172.563          42.000  
C45  24288631.643   126477282.4291       1289.791          19.000  
E11  25759239.562   135365675.115       -2116.475          32.000  
E16  26690243.242   140258112.054       -2838.239          23.000  
E34  25804867.075   135605318.7231       2254.923          17.000  
E36  23375460.218   122838881.669          68.971          35.000  
G01  22728556.660   119439243.066       -2936.702          33.000  
G03  21282770.957   111841669.072        -427.378          37.000  
G06  22356295.071   117483005.011        2572.269          26.000  
G14  20407066.694   107239814.8741      -1564.294          17.000  
G17  20701306.696   108786053.627         296.149          35.000  
G19  21174319.836   111271665.666        2033.553          25.000  
G22  20700011.892   108779218.822         -26.999          30.000  
J02  37810523.732   198695621.615         556.975          35.000  
J03  39045643.476   205186240.918        -341.772          42.000  
> 2025 04 24 04 22 38.9994797  0 19                     
C07  35755767.360   186189609.876         231.179          38.000  
C10  36508731.793   190110494.549         440.411          23.000  
C30  21733873.915   113173964.630        -189.921          36.000  
C38  37880333.553   197252604.977        1689.238          30.000  
C40  36027165.875   187602845.938         176.580          42.000  
C45  24288385.363   126475977.6641       1289.057          19.000  
E11  25759639.635   135367773.969       -2113.495          32.000  
E16  26690789.613   140260936.666       -2839.903          21.000  
E34  25804440.620   135603050.0621       2251.023          17.000  
E36  23375449.875   122838797.065          70.070          35.000  
G01  22729112.026   119442158.587       -2929.432          34.000  
G03  21282851.451   111842076.960        -422.172          36.000  
G06  22355805.960   117480423.110        2564.822          26.000  
G14  20407363.639   107241372.9411      -1574.608          19.000  
G17  20701248.386   108785739.586         301.279          36.000  
G19  21173933.853   111269617.099        2034.112          24.000  
G22  20700016.839   108779231.187         -30.483          31.000  
J02  37810414.457   198695048.829         558.328          35.000  
J03  39045706.582   205186564.939        -339.312          42.000  
> 2025 04 24 04 22 40.0004186  0 19                     
C07  35755745.138   186189462.487         228.035          38.000  
C10  36508661.005   190110135.352         442.507          23.000  
C30  21733923.643   113174238.511        -194.100          36.000  
C38  37880024.430   197250997.135        1686.341          27.000  
C40  36027148.149   187602753.655         173.099          41.000  
C45  24288155.984   126474768.5871       1290.167          19.000  
E11  25760061.705   135369971.415       -2113.943          33.000  
E16  26691357.083   140263861.1151      -2841.364          19.000  
E34  25804026.569   135600881.9961       2246.571          18.000  
E36  23375449.538   122838811.700          67.757          34.000  
G01  22729686.990   119445175.049       -2933.371          35.000  
G03  21282947.647   111842582.346        -424.474          34.000  
G06  22355335.848   117477941.903        2560.052          24.000  
G14  20407680.182   107243030.5081      -1576.109          16.000  
G17  20701209.976   108785522.661         297.761          37.000  
G19  21173561.473   111267664.114        2034.003          26.000  
G22  20700040.785   108779346.663         -32.920          30.000  
J02  37810327.180   198694574.730         555.212          34.000  
J03  39045788.088   205186987.847        -342.977          42.000  
> 2025 04 24 04 22 41.0003575  0 19                     
C07  35755697.621   186189216.657         231.608          38.000  
C10  36508576.014   190109675.834         443.953          27.000  
C30  21733957.969   113174416.420        -193.920          35.000  
C38  37879697.206   197249296.402        1684.474          27.000  
C40  36027112.624   187602563.612         175.176          42.000  
C45  24287910.604   126473461.2711       1289.875          12.000  
E11  25760457.581   135372068.371       -2113.333          33.000  
E16  26691909.750   140266687.1081      -2841.261          19.000  
E34  25803599.515   135598620.3521       2244.483          18.000  
E36  23375436.797   122838728.537          67.900          35.000  
G01  22730242.955   119448092.727       -2935.276          34.000  
G03  21283027.542   111842989.995        -427.231          34.000  
G06  22354847.636   117475367.218        2557.617          22.000  
G14  20407979.825   107244595.3941      -1582.070          19.000  
G17  20701152.265   108785208.683         298.411          37.000  
G19  21173170.394   111265614.143        2033.995          26.000  
G22  20700046.931   108779364.548         -33.606          28.000  
J02  37810218.206   198694003.238         556.090          34.000  
J03  39045851.195   205187311.994        -341.389          42.000  
> 2025 04 24 04 22 42.0002964  0 19                     
C07  35755651.153   186188972.941         228.759          38.000  
C10  36508489.074   190109217.619         444.552          26.000  
C30  21733998.741   113174595.152        -195.064          35.000  
C38  37879374.630   197247596.427        1688.531          32.000  
C40  36027078.448   187602376.755         171.875          42.000  
C45  24287662.076   126472157.8311       1287.472          16.000  
E11  25760865.299   135374165.261       -2114.821          33.000  
E16  26692438.884   140269513.556       -2842.475          26.000  
E34  25803175.308   135596362.3761       2247.270          18.000  
E36  23375419.109   122838647.562          66.770          35.000  
G01  22730799.970   119451012.289       -2935.926          34.000  
G03  21283106.987   111843404.372        -429.645          36.000  
G06  22354359.274   117472791.165        2560.028          25.000  
G14  20408282.315   107246162.195       -1582.373          22.000  
G17  20701094.406   108784896.836         296.526          35.000  
G19  21172781.863   111263566.567        2033.033          27.000  
G22  20700051.727   108779382.805         -33.362          29.000  
J02  37810111.479   198693433.267         555.732          34.000  
J03  39045915.050   205187638.782        -343.047          42.000  
> 2025 04 24 04 22 43.0002354  0 19                     
C07  35755633.240   186188884.415         232.670          38.000  
C10  36508437.884   190108915.408         445.573          26.000  
C30  21734065.070   113174930.226        -193.476          35.000  
C38  37879076.411   197246047.568        1693.979          31.000  
C40  36027074.325   187602345.775         174.457          42.000  
C45  24287443.603   126471012.8621       1286.287          17.000  
E11  25761295.576   135376424.282       -2117.959          32.000  
E16  26693001.669   140272499.584       -2839.748          24.000  
E34  25802785.653   135594554.0841       2250.041          18.000  
E36  23375438.071   122838723.329          68.557          35.000  
G01  22731386.738   119454090.570       -2938.470          35.000  
G03  21283217.085   111843975.713        -431.425          37.000  
G06  22353901.566   117470376.005        2558.876          22.000  
G14  20408612.462   107247887.399       -1580.784          22.000  
G17  20701064.501   108784743.788         297.492          35.000  
G19  21172425.485   111261676.324        2035.206          29.000  
G22  20700086.878   108779559.341         -30.126          29.000  
J02  37810031.810   198693019.575         559.071          34.000  
J03  39046008.661   205188124.173        -340.869          42.000  
> 2025 04 24 04 22 44.0001743  0 19                     
C07  35755588.234   186188637.831         230.539          38.000  
C10  36508347.310   190108455.233         446.423          26.000  
C30  21734100.408   113175107.986        -193.415          35.000  
C38  37878749.900   197244337.075        1698.038          30.000  
C40  36027039.212   187602157.342         173.272          42.000  
C45  24287184.545   126469712.298        1284.295          24.000  
E11  25761695.462   135378528.548       -2118.335          32.000  
E16  26693534.363   140275322.911       -2836.654          24.000  
E34  25802351.816   135592289.2801       2255.632          18.000  
E36  23375422.744   122838638.880          69.773          35.000  
G01  22731944.615   119457015.353       -2939.501          34.000  
G03  21283297.093   111844392.688        -431.864          37.000  
G06  22353411.368   117467795.901        2567.008          28.000  
G14  20408911.917   107249451.8791      -1579.846          19.000  
G17  20701005.704   108784430.419         299.699          34.000  
G19  21172036.916   111259625.810        2037.538          27.000  
G22  20700089.539   108779574.524         -28.287          29.000  
J02  37809924.746   198692444.234         560.936          35.000  
J03  39046071.879   205188448.190        -341.096          42.000  
> 2025 04 24 04 22 45.0001132  0 19                     
C07  35755542.366   186188394.172         232.245          38.000  
C10  36508256.772   190107996.616         447.040          27.000  
C30  21734136.083   113175288.560        -194.786          35.000  
C38  37878423.725   197242891.796        1699.366          30.000  
C40  36027003.837   187601971.477         173.007          42.000  
C45  24286929.421   126468416.259        1281.515          27.000  
E11  25762101.081   135380633.687       -2119.608          33.000  
E16  26694066.195   140278146.687       -2835.545          22.000  
E34  25801917.717   135590021.305        2255.552          21.000  
E36  23375406.855   122838556.313          69.885          35.000  
G01  22732502.828   119459941.935       -2940.120          34.000  
G03  21283379.236   111844810.923        -432.008          37.000  
G06  22352921.807   117465212.249        2571.088          28.000  
G14  20409215.307   107251015.9891      -1577.169          18.000  
G17  20700947.545   108784120.111         297.723          35.000  
G19  21171647.186   111257575.611        2038.893          29.000  
G22  20700091.637   108779588.385         -26.555          29.000  
J02  37809816.821   198691871.544         560.086          34.000  
J03  39046134.836   205188777.233        -340.852          42.000  
> 2025 04 24 04 22 46.0000522  0 19                     
C07  35755527.189   186188304.311         232.247          37.000  
C10  36508199.325   190107691.153         447.818          26.000  
C30  21734202.150   113175624.003        -194.416          35.000  
C38  37878126.144   197241334.835        1701.098          29.000  
C40  36026999.452   187601941.614         171.605          42.000  
C45  24286710.085   126467276.122        1281.422          27.000  
E11  25762530.496   135382898.934       -2122.981          32.000  
E16  26694625.121   140281124.612       -2834.068          24.000  
E34  25801517.606   135587909.5761       2256.029          18.000  
E36  23375424.655   122838630.694          69.924          34.000  
G01  22733090.534   119463025.793       -2944.358          33.000  
G03  21283491.171   111845387.811        -436.772          37.000  
G06  22352461.438   117462784.641        2572.816          26.000  
G14  20409540.994   107252730.876       -1571.223          24.000  
G17  20700918.877   108783967.014         296.286          35.000  
G19  21171286.648   111255681.326        2037.799          29.000  
G22  20700125.926   108779759.788         -26.988          31.000  
J02  37809738.987   198691453.984         562.493          34.000  
J03  39046228.184   205189261.263        -341.481          42.000  
> 2025 04 24 04 22 46.9999911  0 19                     
C07  35755479.896   186188058.061         232.161          36.000  
C10  36508113.359   190107229.423         447.934          25.000  
C30  21734239.699   113175805.773        -195.950          34.000  
C38  37877797.946   197239620.875        1700.759          29.000  
C40  36026965.051   187601756.119         172.546          41.000  
C45  24286460.733   126465980.253        1281.643          25.000  
E11  25762933.492   135385007.608       -2125.611          32.000  
E16  26695163.323   140283944.124       -2832.932          22.000  
E34  25801084.481   135585639.8061       2256.711          17.000  
E36  23375407.642   122838547.058          69.773          35.000  
G01  22733649.722   119465955.522       -2946.411          33.000  
G03  21283572.789   111845811.100        -437.638          37.000  
G06  22351969.553   117460196.065        2575.937          28.000  
G14  20409836.065   107254286.788       -1571.515          22.000  
G17  20700860.792   108783656.897         296.462          33.000  
G19  21170896.693   111253630.445        2036.945          28.000  
G22  20700131.697   108779772.910         -26.931          30.000  
J02  37809629.938   198690877.482         563.394          34.000  
J03  39046291.815   205189586.963        -341.220          42.000  
> 2025 04 24 04 22 47.9999300  0 19                     
C07  35755434.066   186187812.074         232.595          35.000  
C10  36508026.457   190106767.166         448.912          24.000  
C30  21734274.213   113175984.441        -193.494          32.000  
C38  37877467.912   197237907.047        1700.727          30.000  
C40  36026930.313   187601568.921         173.743          41.000  
C45  24286210.444   126464683.951        1281.738          27.000  
E11  25763337.350   135387119.172       -2123.194          32.000  
E16  26695703.586   140286760.224       -2832.799          25.000  
E34  25800656.415   135583368.5411       2258.271          16.000  
E36  23375393.889   122838462.972          70.941          33.000  
G01  22734209.172   119468887.072       -2944.568          33.000  
G03  21283653.771   111846234.566        -437.401          36.000  
G06  22351477.632   117457605.774        2576.625          25.000  
G14  20410129.299   107255844.324       -1571.888          24.000  
G17  20700804.769   108783346.424         296.340          33.000  
G19  21170508.499   111251579.963        2037.214          29.000  
G22  20700134.732   108779785.747         -27.687          28.000  
J02  37809521.450   198690300.867         562.901          33.000  
J03  39046354.509   205189912.992        -340.850          42.000  
> 2025 04 24 04 22 48.9998690  0 19                     
C07  35755417.015   186187720.545         231.681          36.000  
C10  36507966.835   190106459.025         448.550          25.000  
C30  21734340.804   113176318.296        -195.569          34.000  
C38  37877172.654   197236347.203        1700.788          28.000  
C40  36026925.553   187601537.224         170.791          41.000  
C45  24285992.232   126463542.000        1281.603          25.000  
E11  25763770.288   135389383.474       -2125.628          33.000  
E16  26696268.133   140289734.572       -2832.330          24.000  
E34  25800254.131   135581252.2591       2259.188          12.000  
E36  23375406.218   122838534.393          69.958          34.000  
G01  22734797.402   119471971.587       -2946.982          35.000  
G03  21283765.331   111846813.037        -440.427          37.000  
G06  22351015.689   117455170.848        2577.751          24.000  
G14  20410457.909   107257557.690       -1571.452          24.000  
G17  20700776.026   108783192.256         295.541          34.000  
G19  21170148.786   111249685.301        2036.156          29.000  
G22  20700167.147   108779956.020         -28.030          29.000  
J02  37809443.542   198689880.588         562.293          32.000  
J03  39046448.081   205190396.538        -342.655          42.000  
> 2025 04 24 04 22 49.9998079  0 19                     
C07  35755371.596   186187476.380         231.679          37.000  
C10  36507880.345   190105997.538         448.008          25.000  
C30  21734377.229   113176503.812        -199.891          34.000  
C38  37876843.032   197234633.017        1701.510          27.000  
C40  36026892.127   187601354.682         168.529          41.000  
C45  24285744.154   126462246.627        1280.608          26.000  
E11  25764171.860   135391498.547       -2130.249          32.000  
E16  26696810.608   140292552.206       -2832.055          21.000  
E34  25799828.276   135578979.5211       2265.701          11.000  
E36  23375393.177   122838453.315          67.984          33.000  
G01  22735356.665   119474908.834       -2957.267          34.000  
G03  21283848.223   111847241.551        -445.723          37.000  
G06  22350524.479   117452580.438        2576.275          22.000  
G14  20410755.753   107259113.692       -1572.229          23.000  
G17  20700718.616   108782885.560         291.151          35.000  
G19  21169759.805   111247636.351        2035.848          30.000  
G22  20700171.794   108779969.612         -28.514          29.000  
J02  37809334.268   198689304.709         563.448          32.000  
J03  39046512.087   205190724.604        -344.507          41.000  
> 2025 04 24 04 22 50.9997469  0 19                     
C07  35755354.845   186187387.873         229.935          37.000  
C10  36507823.422   190105692.805         446.650          25.000  
C30  21734444.420   113176844.578        -200.247          35.000  
C38  37876545.376   197233073.014        1702.971          32.000  
C40  36026889.466   187601329.164         167.589          41.000  
C45  24285526.842   126461108.897        1279.066          27.000  
E11  25764607.796   135393774.129       -2132.433          31.000  
E16  26697376.653   140295527.205       -2831.756          22.000  
E34  25799425.992   135576857.0271       2268.194          13.000  
E36  23375409.403   122838529.823          67.399          34.000  
G01  22735947.594   119478007.921       -2956.689          33.000  
G03  21283962.182   111847831.053        -447.186          35.000  
G06  22350067.633   117450148.911        2574.567          22.000  
G14  20411082.564   107260829.551       -1572.950          25.000  
G17  20700691.972   108782738.720         290.810          34.000  
G19  21169400.092   111245744.243        2034.581          30.000  
G22  20700205.708   108780143.815         -28.874          29.000  
J02  37809255.759   198688886.134         560.889          33.000  
J03  39046606.259   205191213.835        -345.197          41.000  
> 2025 04 24 04 22 51.9996858  0 19                     
C07  35755307.890   186187142.951         230.537          37.000  
C10  36507737.194   190105231.730         445.823          24.000  
C30  21734480.807   113177028.292        -200.165          34.000  
C38  37876215.417   197231356.182        1700.750          32.000  
C40  36026854.503   187601145.812         168.329          41.000  
C45  24285279.626   126459814.493        1277.168          27.000  
E11  25765013.827   135395890.234       -2133.326          30.000  
E16  26697907.698   140298342.331       -2835.272          23.000  
E34  25798991.405   135574573.9221       2264.547          13.000  
E36  23375392.727   122838448.425          66.577          35.000  
G01  22736509.517   119480946.065       -2951.670          32.000  
G03  21284045.637   111848262.121        -446.255          35.000  
G06  22349581.182   117447841.425        2573.052          21.000  
G14  20411378.572   107262387.112       -1575.385          25.000  
G17  20700633.625   108782431.785         292.149          34.000  
G19  21169010.774   111243695.355        2033.771          29.000  
G22  20700208.519   108780157.339         -29.852          29.000  
J02  37809148.546   198688311.185         559.524          33.000  
J03  39046669.928   205191542.450        -344.610          41.000  
> 2025 04 24 04 22 52.9996247  0 19                     
C07  35755263.709   186186900.389         230.516          37.000  
C10  36507649.842   190104773.416         445.514          24.000  
C30  21734517.269   113177215.241        -200.373          35.000  
C38  37875887.331   197229642.287        1701.279          33.000  
C40  36026819.614   187600964.803         168.319          41.000  
C45  24285032.784   126458523.926        1276.829          27.000  
E11  25765416.936   135398010.323       -2134.397          31.000  
E16  26698447.812   140301164.8391      -2835.348          20.000  
E34  25798554.495   135572296.2611       2264.665          18.000  
E36  23375380.623   122838369.500          66.023          35.000  
G01  22737069.717   119483882.533       -2952.425          32.000  
G03  21284128.867   111848694.981        -447.204          36.000  
G06  22349092.408   117445256.566        2571.120          21.000  
G14  20411678.851   107263950.274       -1577.923          22.000  
G17  20700577.751   108782127.006         291.375          35.000  
G19  21168622.730   111241649.054        2034.112          30.000  
G22  20700214.702   108780175.360         -30.654          28.000  
J02  37809039.309   198687737.809         562.045          34.000  
J03  39046733.971   205191872.014        -343.135          42.000  
> 2025 04 24 04 22 53.9995637  0 19                     
C07  35755247.220   186186812.611         230.922          37.000  
C10  36507591.383   190104470.799         446.901          24.000  
C30  21734585.022   113177557.971        -201.358          35.000  
C38  37875590.837   197228085.099        1700.511          27.000  
C40  36026816.916   187600940.069         167.467          41.000  
C45  24284815.734   126457389.380        1277.818          29.000  
E11  25765849.236   135400289.286       -2137.115          33.000  
E16  26699017.417   140304142.073       -2831.244          20.000  
E34  25798151.274   135570176.3221       2265.456          13.000  
E36  23375397.711   122838447.002          67.427          34.000  
G01  22737662.406   119486983.241       -2959.220          32.000  
G03  21284243.387   111849288.219        -450.975          38.000  
G06  22348628.929   117442830.736        2570.682          20.000  
G14  20412002.627   107265670.652       -1576.807          26.000  
G17  20700551.669   108781980.746         291.417          35.000  
G19  21168265.078   111239759.535        2035.952          29.000  
G22  20700250.078   108780348.475         -28.449          29.000  
J02  37808961.363   198687318.480         566.352          33.000  
J03  39046828.106   205192358.635        -344.273          41.000  
> 2025 04 24 04 22 54.9995026  0 19                     
C07  35755201.989   186186564.845         230.015          37.000  
C10  36507501.183   190104006.455         447.989          25.000  
C30  21734619.536   113177743.654        -203.439          35.000  
C38  37875260.803   197226367.239        1702.663          24.000  
C40  36026782.477   187600757.584         164.192          41.000  
C45  24284566.944   126456093.814        1277.774          30.000  
E11  25766255.193   135402411.394       -2144.968          33.000  
E16  26699553.784   140306954.215       -2828.315          26.000  
E34  25797716.013   135567893.2791       2277.798          13.000  
E36  23375385.757   122838362.725          67.338          34.000  
G01  22738224.555   119489928.502       -2968.024          34.000  
G03  21284328.266   111849724.067        -456.459          38.000  
G06  22348137.606   117440243.8121       2569.616          16.000  
G14  20412295.262   107267228.975       -1573.216          28.000  
G17  20700495.045   108781674.273         287.461          35.000  
G19  21167876.884   111237706.193        2035.989          27.000  
G22  20700250.115   108780359.624         -26.936          30.000  
J02  37808852.276   198686735.942         564.869          31.000  
J03  39046891.999   205192686.930        -346.649          41.000  
> 2025 04 24 04 22 55.9994415  0 19                     
C07  35755154.622   186186322.561         228.180          38.000  
C10  36507413.044   190103544.889         447.101          25.000  
C30  21734656.410   113177933.047        -206.812          34.000  
C38  37874931.031   197224649.553        1704.951          22.000  
C40  36026749.500   187600580.341         162.764          41.000  
C45  24284317.517   126454801.994        1276.216          30.000  
E11  25766664.409   135404542.481       -2144.535          33.000  
E16  26700085.915   140309767.116       -2829.327          22.000  
E34  25797280.414   135565600.9931       2278.980          19.000  
E36  23375367.470   122838282.762          65.826          34.000  
G01  22738787.265   119492883.670       -2969.880          34.000  
G03  21284413.707   111850166.554        -460.554          38.000  
G06  22347648.345   117437660.5361       2569.070          17.000  
G14  20412590.857   107268784.976       -1571.399          28.000  
G17  20700438.684   108781374.635         284.155          34.000  
G19  21167488.653   111235657.125        2034.967          28.000  
G22  20700252.813   108780374.028         -28.855          30.000  
J02  37808743.452   198686158.017         563.604          29.000  
J03  39046957.054   205193020.075        -348.402          41.000  
> 2025 04 24 04 22 57.0003804  0 19                     
C07  35755130.301   186186177.012         228.740          37.000  
C10  36507342.855   190103181.251         447.530          23.000  
C30  21734715.132   113178222.757        -208.357          33.000  
C38  37874622.207   197223025.7511       1707.730          20.000  
C40  36026735.972   187600501.857         160.922          41.000  
C45  24284089.637   126453607.867        1276.069          28.000  
E11  25767089.478   135406775.167       -2154.206          32.000  
E16  26700641.693   140312683.359       -2829.927          22.000  
E34  25796852.873   135563403.777        2280.786          21.000  
E36  23375374.328   122838302.058          65.169          34.000  
G01  22739370.024   119495941.508       -2974.825          33.000  
G03  21284518.597   111850713.867        -465.181          37.000  
G06  22347178.533   117435173.9931       2569.996          19.000  
G14  20412909.200   107270441.623       -1570.966          26.000  
G17  20700402.372   108781174.987         283.663          34.000  
G19  21167116.273   111233705.295        2034.727          32.000  
G22  20700275.560   108780487.591         -28.960          30.000  
J02  37808653.476   198685678.504         565.121          31.000  
J03  39047040.959   205193452.929        -349.317          41.000  
> 2025 04 24 04 22 58.0003193  0 19                     
C07  35755085.407   186185934.066         227.321          37.000  
C10  36507258.388   190102718.806         447.197          22.000  
C30  21734755.379   113178417.023        -210.328          33.000  
C38  37874289.213   197221300.275        1713.380          20.000  
C40  36026703.969   187600327.834         157.229          41.000  
C45  24283842.383   126452314.280        1279.038          30.000  
E11  25767497.270   135408914.861       -2158.841          31.000  
E16  26701180.795   140315495.546       -2829.645          24.000  
E34  25796417.649   135561106.7691       2282.974          18.000  
E36  23375355.516   122838221.413          65.064          35.000  
G01  22739935.208   119498904.552       -2983.699          34.000  
G03  21284605.911   111851165.533        -471.504          35.000  
G06  22346585.618   117432099.820        2597.835          24.000  
G14  20413208.767   107271996.937       -1569.077          25.000  
G17  20700345.786   108780877.187         280.938          34.000  
G19  21166727.217   111231654.820        2035.438          34.000  
G22  20700278.333   108780500.570         -26.767          30.000  
J02  37808542.928   198685098.930         562.122          33.000  
J03  39047106.088   205193785.764        -353.004          41.000  
> 2025 04 24 04 22 59.0002583  0 18                     
C07  35755069.593   186185850.444         223.799          37.000  
C10  36507200.004   190102415.345         445.459          23.000  
C30  21734823.807   113178770.552        -213.821          34.000  
C38  37873986.797   197219727.163        1716.556          28.000  
C40  36026702.246   187600315.104         152.000          41.000  
C45  24283625.708   126451176.863        1278.662          29.000  
E11  25767937.740   135411219.870       -2162.623          31.000  
E16  26701751.075   140318467.1821      -2828.757          18.000  
E34  25796011.206   135558966.278        2290.356          20.000  
E36  23375371.779   122838301.890          62.966          35.000  
G01  22740533.369   119502309.068       -2993.570          34.000  
G03  21284724.105   111851782.913        -479.450          33.000  
G14  20413533.817   107273707.244       -1567.978          26.000  
G17  20700321.878   108780741.878         275.690          35.000  
G19  21166369.340   111229763.609        2034.575          31.000  
G22  20700312.884   108780671.307         -28.362          29.000  
J02  37808464.757   198684682.399         558.278          33.000  
J03  39047201.797   205194285.108        -357.913          41.000  
> 2025 04 24 04 23 00.0001972  0 19                     
C07  35755025.936   186185615.658         224.979          36.000  
C10  36507112.277   190101957.415         443.509          23.000  
C30  21734864.691   113178971.189        -214.913          34.000  
C38  37873654.440   197217998.072        1716.320          30.000  
C40  36026670.880   187600150.449         153.964          41.000  
C45  24283381.490   126449885.329        1272.784          27.000  
E11  25768350.367   135413371.250       -2166.718          29.000  
E16  26702287.216   140321282.1861      -2827.892          16.000  
E34  25795564.327   135556662.341        2289.600          24.000  
E36  23375361.999   122838228.537          60.548          34.000  
G01  22741101.588   119505287.902       -2990.996          34.000  
G03  21284814.455   111852250.689        -480.054          34.000  
G06  22345641.459   117427039.5151       2592.322          25.000  
G14  20413833.122   107275263.530       -1583.278          26.000  
G17  20700267.728   108780454.137         276.266          34.000  
G19  21165986.318   111228008.206        2028.324          28.000  
G22  20700318.093   108780688.149         -32.939          29.000  
J02  37808359.342   198684111.347         557.682          28.000  
J03  39047268.164   205194628.164        -355.371          41.000  
> 2025 04 24 04 23 01.0001361  0 19                     
C07  35754979.430   186185374.613         228.174          37.000  
C10  36507026.499   190101500.012         443.479          22.000  
C30  21734904.826   113179168.397        -211.999          34.000  
C38  37873322.232   197216266.098        1719.464          30.000  
C40  36026639.064   187599979.632         157.179          41.000  
C45  24283140.419   126448598.000        1270.432          24.000  
E11  25768758.048   135415523.831       -2166.423          28.000  
E16  26702824.407   140324093.4881      -2826.870          15.000  
E34  25795127.492   135554356.735        2292.563          26.000  
E36  23375349.670   122838151.911          62.957          35.000  
G01  22741668.458   119508261.842       -2987.360          33.000  
G03  21284903.455   111852711.941        -475.488          34.000  
G06  22345153.060   117424432.038        2594.881          24.000  
G14  20414131.678   107276827.439       -1576.986          23.000  
G17  20700213.128   108780162.668         276.862          34.000  
G19  21165603.445   111225967.048        2027.284          24.000  
G22  20700322.852   108780707.992         -32.205          30.000  
J02  37808252.879   198683537.846         561.062          25.000  
J03  39047334.081   205194968.344        -354.113          41.000  
