     3.04           OBSERVATION DATA    M: Mixed            RINEX VERSION / TYPE
RTKCONV demo5 b34k                      20250324 025910 UTC PGM / RUN BY / DATE 
format: RINEX                                               COMMENT             
log: E:\Proj-Enhanced\RTKLIB-py\data\unisoc\20250312\data01\COMMENT             
  rinex\rover.obs                                           COMMENT             
Geo++                                                       MARKER NAME         
                                                            MARKER NUMBER       
                                                            MARKER TYPE         
                                                            OBSERVER / AGENCY   
unknown             UNISOC              uis7865_6h10_go_a32bREC # / TYPE / VERS 
unknown             uis7865_6h10_go_a32b                    ANT # / TYPE        
 -2181701.4845  4379525.0390  4077849.8171                  APPROX POSITION XYZ 
        0.0000        0.0000        0.0000                  ANTENNA: DELTA H/E/N
G    4 C1C L1C D1C S1C                                      SYS / # / OBS TYPES 
E    4 C1C L1C D1C S1C                                      SYS / # / OBS TYPES 
J    4 C1C L1C D1C S1C                                      SYS / # / OBS TYPES 
C    4 C2I L2I D2I S2I                                      SYS / # / OBS TYPES 
  2025    03    12    06    41   07.9999099     GPS         TIME OF FIRST OBS   
  2025    03    12    07    02   06.0000750     GPS         TIME OF LAST OBS    
G L1C                                                       SYS / PHASE SHIFT   
E L1C  0.00000                                              SYS / PHASE SHIFT   
J L1C                                                       SYS / PHASE SHIFT   
C L2I                                                       SYS / PHASE SHIFT   
 24 R01  1 R02 -4 R03  5 R04  6 R05  1 R06 -4 R07  5 R08  6 GLONASS SLOT / FRQ #
    R09 -2 R10 -5 R11  0 R12 -1 R13 -2 R14 -7 R15  0 R16 -1 GLONASS SLOT / FRQ #
    R17  4 R18 -3 R19  3 R20  2 R21  4 R22 -3 R23  3 R24  2 GLONASS SLOT / FRQ #
 C1C    0.000 C1P    0.000 C2C    0.000 C2P    0.000        GLONASS COD/PHS/BIS 
                                                            END OF HEADER       
> 2025 03 12 06 41 07.9999099  0 22                     
C07  35825372.573   186551972.622         197.807          37.000  
C09  38811252.392   202100242.705       -1843.048          25.000  
C26  24709431.279   128668313.794        1974.529          32.000  
C29  21610774.035   112532773.508         -37.472          34.000  
C35  24556298.191   127870948.972        2276.958          42.000  
C40  36077720.776   187865993.596         121.199          41.000  
C45  22552384.671   117435970.631       -1044.905          46.000  
E10  23878402.389   125481668.863       -1135.669          42.000  
E11  23709361.413   124593383.332         349.045          37.000  
E12  25269950.540   132794276.938       -2134.527          36.000  
E16  23375158.477   122837100.708        -734.551          38.000  
E24  24927874.754   130996687.791       -1969.374          39.000  
E25  23411742.151   123029390.274         619.019          42.000  
G01  21665986.212   113855335.310       -2471.519          46.000  
G02  23708911.425   124590996.128       -3017.709          41.000  
G03  21428496.023   112607405.869        1307.140          33.000  
G14  20014969.787   105179242.313        -284.795          42.000  
G17  20909568.469   109880371.949         790.491          45.000  
G19  22183178.867   116573220.652        2405.698          38.000  
G22  20933139.052   110004241.870        1120.046          36.000  
J02  38016214.185   199776553.380         618.482          36.000  
J03  38903875.070   204441118.564        -413.528          31.000  
> 2025 03 12 06 41 08.9998488  0 22                     
C07  35825333.713   186551762.301         192.663          37.000  
C09  38811605.360   202102068.213       -1842.899          25.000  
C26  24709050.355   128666325.892        1969.091          33.000  
C29  21610781.342   112532795.489         -41.185          35.000  
C35  24555859.407   127868658.371        2273.095          42.000  
C40  36077694.207   187865858.887         117.708          41.000  
C45  22552583.546   117437000.211       -1048.511          46.000  
E10  23878616.253   125482792.212       -1140.456          42.000  
E11  23709295.571   124593022.606         344.296          37.000  
E12  25270353.873   132796397.630       -2139.653          36.000  
E16  23375297.693   122837823.177        -739.432          39.000  
E24  24928252.005   130998644.939       -1974.639          39.000  
E25  23411623.245   123028759.884         614.108          42.000  
G01  21666455.200   113857790.049       -2474.542          46.000  
G02  23709484.740   124593998.428       -3021.419          41.000  
G03  21428250.006   112606088.218        1299.887          37.000  
G14  20015024.162   105179510.992        -289.204          42.000  
G17  20909416.587   109879566.658         787.747          45.000  
G19  22182715.201   116570801.254        2401.335          38.000  
G22  20932925.712   110003108.177        1115.381          36.000  
J02  38016095.580   199775920.703         614.539          35.000  
J03  38903949.531   204441519.238        -420.849          30.000  
> 2025 03 12 06 41 09.9997878  0 22                     
C07  35825325.094   186551711.436         192.637          37.000  
C09  38811987.370   202104052.199       -1845.598          26.000  
C26  24708702.671   128664499.540        1969.081          33.000  
C29  21610819.791   112532977.770         -42.467          34.000  
C35  24555452.064   127866527.202        2272.535          43.000  
C40  36077699.978   187865883.080         117.901          41.000  
C45  22552812.663   117438189.383       -1050.460          47.000  
E10  23878860.659   125484075.362       -1141.472          41.000  
E11  23709257.273   124592824.362         342.566          37.000  
E12  25270792.844   132798681.311       -2140.509          36.000  
E16  23375466.551   122838706.348        -741.282          39.000  
E24  24928656.500   131000763.621       -1976.038          39.000  
E25  23411535.481   123028291.288         612.651          42.000  
G01  21666954.729   113860408.216       -2476.382          46.000  
G02  23710089.197   124597162.020       -3023.067          41.000  
G03  21428035.430   112604934.330        1296.097          38.000  
G14  20015109.978   105179944.277        -289.892          42.000  
G17  20909294.647   109878922.719         786.497          45.000  
G19  22182286.273   116568544.016        2399.928          38.000  
G22  20932741.714   110002137.482        1114.070          38.000  
J02  38016006.616   199775449.695         614.364          35.000  
J03  38904057.531   204442083.935        -423.376          31.000  
> 2025 03 12 06 41 10.9997267  0 22                     
C07  35825285.858   186551504.532         194.577          38.000  
C09  38812339.364   202105883.399       -1843.267          26.000  
C26  24708326.169   128662516.830        1969.731          32.000  
C29  21610823.726   112533006.441         -41.737          33.000  
C35  24555014.705   127864241.056        2275.043          44.000  
C40  36077676.632   187865752.078         119.368          41.000  
C45  22553012.962   117439226.066       -1047.844          47.000  
E10  23879078.645   125485204.900       -1142.918          41.000  
E11  23709191.356   124592470.021         340.750          36.000  
E12  25271195.503   132800807.178       -2140.709          37.000  
E16  23375607.491   122839436.040        -742.763          39.000  
E24  24929032.178   131002725.765       -1976.301          40.000  
E25  23411414.702   123027666.072         611.572          42.000  
G01  21667424.542   113862867.602       -2472.642          46.000  
G02  23710663.337   124600168.711       -3019.357          41.000  
G03  21427789.038   112603624.041        1298.509          39.000  
G14  20015165.177   105180218.149        -287.083          43.000  
G17  20909142.389   109878121.221         790.087          45.000  
G19  22181828.227   116566130.010        2401.796          37.000  
G22  20932528.899   110001007.965        1117.254          39.000  
J02  38015888.536   199774820.565         617.354          36.000  
J03  38904135.815   204442489.703        -418.248          34.000  
> 2025 03 12 06 41 11.9996656  0 22                     
C07  35825246.885   186551295.249         197.283          38.000  
C09  38812692.520   202107713.060       -1841.758          26.000  
C26  24707946.932   128660533.663        1972.145          30.000  
C29  21610829.122   112533031.718         -37.404          32.000  
C35  24554575.808   127861952.320        2275.630          45.000  
C40  36077651.749   187865618.024         121.607          41.000  
C45  22553210.825   117440257.929       -1047.324          47.000  
E10  23879295.395   125486329.758       -1140.035          41.000  
E11  23709125.701   124592113.920         343.793          36.000  
E12  25271604.120   132802933.374       -2138.420          37.000  
E16  23375746.595   122840160.828        -739.725          40.000  
E24  24929406.319   131004684.666       -1973.856          40.000  
E25  23411298.683   123027038.716         614.194          41.000  
G01  21667893.417   113865327.770       -2473.251          47.000  
G02  23711236.240   124603173.872       -3017.846          41.000  
G03  21427540.810   112602312.512        1298.677          41.000  
G14  20015219.140   105180492.900        -288.029          42.000  
G17  20908989.795   109877318.525         789.744          45.000  
G19  22181371.943   116563713.599        2404.458          36.000  
G22  20932316.646   109999878.372        1116.911          39.000  
J02  38015768.019   199774189.573         618.346          35.000  
J03  38904214.960   204442893.112        -416.775          35.000  
> 2025 03 12 06 41 12.9996045  0 22                     
C07  35825206.750   186551081.110         200.379          38.000  
C09  38813043.914   202109538.496       -1843.168          26.000  
C26  24707568.032   128658544.394        1976.176          31.000  
C29  21610830.358   112533052.444         -35.115          32.000  
C35  24554137.849   127859658.918        2280.552          44.000  
C40  36077626.304   187865479.404         125.620          41.000  
C45  22553408.125   117441287.476       -1042.916          47.000  
E10  23879508.885   125487451.480       -1137.205          41.000  
E11  23709057.986   124591752.145         346.771          36.000  
E12  25272007.378   132805052.407       -2136.027          38.000  
E16  23375885.436   122840882.201        -737.429          40.000  
E24  24929782.895   131006641.620       -1972.015          40.000  
E25  23411178.204   123026407.348         616.643          41.000  
G01  21668362.330   113867781.965       -2468.329          47.000  
G02  23711808.282   124606173.320       -3013.846          41.000  
G03  21427292.019   112600996.620        1303.668          42.000  
G14  20015273.140   105180762.302        -283.472          42.000  
G17  20908836.938   109876511.517         794.315          45.000  
G19  22180915.996   116561292.734        2408.770          37.000  
G22  20932102.632   109998744.102        1121.700          40.000  
J02  38015647.540   199773554.888         621.803          35.000  
J03  38904292.344   204443291.395        -412.541          35.000  
> 2025 03 12 06 41 13.9995434  0 22                     
C07  35825166.353   186550865.024         201.155          39.000  
C09  38813401.941   202111363.814       -1838.749          26.000  
C26  24707186.171   128656553.159        1976.195          32.000  
C29  21610832.232   112533068.831         -32.184          30.000  
C35  24553698.428   127857363.488        2279.744          45.000  
C40  36077600.297   187865338.535         125.211          41.000  
C45  22553606.063   117442316.057       -1044.101          47.000  
E10  23879720.314   125488571.232       -1136.025          41.000  
E11  23708988.209   124591389.187         347.461          36.000  
E12  25272410.075   132807169.937       -2134.363          37.000  
E16  23376019.518   122841602.387        -735.965          39.000  
E24  24930153.214   131008595.205       -1970.529          39.000  
E25  23411060.160   123025774.071         617.788          41.000  
G01  21668830.381   113870233.806       -2468.716          47.000  
G02  23712379.761   124609169.917       -3013.631          41.000  
G03  21427044.466   112599678.039        1302.183          41.000  
G14  20015326.578   105181029.756        -285.054          43.000  
G17  20908684.119   109875702.476         794.007          44.000  
G19  22180456.190   116558868.666        2409.674          36.000  
G22  20931888.955   109997607.461        1120.575          39.000  
J02  38015525.899   199772916.997         622.946          36.000  
J03  38904368.566   204443687.118        -412.287          36.000  
> 2025 03 12 06 41 14.9994824  0 22                     
C07  35825155.786   186550806.671         202.555          38.000  
C09  38813782.303   202113346.372       -1837.950          27.000  
C26  24706835.938   128654720.883        1976.315          32.000  
C29  21610865.734   112533244.650         -34.437          30.000  
C35  24553289.137   127855226.730        2281.301          45.000  
C40  36077603.220   187865355.895         126.303          41.000  
C45  22553834.131   117443500.420       -1043.105          47.000  
E10  23879966.968   125489851.098       -1135.528          41.000  
E11  23708950.660   124591185.853         347.665          35.000  
E12  25272843.799   132809446.266       -2133.338          37.000  
E16  23376190.925   122842480.334        -735.508          40.000  
E24  24930559.058   131010971.910       -1969.991          39.000  
E25  23410970.447   123025300.186         618.565          40.000  
G01  21669328.561   113872845.690       -2468.112          46.000  
G02  23712981.070   124612328.044       -3012.699          41.000  
G03  21426827.041   112598519.565        1302.505          42.000  
G14  20015410.445   105181455.642        -284.126          42.000  
G17  20908561.429   109875051.498         794.881          45.000  
G19  22180021.715   116556603.919        2409.426          35.000  
G22  20931704.807   109996629.988        1121.633          39.000  
J02  38015434.987   199772437.434         625.086          35.000  
J03  38904474.618   204444240.358        -409.450          35.000  
> 2025 03 12 06 41 16.0004212  0 22                     
C07  35825103.285   186550531.476         203.533          38.000  
C09  38814120.431   202115112.114       -1837.079          26.000  
C26  24706442.273   128652670.676        1976.082          32.000  
C29  21610865.397   112533206.939         -35.064          31.000  
C35  24552838.211   127852870.903        2282.073          45.000  
C40  36077566.608   187865156.519         127.785          41.000  
C45  22554021.463   117444471.371       -1043.577          47.000  
E10  23880169.290   125490911.620       -1134.713          40.000  
E11  23708870.878   124590764.110         349.117          35.000  
E12  25273235.591   132811507.906       -2132.537          36.000  
E16  23376314.402   122843142.642        -735.062          39.000  
E24  24930923.568   131012868.875       -1969.290          39.000  
E25  23410839.700   123024607.970         619.133          40.000  
G01  21669785.707   113875243.423       -2467.958          46.000  
G02  23713541.045   124615267.583       -3011.670          40.000  
G03  21426567.084   112597143.352        1302.513          42.000  
G14  20015451.479   105181667.467        -283.707          42.000  
G17  20908397.405   109874183.337         795.527          45.000  
G19  22179545.308   116554119.031        2409.731          37.000  
G22  20931478.427   109995434.459        1122.014          38.000  
J02  38015303.640   199771739.708         624.547          35.000  
J03  38904538.436   204444577.508        -410.860          33.000  
> 2025 03 12 06 41 17.0003601  0 22                     
C07  35825061.126   186550312.433         200.257          38.000  
C09  38814470.701   202116931.710       -1837.405          25.000  
C26  24706064.048   128650958.484        1974.346          31.000  
C29  21610872.105   112533222.623         -35.988          33.000  
C35  24552397.629   127850573.560        2277.981          45.000  
C40  36077540.339   187865013.259         124.750          41.000  
C45  22554219.739   117445497.824       -1045.839          46.000  
E10  23880381.956   125492030.098       -1136.003          40.000  
E11  23708801.139   124590399.317         347.307          34.000  
E12  25273639.224   132813624.131       -2134.817          36.000  
E16  23376450.920   122843860.985        -735.891          39.000  
E24  24931294.824   131014821.116       -1970.502          39.000  
E25  23410720.196   123023972.655         618.417          40.000  
G01  21670253.496   113877692.960       -2470.740          45.000  
G02  23714112.262   124618263.408       -3015.573          39.000  
G03  21426318.368   112595825.449        1298.500          41.000  
G14  20015504.055   105181934.423        -288.882          41.000  
G17  20908243.724   109873372.185         791.451          45.000  
G19  22179083.440   116551693.657        2407.446          38.000  
G22  20931262.688   109994297.574        1116.997          38.000  
J02  38015182.637   199771099.714         621.073          35.000  
J03  38904615.595   204444972.639        -413.280          33.000  
> 2025 03 12 06 41 18.0002991  0 22                     
C07  35825050.071   186550255.001         201.439          39.000  
C09  38814850.276   202118912.664       -1838.276          26.000  
C26  24705711.230   128649128.144        1973.706          30.000  
C29  21610913.813   112533698.668         -35.222          33.000  
C35  24551989.349   127848437.776        2279.946          45.000  
C40  36077546.072   187865031.117         125.474          41.000  
C45  22554450.916   117446686.825       -1045.952          46.000  
E10  23880628.422   125493309.837       -1136.208          40.000  
E11  23708765.501   124590198.087         347.010          34.000  
E12  25274075.159   132815903.082       -2134.771          37.000  
E16  23376623.638   122844742.323        -736.788          38.000  
E24  24931697.782   131016937.762       -1971.051          39.000  
E25  23410631.495   123023500.673         617.603          40.000  
G01  21670752.088   113880308.690       -2470.107          46.000  
G02  23714712.783   124621421.431       -3013.918          39.000  
G03  21426100.157   112594671.796        1299.893          41.000  
G14  20015588.334   105182367.122        -286.664          41.000  
G17  20908121.746   109872725.133         793.344          44.000  
G19  22178655.973   116549431.739        2407.598          39.000  
G22  20931078.054   109993324.284        1119.861          39.000  
J02  38015093.636   199770623.726         622.422          34.000  
J03  38904723.258   204445530.625        -413.756          31.000  
> 2025 03 12 06 41 19.0002380  0 22                     
C07  35825011.586   186550040.546         198.965          38.000  
C09  38815200.321   202120733.591       -1839.328          26.000  
C26  24705326.783   128647141.242        1971.116          32.000  
C29  21610922.695   112533718.573         -36.979          32.000  
C35  24551551.839   127846145.029        2277.585          45.000  
C40  36077520.777   187864892.135         124.530          40.000  
C45  22554650.465   117447983.677       -1047.758          46.000  
E10  23880846.559   125494434.980       -1138.844          40.000  
E11  23708699.134   124589838.984         344.991          35.000  
E12  25274477.069   132818023.598       -2135.777          36.000  
E16  23376760.530   122845465.512        -738.580          39.000  
E24  24932073.610   131018893.650       -1972.366          40.000  
E25  23410513.863   123022871.483         614.924          40.000  
G01  21671220.851   113883033.946       -2471.878          45.000  
G02  23715284.375   124624420.483       -3015.653          40.000  
G03  21425852.416   112593358.137        1297.783          40.000  
G14  20015640.685   105182901.144        -289.667          41.000  
G17  20907969.339   109871917.496         792.029          44.000  
G19  22178199.577   116547010.651        2406.154          37.000  
G22  20930862.990   109992190.932        1116.696          40.000  
J02  38014973.906   199769986.665         621.691          35.000  
J03  38904801.691   204445929.016        -413.575          34.000  
> 2025 03 12 06 41 20.0001769  0 22                     
C07  35824969.465   186549827.301         201.107          38.000  
C09  38815558.723   202122559.636       -1840.210          26.000  
C26  24704940.501   128645157.244        1971.795          32.000  
C29  21610931.838   112533742.824         -38.376          30.000  
C35  24551112.493   127843853.311        2279.727          45.000  
C40  36077495.145   187864753.982         125.396          40.000  
C45  22554851.776   117449018.029       -1048.595          46.000  
E10  23881058.662   125495558.068       -1138.491          39.000  
E11  23708628.833   124589480.554         345.165          35.000  
E12  25274882.538   132820145.034       -2135.434          36.000  
E16  23376897.086   122846188.773        -738.559          39.000  
E24  24932449.999   131020850.732       -1972.223          39.000  
E25  23410394.396   123022242.291         615.608          41.000  
G01  21671689.576   113885489.873       -2472.914          45.000  
G02  23715855.630   124627421.146       -3013.911          40.000  
G03  21425604.638   112592311.354        1296.705          39.000  
G14  20015693.299   105183175.239        -288.326          41.000  
G17  20907817.494   109871111.887         791.508          44.000  
G19  22177743.443   116544590.725        2405.702          37.000  
G22  20930649.088   109991061.250        1116.839          41.000  
J02  38014853.839   199769351.656         622.320          35.000  
J03  38904879.188   204446327.281        -413.964          35.000  
> 2025 03 12 06 41 21.0001158  0 22                     
C07  35824928.843   186549610.920         202.740          37.000  
C09  38815915.026   202124655.129       -1840.283          26.000  
C26  24704558.115   128643170.525        1973.651          34.000  
C29  21610929.590   112533762.866         -35.849          35.000  
C35  24550672.848   127841559.445        2279.974          43.000  
C40  36077467.714   187864613.467         126.192          40.000  
C45  22555051.288   117450049.573       -1048.191          46.000  
E10  23881276.461   125496954.833       -1137.409          39.000  
E11  23708561.829   124589120.468         345.193          36.000  
E12  25275291.005   132822550.219       -2135.020          38.000  
E16  23377037.539   122846912.035        -738.896          40.000  
E24  24932817.095   131022808.204       -1973.000          39.000  
E25  23410277.627   123021611.960         615.642          41.000  
G01  21672157.702   113887943.909       -2469.271          45.000  
G02  23716428.383   124630417.997       -3012.899          41.000  
G03  21425356.260   112590998.149        1300.257          35.000  
G14  20015745.912   105183447.219        -288.385          43.000  
G17  20907665.349   109870303.357         794.264          44.000  
G19  22177286.709   116542168.667        2408.162          38.000  
G22  20930435.786   109989927.711        1118.256          42.000  
J02  38014731.374   199768714.298         621.896          36.000  
J03  38904960.581   204446724.477        -412.958          41.000  
> 2025 03 12 06 41 22.0000548  0 22                     
C07  35824922.585   186549550.831         201.610          36.000  
C09  38816295.800   202126636.064       -1840.325          25.000  
C26  24704212.192   128641338.574        1972.439          38.000  
C29  21610959.606   112533938.807         -34.871          39.000  
C35  24550268.166   127839688.466        2280.742          41.000  
C40  36077472.848   187864629.157         125.081          39.000  
C45  22555281.266   117451238.868       -1048.078          46.000  
E10  23881520.230   125498234.334       -1137.407          38.000  
E11  23708524.992   124588918.958         344.864          37.000  
E12  25275724.543   132824828.225       -2135.118          38.000  
E16  23377207.858   122847794.835        -739.332          39.000  
E24  24933218.854   131024924.631       -1974.452          39.000  
E25  23410189.226   123021139.407         616.050          41.000  
G01  21672656.595   113890557.105       -2470.061          42.000  
G02  23717030.404   124633835.520       -3014.286          39.000  
G03  21425137.448   112589841.033        1300.676          33.000  
G14  20015828.992   105183880.221        -291.040          42.000  
G17  20907544.271   109869652.379         794.554          43.000  
G19  22176858.043   116540174.823        2410.089          38.000  
G22  20930250.552   109988952.989        1118.531          44.000  
J02  38014639.675   199768236.702         620.275          33.000  
J03  38905072.142   204447279.204        -410.652          42.000  
> 2025 03 12 06 41 22.9999937  0 22                     
C07  35824882.937   186549336.178         201.431          36.000  
C09  38816650.080   202128463.424       -1841.424          24.000  
C26  24703830.781   128639353.652        1973.407          37.000  
C29  21610962.230   112533962.299         -37.194          41.000  
C35  24549830.993   127837395.325        2280.436          41.000  
C40  36077446.991   187864491.297         125.003          37.000  
C45  22555482.652   117452272.843       -1049.317          44.000  
E10  23881737.804   125499360.261       -1137.798          38.000  
E11  23708458.363   124588561.677         344.589          38.000  
E12  25276129.487   132826948.510       -2135.287          38.000  
E16  23377347.786   122848792.044        -739.630          40.000  
E24  24933593.220   131026885.356       -1974.780          39.000  
E25  23410070.133   123020511.262         615.539          42.000  
G01  21673125.095   113893014.067       -2471.763          42.000  
G02  23717603.532   124636834.029       -3013.707          41.000  
G03  21424886.147   112588530.881        1294.439          35.000  
G14  20015882.880   105184156.801        -291.392          42.000  
G17  20907392.201   109868846.733         792.158          43.000  
G19  22176400.485   116537752.724        2408.239          40.000  
G22  20930036.725   109987823.194        1116.530          45.000  
J02  38014517.285   199767604.562         619.265          36.000  
J03  38905151.811   204447952.619        -413.162          42.000  
> 2025 03 12 06 41 23.9999326  0 22                     
C07  35824843.140   186549118.269         204.200          38.000  
C09  38817004.809   202130287.956       -1840.723          23.000  
C26  24703450.420   128637363.324        1976.490          36.000  
C29  21610968.300   112533981.225         -30.708          41.000  
C35  24549391.572   127835098.022        2284.163          40.000  
C40  36077420.984   187864347.231         131.250          36.000  
C45  22555682.988   117453305.010       -1044.507          43.000  
E10  23881947.734   125500479.633       -1135.509          37.000  
E11  23708388.886   124588200.710         346.430          37.000  
E12  25276533.383   132829066.177       -2133.576          36.000  
E16  23377485.466   122849513.385        -737.457          40.000  
E24  24933972.832   131028843.875       -1972.949          38.000  
E25  23409950.591   123019878.812         617.788          42.000  
G01  21673592.846   113895467.859       -2465.804          42.000  
G02  23718174.712   124639830.176       -3008.417          42.000  
G03  21424634.996   112587219.771        1300.030          35.000  
G14  20015936.018   105184429.454        -287.152          42.000  
G17  20907239.682   109868037.144         797.681          42.000  
G19  22175938.580   116535327.551        2413.410          43.000  
G22  20929822.448   109986959.245        1121.753          44.000  
J02  38014394.145   199766966.963         624.751          37.000  
J03  38905228.633   204448346.035        -405.961          40.000  
> 2025 03 12 06 41 24.9998715  0 22                     
C07  35824802.630   186548901.399         204.621          39.000  
C09  38817359.426   202132113.999       -1839.944          22.000  
C26  24703070.545   128635374.674        1975.608          34.000  
C29  21610973.659   112534001.486         -35.283          41.000  
C35  24548955.936   127832800.938        2285.224          39.000  
C40  36077395.764   187864466.516         130.588          35.000  
C45  22555882.313   117454338.140       -1049.845          43.000  
E10  23882163.247   125501601.894       -1135.936          38.000  
E11  23708324.693   124587841.124         346.672          38.000  
E12  25276937.166   132831184.520       -2131.766          38.000  
E16  23377624.832   122850237.803        -738.122          40.000  
E24  24934339.441   131030801.316       -1972.261          35.000  
E25  23409830.936   123019248.492         617.258          41.000  
G01  21674060.785   113897920.776       -2469.036          42.000  
G02  23718745.479   124642823.811       -3007.575          42.000  
G03  21424385.232   112585906.876        1299.334          36.000  
G14  20015989.944   105184706.291        -290.054          43.000  
G17  20907086.450   109867228.218         794.639          43.000  
G19  22175481.059   116532904.350        2409.018          44.000  
G22  20929608.059   109985827.245        1117.755          44.000  
J02  38014272.692   199766330.870         622.245          38.000  
J03  38905306.242   204448741.944        -410.526          39.000  
> 2025 03 12 06 41 25.9998104  0 22                     
C07  35824763.882   186548946.425         203.272          39.000  
C09  38817713.106   202133940.199       -1840.851          21.000  
C26  24702689.434   128633384.570        1975.976          35.000  
C29  21610977.482   112534019.566         -34.145          40.000  
C35  24548513.967   127830500.818        2285.819          39.000  
C40  36077369.607   187864321.509         130.310          35.000  
C45  22556081.300   117455372.293       -1052.208          43.000  
E10  23882379.922   125502720.007       -1134.711          38.000  
E11  23708256.865   124587481.148         344.999          38.000  
E12  25277341.810   132833297.846       -2129.075          36.000  
E16  23377765.959   122850960.912        -739.744          39.000  
E24  24934716.805   131032760.082       -1974.228          36.000  
E25  23409713.043   123018617.523         616.220          41.000  
G01  21674528.686   113900371.530       -2465.357          41.000  
G02  23719316.509   124645814.198       -3005.961          42.000  
G03  21424133.631   112584595.433        1295.197          35.000  
G14  20016043.531   105184981.726        -291.339          43.000  
G17  20906932.882   109866419.327         795.781          43.000  
G19  22175020.503   116530481.009        2408.443          44.000  
G22  20929393.932   109984694.465        1118.287          44.000  
J02  38014150.301   199765694.685         621.670          38.000  
J03  38905383.513   204449136.146        -408.760          41.000  
> 2025 03 12 06 41 26.9997494  0 22                     
C07  35824752.940   186548882.461         206.637          38.000  
C09  38818098.789   202135920.9911      -1841.977          19.000  
C26  24702336.728   128631550.512        1974.392          38.000  
C29  21611012.108   112534194.075         -30.959          35.000  
C35  24548104.001   127828354.773        2287.391          39.000  
C40  36077371.256   187864330.414         135.057          39.000  
C45  22556312.590   117456565.449       -1056.059          45.000  
E10  23882622.604   125503994.052       -1131.526          39.000  
E11  23708219.841   124587278.824         345.254          38.000  
E12  25277772.162   132835566.073       -2124.827          38.000  
E16  23377934.593   122851841.757        -738.704          39.000  
E24  24935121.075   131034877.326       -1975.188          38.000  
E25  23409625.054   123018409.739         616.673          41.000  
G01  21675024.992   113902972.925       -2459.162          43.000  
G02  23719916.244   124648958.578       -2996.353          42.000  
G03  21423912.534   112583440.389        1301.539          35.000  
G14  20016127.623   105185414.877        -292.728          42.000  
G17  20906810.117   109866027.997         795.910          44.000  
G19  22174590.750   116528214.689        2407.619          41.000  
G22  20929208.810   109983718.515        1117.504          44.000  
J02  38014061.413   199765215.164         622.981          36.000  
J03  38905489.190   204449684.734        -406.704          42.000  
> 2025 03 12 06 41 27.9996883  0 22                     
C07  35824711.531   186548667.086         202.123          39.000  
C09  38818453.107   202137750.340       -1843.959          20.000  
C26  24701959.552   128629568.222        1966.389          35.000  
C29  21611015.668   112534210.278         -32.708          30.000  
C35  24547663.868   127826064.380        2266.224          34.000  
C40  36077343.637   187864186.088         131.808          42.000  
C45  22556515.812   117457613.485       -1062.081          42.000  
E10  23882834.820   125505112.972       -1132.948          42.000  
E11  23708151.751   124586925.021         340.927          37.000  
E12  25278178.044   132837673.669       -2123.690          35.000  
E16  23378078.755   122852569.779        -741.640          39.000  
E24  24935505.072   131036837.677       -1973.852          35.000  
E25  23409506.898   123017785.109         612.456          42.000  
G01  21675491.732   113905418.839       -2458.329          41.000  
G02  23720486.112   124651942.262       -3000.501          40.000  
G03  21423663.669   112582125.389        1303.761          39.000  
G14  20016182.448   105185696.313        -294.344          42.000  
G17  20906657.784   109865222.339         794.647          47.000  
G19  22174132.330   116525799.448        2400.689          40.000  
G22  20928996.220   109982592.084        1112.724          41.000  
J02  38013943.557   199764578.138         626.847          34.000  
J03  38905565.000   204450077.811        -403.954          41.000  
> 2025 03 12 06 41 28.9996272  0 22                     
C07  35824671.134   186548448.667         204.265          36.000  
C09  38818807.836   202139584.2821      -1850.920          16.000  
C26  24701580.689   128627586.201        1967.419          33.000  
C29  21611020.839   112534227.947         -34.959          26.000  
C35  24547226.846   127823785.023        2284.666          30.000  
C40  36077315.831   187864038.053         133.321          43.000  
C45  22556718.846   117458658.689       -1063.033          40.000  
E10  23883048.047   125506227.277       -1131.616          42.000  
E11  23708087.970   124586842.830         340.839          35.000  
E12  25278580.440   132839778.319       -2120.769          33.000  
E16  23378219.433   122853293.032        -740.769          37.000  
E24  24935882.585   131038792.008       -1971.907          31.000  
E25  23409387.056   123017158.390         611.261          43.000  
G01  21675957.984   113907861.286       -2455.661          37.000  
G02  23721056.692   124654924.473       -2996.791          35.000  
G03  21423415.216   112580807.823        1302.991          41.000  
G14  20016237.385   105185976.077        -297.185          41.000  
G17  20906504.965   109864414.780         791.800          47.000  
G19  22173674.922   116523385.770        2397.988          39.000  
G22  20928782.243   109981464.620        1112.052          41.000  
J02  38013824.914   199763936.104         627.255          32.000  
J03  38905639.124   204450468.917        -406.496          41.000  
> 2025 03 12 06 41 29.9995661  0 22                     
C07  35824631.711   186548233.262         203.596          31.000  
C09  38819162.940   202141427.4921      -1857.174          15.000  
C26  24701201.901   128625607.058        1966.627          32.000  
C29  21611028.484   112534251.454         -36.257          24.000  
C35  24546787.200   127821491.297        2280.525          27.000  
C40  36077289.300   187863893.059         134.796          44.000  
C45  22556921.356   117459710.218       -1063.990          41.000  
E10  23883262.849   125507345.470       -1130.758          42.000  
E11  23708022.465   124586490.369         340.803          36.000  
E12  25278982.012   132841886.066       -2119.997          31.000  
E16  23378353.890   122854023.539        -742.380          39.000  
E24  24936258.075   131040751.128       -1971.274          30.000  
E25  23409269.687   123016535.979         610.880          43.000  
G01  21676424.311   113910301.705       -2453.872          34.000  
G02  23721624.349   124657904.808       -2989.773          32.000  
G03  21423167.138   112579491.712        1306.473          38.000  
G14  20016293.296   105186259.854        -296.450          41.000  
G17  20906353.120   109863611.092         792.671          44.000  
G19  22173218.188   116520974.916        2399.947          39.000  
G22  20928568.041   109980340.653        1112.909          41.000  
J02  38013706.646   199763298.615         624.968          32.000  
J03  38905714.222   204450859.399        -402.622          41.000  
> 2025 03 12 06 41 30.9995051  0 22                     
C07  35824621.106   186548169.548         204.289          28.000  
C09  38819546.262   202143424.2091      -1859.047          15.000  
C26  24700853.430   128623781.425        1964.401          31.000  
C29  21611061.948   112534428.432         -38.046          21.000  
C35  24546377.871   127819351.293        2280.106          25.000  
C40  36077290.387   187863898.689         136.827          44.000  
C45  22557154.782   117460915.085       -1065.333          40.000  
E10  23883507.067   125508616.176       -1129.348          41.000  
E11  23707984.279   124586291.746         340.010          36.000  
E12  25279414.201   132844145.298       -2117.729          28.000  
E16  23378524.359   122854905.675        -741.913          40.000  
E24  24936663.882   131042861.995       -1972.926          31.000  
E25  23409183.534   123016067.231         610.341          43.000  
G01  21676920.655   113912897.595       -2453.256          33.000  
G02  23722221.123   124661034.425       -2985.998          33.000  
G03  21422952.074   112578328.651        1302.242          36.000  
G14  20016378.624   105186698.557        -299.508          40.000  
G17  20906230.693   109862960.716         790.817          38.000  
G19  22172789.972   116518717.971        2397.407          37.000  
G22  20928384.156   109979370.201        1109.555          42.000  
J02  38013619.594   199762813.651         626.781          33.000  
J03  38905819.337   204451404.541        -405.848          40.000  
> 2025 03 12 06 41 31.9994440  0 21                     
C07  35824582.882   186547953.962         203.624          26.000  
C09  38819901.367   202145272.8371      -1862.277          15.000  
C26  24700477.940   128621808.159        1958.840          27.000  
C29  21611070.492   112534453.5401        -37.996          19.000  
C35  24545947.819   127817060.030        2279.651          23.000  
C40  36077263.255   187863751.724         135.564          43.000  
C45  22557360.289   117461971.199       -1072.746          39.000  
E10  23883719.170   125509731.919       -1129.888          41.000  
E11  23707920.273   124585942.512         337.238          36.000  
E12  25279814.873   132846246.723       -2114.935          29.000  
E16  23378664.512   122855636.994        -744.234          41.000  
E24  24937037.273   131044824.948       -1976.324          31.000  
E25  23409065.866   123015447.036         608.069          43.000  
G01  21677387.882   113915337.889       -2452.982          34.000  
G02  23722788.480   124664007.565       -2985.792          34.000  
G03  21422707.893   112577015.176        1302.759          39.000  
G14  20016435.735   105186987.420        -300.621          40.000  
G17  20906080.047   109862159.429         789.020          31.000  
G19  22172333.538   116516311.940        2391.174          38.000  
G22  20928172.053   109978250.012        1108.317          41.000  
J03  38905895.934   204451796.231        -403.874          42.000  
> 2025 03 12 06 41 33.0003828  0 22                     
C07  35824526.821   186547674.881         208.998          26.000  
C09  38820242.830   202147064.5501      -1867.016          18.000  
C26  24700095.705   128619771.231        1959.054          23.000  
C29  21611062.098   112534413.3791         14.356          16.000  
C35  24545506.225   127814701.6301       2280.154          20.000  
C40  36077223.083   187863538.416         137.338          42.000  
C45  22557551.857   117462965.796       -1068.994          39.000  
E10  23883920.631   125510781.807       -1126.802          41.000  
E11  23707842.927   124585526.672         338.389          36.000  
E12  25280200.107   132848283.495       -2113.247          29.000  
E16  23378794.922   122856301.407        -742.915          42.000  
E24  24937414.712   131046999.140       -1973.791          29.000  
E25  23408936.955   123014760.111         609.741          39.000  
G01  21677841.468   113917712.612       -2450.401          35.000  
G02  23723341.897   124666918.154       -2983.839          34.000  
G03  21422447.073   112575632.053        1303.763          38.000  
G14  20016479.205   105187207.609        -299.659          41.000  
G17  20905917.559   109861292.926         788.658          25.000  
G19  22171863.763   116513838.254        2395.233          38.000  
G22  20927947.508   109977060.846        1112.017          35.000  
J02  38013373.614   199761474.9931        624.599          38.000  
J03  38905959.190   204452121.291        -403.453          41.000  
> 2025 03 12 06 41 34.0003218  0 22                     
C07  35824521.987   186547611.485         204.187          27.000  
C09  38820627.127   202149074.158       -1866.439          24.000  
C26  24699764.396   128617955.5801       1959.961          19.000  
C29  21611092.040   112534541.7801         14.295          14.000  
C35  24545102.367   127812565.114        2280.060          23.000  
C40  36077226.044   187863543.399         137.409          42.000  
C45  22557786.857   117464178.014       -1072.165          38.000  
E10  23884164.624   125512051.224       -1126.141          41.000  
E11  23707805.715   124585332.683         338.834          36.000  
E12  25280635.068   132850541.054       -2111.583          29.000  
E16  23378963.668   122857190.842        -743.515          40.000  
E24  24937827.489   131049117.679       -1976.177          35.000  
E25  23408853.276   123014294.412         612.086          33.000  
G01  21678336.687   113920304.957       -2448.385          35.000  
G02  23723937.847   124670043.806       -2981.190          34.000  
G03  21422227.888   112574474.120        1303.934          39.000  
G14  20016565.208   105187653.000        -300.080          41.000  
G17  20905792.509   109860648.3621        790.022          20.000  
G19  22171440.419   116511585.983        2399.776          32.000  
G22  20927766.696   109976092.721        1114.967          29.000  
J02  38013285.138   199760995.084         624.945          38.000  
J03  38906064.679   204452668.889        -402.546          42.000  
> 2025 03 12 06 41 35.0002607  0 21                     
C07  35824479.829   186547391.190         203.887          27.000  
C09  38820983.392   202150920.707       -1864.890          23.000  
C26  24699391.867   128615978.8331       1960.761          18.000  
C35  24544659.985   127810271.575        2258.683          28.000  
C40  36077197.376   187863387.450         139.003          42.000  
C45  22557990.828   117465231.040       -1070.637          37.000  
E10  23884376.990   125513158.712       -1124.641          41.000  
E11  23707739.573   124584976.207         340.060          37.000  
E12  25281032.106   132852632.534       -2111.193          31.000  
E16  23379103.783   122857915.556        -743.519          44.000  
E24  24938198.744   131051075.608       -1976.627          36.000  
E25  23408738.268   123013665.052         613.779          26.000  
G01  21678801.778   113922736.384       -2450.007          33.000  
G02  23724502.768   124673005.979       -2980.338          35.000  
G03  21421977.374   112573155.417        1301.692          40.000  
G14  20016619.583   105187935.945        -301.324          40.000  
G17  20905634.031   109859841.7271        790.544          15.000  
G19  22170986.945   116509169.079        2400.275          30.000  
G22  20927553.356   109974959.340        1117.475          24.000  
J02  38013165.633   199760354.421         623.349          37.000  
J03  38906140.639   204453056.193        -404.032          43.000  
> 2025 03 12 06 41 36.0001996  0 21                     
C07  35824435.722   186547174.256         204.518          28.000  
C09  38821340.108   202152772.030       -1865.481          25.000  
C26  24699019.787   128614276.7111       1936.514          17.000  
C35  24544212.957   127808007.137        2252.479          33.000  
C40  36077169.758   187863237.939         137.147          42.000  
C45  22558196.148   117466289.274       -1072.413          37.000  
E10  23884588.606   125514273.074       -1127.319          40.000  
E11  23707672.682   124584626.433         337.274          37.000  
E12  25281426.895   132854730.974       -2111.839          30.000  
E16  23379244.948   122858647.531        -745.808          45.000  
E24  24938569.550   131053042.059       -1979.436          34.000  
E25  23408623.110   123013037.791         615.564          22.000  
G01  21679267.318   113925172.349       -2451.322          33.000  
G02  23725067.840   124675974.811       -2986.569          33.000  
G03  21421728.209   112571844.881        1295.996          41.000  
G14  20016676.805   105188224.907        -303.599          40.000  
G17  20905479.600   109859037.8731        791.463          13.000  
G19  22170534.521   116506759.935        2393.447          29.000  
G22  20927342.565   109973828.5301       1124.295          18.000  
J02  38013045.079   199759719.705         619.774          38.000  
J03  38906216.749   204453448.934        -405.349          42.000  
> 2025 03 12 06 41 37.0001385  0 20                     
C07  35824395.175   186546955.861         204.693          31.000  
C09  38821696.486   202154624.230       -1867.903          26.000  
C26  24698652.166   128612326.3541       1935.847          16.000  
C35  24543783.280   127805740.725        2254.529          27.000  
C40  36077142.402   187863086.051         140.741          42.000  
C45  22558400.232   117467348.480       -1073.253          37.000  
E10  23884802.883   125515385.630       -1127.546          39.000  
E11  23707610.250   124584275.333         337.142          37.000  
E12  25281831.240   132856827.759       -2110.760          30.000  
E16  23379385.476   122859379.718        -745.960          44.000  
E24  24938937.320   131055005.336       -1978.620          34.000  
E25  23408504.017   123012408.2761        615.057          19.000  
G01  21679731.022   113927609.223       -2449.504          34.000  
G02  23725636.171   124678945.394       -2983.459          33.000  
G14  20016733.092   105188512.351        -302.879          41.000  
G17  20905333.826   109858231.5901        793.054          13.000  
G19  22170082.958   116504351.220        2396.018          26.000  
G22  20927135.933   109972689.1811       1130.555          15.000  
J02  38012924.487   199759084.679         620.172          37.000  
J03  38906291.622   204453836.943        -406.351          42.000  
> 2025 03 12 06 41 38.0000774  0 20                     
C07  35824352.005   186546738.746         205.029          37.000  
C09  38822053.539   202156478.238       -1868.714          24.000  
C26  24698287.619   128610378.2271       1936.227          16.000  
C35  24543353.677   127803472.475        2263.826          22.000  
C40  36077113.322   187862933.827         140.423          41.000  
C45  22558604.690   117468409.044       -1075.570          37.000  
E10  23885014.836   125516497.518       -1126.722          40.000  
E11  23707542.198   124583925.373         337.135          37.000  
E12  25282232.062   132858925.075       -2111.753          27.000  
E16  23379526.678   122860111.067        -745.855          42.000  
E24  24939315.059   131056970.506       -1979.784          33.000  
E25  23408387.098   123011781.1701        613.914          14.000  
G01  21680193.902   113930043.415       -2449.664          36.000  
G02  23726202.779   124681913.956       -2978.768          34.000  
G03  21421233.476   112569226.9491       1286.824          36.000  
G14  20016789.153   105188801.656        -303.994          40.000  
G17  20905187.827   109857416.1411        803.236          16.000  
G19  22169629.672   116501942.981        2395.881          22.000  
G22  20926928.776   109971546.7141       1130.222          15.000  
J02  38012804.570   199758451.697         623.009          36.000  
> 2025 03 12 06 41 39.0000164  0 22                     
C07  35824341.737   186546677.133         200.450          38.000  
C09  38822439.297   202158489.724       -1868.192          24.000  
C26  24697946.980   128608583.4781       1937.233          16.000  
C29  21611149.225   112534924.3771         16.056          29.000  
C35  24542953.679   127801349.965        2264.093          24.000  
C40  36077113.547   187862938.091         134.085          40.000  
C45  22558839.353   117469624.761       -1079.818          37.000  
E10  23885259.092   125517768.556       -1129.182          40.000  
E11  23707509.145   124583733.246         334.671          37.000  
E12  25282663.689   132861179.114       -2112.069          30.000  
E16  23379696.585   122861000.415        -748.809          41.000  
E24  24939724.800   131059096.814       -1984.842          33.000  
E25  23408298.285   123011311.2461        611.717          14.000  
G01  21680688.184   113932637.788       -2453.955          37.000  
G02  23726796.893   124685036.742       -2983.578          34.000  
G03  21421022.947   112568091.368        1272.204          32.000  
G14  20016875.118   105189251.277        -309.099          40.000  
G17  20905066.936   109856763.475         793.082          32.000  
G19  22169211.387   116499992.1171       2397.383          18.000  
G22  20926750.025   109970558.9961       1131.239          15.000  
J02  38012712.759   199757971.388         621.273          34.000  
J03  38906472.622   204454775.5531       -408.183          38.000  
> 2025 03 12 06 41 39.9999553  0 22                     
C07  35824300.965   186546462.287         201.919          38.000  
C09  38822798.748   202160342.259       -1868.446          24.000  
C26  24697563.245   128606630.6341       1972.812          17.000  
C29  21611148.925   112534892.658          19.659          29.000  
C35  24542525.276   127799368.777        2254.319          23.000  
C40  36077088.664   187862789.448         136.587          41.000  
C45  22559045.910   117470690.222       -1076.809          38.000  
E10  23885474.043   125518884.306       -1130.173          40.000  
E11  23707441.392   124583386.140         334.099          36.000  
E12  25283063.312   132863275.514       -2111.806          29.000  
E16  23379838.387   122861736.991        -749.482          41.000  
E24  24940100.440   131061069.924       -1986.949          34.000  
E25  23408183.165   123010686.3461        609.344          14.000  
G01  21681154.362   113935077.128       -2449.923          38.000  
G02  23727364.400   124688005.976       -2983.063          34.000  
G03  21420782.813   112566806.347        1283.470          29.000  
G14  20016932.079   105189544.115        -305.774          40.000  
G17  20904914.042   109855960.781         789.351          45.000  
G19  22168758.101   116497579.0841       2411.152          16.000  
G22  20926544.367   109969732.3051       1130.370          11.000  
J02  38012592.842   199757339.070         616.330          33.000  
J03  38906550.268   204455176.610        -421.577          34.000  
> 2025 03 12 06 41 40.9998942  0 22                     
C07  35824258.732   186546242.205         205.875          39.000  
C09  38823160.036   202162194.831       -1869.193          24.000  
C26  24697029.652   128603914.181        1956.615          29.000  
C29  21611151.961   112534857.176          21.817          30.000  
C35  24542097.509   127797098.470        2255.651          21.000  
C40  36077061.720   187862634.584         139.678          42.000  
C45  22559248.607   117471750.004       -1075.614          38.000  
E10  23885684.834   125519994.666       -1127.161          40.000  
E11  23707376.974   124583035.531         335.549          37.000  
E12  25283465.071   132865370.514       -2109.746          31.000  
E16  23379978.428   122862467.053        -747.469          40.000  
E24  24940480.914   131063038.138       -1984.423          29.000  
E25  23408061.786   123010063.492         606.065          32.000  
G01  21681617.878   113937508.354       -2445.043          38.000  
G02  23727929.546   124690970.210       -2980.475          34.000  
G03  21420544.516   112565506.314        1288.528          29.000  
G14  20016988.477   105189832.272        -304.838          40.000  
G17  20904760.585   109855154.713         792.193          46.000  
G19  22168292.261   116495151.5331       2413.713          16.000  
G22  20926333.351   109968587.2141       1129.147          17.000  
J02  38012471.464   199756704.271         623.995          32.000  
J03  38906630.650   204455582.402        -411.108          32.000  
> 2025 03 12 06 41 41.9998331  0 22                     
C07  35824219.159   186546024.907         198.321          39.000  
C09  38823513.191   202164049.839       -1871.636          24.000  
C26  24696701.679   128602206.096        1956.018          30.000  
C29  21611160.955   112534824.775          10.274          32.000  
C35  24541668.806   127794828.371        2255.495          23.000  
C40  36077033.539   187862483.145         132.563          43.000  
C45  22559455.164   117472816.089       -1086.583          38.000  
E10  23885898.886   125521108.909       -1129.600          40.000  
E11  23707313.718   124582687.871         332.062          36.000  
E12  25283858.999   132867464.146       -2110.402          28.000  
E16  23380117.831   122863202.136        -750.711          40.000  
E24  24940852.057   131065005.700       -1983.521          27.000  
E25  23407924.181   123009471.539         682.748          30.000  
G01  21682081.357   113939940.230       -2451.693          36.000  
G02  23728494.055   124693933.553       -2981.026          34.000  
G03  21420307.680   112564476.477        1288.535          30.000  
G14  20017045.438   105190125.092        -314.558          40.000  
G17  20904607.991   109854351.153         783.311          46.000  
G19  22167834.178   116492722.564        2429.160          20.000  
G22  20926118.400   109967444.926        1103.661          24.000  
J02  38012348.549   199756064.540         624.665          29.000  
J03  38906709.196   204455983.175        -423.140          33.000  
> 2025 03 12 06 41 42.9997721  0 21                     
C07  35824208.966   186545971.016         200.943          39.000  
C09  38823901.722   202166065.154       -1885.566          23.000  
C26  24696365.012   128600397.513        1954.351          28.000  
C29  21611194.531   112534960.005          10.850          30.000  
C35  24541269.483   127792720.963        2239.242          26.000  
C40  36077036.238   187862494.250         136.103          44.000  
C45  22559694.698   117474046.515       -1086.870          36.000  
E10  23886143.517   125522386.688       -1132.468          40.000  
E11  23707278.643   124582505.827         328.464          36.000  
E12  25284292.798   132869720.769       -2110.905          25.000  
E16  23380290.811   122864102.047        -754.471          40.000  
E24  24941245.685   131067134.108       -1982.073          28.000  
E25  23407843.537   123008943.260         689.343          33.000  
G01  21682578.114   113942537.468       -2452.951          35.000  
G02  23729091.242   124697060.936       -2980.927          34.000  
G03  21420099.024   112563335.495        1285.290          30.000  
G14  20017134.176   105190584.982        -312.983          39.000  
G17  20904487.474   109853713.840         785.874          46.000  
G19  22167414.768   116490438.480        2430.466          27.000  
J02  38012259.211   199755588.496         618.716          27.000  
J03  38906821.618   204456556.115        -431.694          30.000  
> 2025 03 12 06 41 43.9997110  0 22                     
C07  35824167.145   186545753.119         203.506          38.000  
C09  38824262.223   202167934.458       -1879.447          24.000  
C26  24695999.116   128598429.059        1955.104          29.000  
C29  21611197.679   112534930.229          18.844          29.000  
C35  24540836.432   127790467.634        2239.107          27.000  
C40  36077007.308   187862341.317         139.629          42.000  
C45  22559901.105   117475114.278       -1082.305          33.000  
E10  23886355.620   125523500.359       -1128.971          39.000  
E11  23707213.438   124582160.401         331.145          36.000  
E12  25284692.272   132871814.623       -2109.424          28.000  
E16  23380430.964   122864836.457        -752.043          40.000  
E24  24941615.179   131069097.719       -1978.778          28.000  
E25  23407729.166   123008249.790         669.592          34.000  
G01  21683042.642   113944970.652       -2446.628          35.000  
G02  23729656.501   124700022.702       -2976.624          33.000  
G03  21419856.642   112562035.758        1285.402          26.000  
G14  20017191.587   105190880.307        -310.172          38.000  
G17  20904335.330   109852910.649         789.027          46.000  
G19  22166959.533   116487993.043        2431.382          26.000  
G22  20925716.528   109965372.9841       1101.571          39.000  
J02  38012138.844   199754955.779         618.533          27.000  
J03  38906903.012   204456973.748        -419.872          26.000  
> 2025 03 12 06 41 44.9996499  0 22                     
C07  35824127.610   186545537.289         203.323          38.000  
C09  38824622.910   202169800.620       -1877.999          24.000  
C26  24695630.708   128596462.435        1953.644          25.000  
C29  21611198.316   112535180.639          24.237          28.000  
C35  24540394.276   127788215.493        2247.678          25.000  
C40  36076979.464   187862189.954         139.129          42.000  
C45  22560107.400   117476181.445       -1076.466          30.000  
E10  23886569.709   125524612.990       -1127.971          40.000  
E11  23707147.521   124581815.784         331.931          36.000  
E12  25285090.434   132873910.848       -2107.938          29.000  
E16  23380573.703   122865574.297        -750.755          41.000  
E24  24941987.559   131071062.864       -1980.135          28.000  
E25  23407618.880   123007867.320         655.536          34.000  
G01  21683506.458   113947404.058       -2447.196          35.000  
G02  23730221.047   124702987.775       -2979.799          31.000  
G03  21419615.646   112560738.323        1284.859          22.000  
G14  20017249.784   105191177.480        -311.588          39.000  
G17  20904183.672   109852109.704         788.692          46.000  
G19  22166504.186   116485548.496        2433.741          27.000  
G22  20925501.914   109964259.126        1101.674          40.000  
J02  38012016.266   199754323.035         622.489          28.000  
J03  38906981.595   204457381.215        -421.987          22.000  
> 2025 03 12 06 41 45.9995888  0 21                     
C07  35824086.951   186545321.123         203.302          38.000  
C09  38824981.575   202171663.038       -1877.156          24.000  
C26  24695249.485   128594495.407        1954.574          23.000  
C29  21611206.823   112535143.075          24.237          28.000  
C35  24539957.291   127785954.957        2247.095          22.000  
C40  36076950.797   187862038.898         137.041          42.000  
C45  22560315.269   117477240.057       -1070.894          27.000  
E10  23886782.075   125525728.771       -1129.514          40.000  
E11  23707084.377   124581471.025         331.338          36.000  
E12  25285493.167   132876002.880       -2108.066          28.000  
E16  23380714.718   122866311.630        -751.746          40.000  
E24  24942363.911   131073027.700       -1983.016          29.000  
E25  23407506.870   123007206.075         638.664          36.000  
G01  21683971.249   113949840.318       -2450.685          34.000  
G02  23730787.468   124705954.058       -2981.257          33.000  
G03  21419377.124   112559439.9621       1284.341          18.000  
G14  20017307.756   105191473.380        -312.668          39.000  
G17  20904031.790   109851307.835         788.987          46.000  
G22  20925288.874   109963144.051        1102.533          41.000  
J02  38011894.663   199753685.479         624.743          28.000  
J03  38907060.852   204457787.9831       -422.953          19.000  
> 2025 03 12 06 41 46.9995277  0 22                     
C07  35824045.205   186545100.670         204.932          37.000  
C09  38825339.452   202173521.659       -1875.533          23.000  
C26  24694874.669   128592525.257        1953.932          20.000  
C29  21611209.446   112535103.700          21.986          26.000  
C35  24539525.815   127783691.744        2247.600          20.000  
C40  36076922.541   187861884.461         140.094          42.000  
C45  22560515.155   117478294.164       -1070.660          25.000  
E10  23886997.251   125526840.859       -1128.737          38.000  
E11  23707019.847   124581123.823         331.454          36.000  
E12  25285890.018   132878093.612       -2108.344          29.000  
E16  23380855.546   122867045.998        -750.640          40.000  
E24  24942735.878   131074993.110       -1981.052          28.000  
E25  23407393.773   123006564.039         611.757          36.000  
G01  21684435.253   113952272.784       -2449.530          35.000  
G02  23731353.101   124708918.024       -2982.021          34.000  
G03  21419135.716   112558140.0531       1283.746          16.000  
G14  20017365.541   105191769.010        -311.811          39.000  
G17  20903879.420   109850502.533         787.827          46.000  
G19  22165585.959   116480940.0871       2433.459          26.000  
G22  20925075.647   109962025.717        1100.035          41.000  
J02  38011778.568   199753045.807         622.946          24.000  
J03  38907140.522   204458195.1251       -424.361          18.000  
> 2025 03 12 06 41 47.9994667  0 22                     
C07  35824034.112   186545038.968         206.367          37.000  
C09  38825727.383   202175537.992       -1873.492          21.000  
C26  24694535.604   128590715.6381       1952.964          19.000  
C29  21611236.128   112535227.083          18.503          24.000  
C35  24539126.791   127781588.0071       2247.840          18.000  
C40  36076922.841   187861888.026         140.044          41.000  
C45  22560751.392   117479507.010       -1073.497          23.000  
E10  23887240.682   125528112.443       -1127.871          39.000  
E11  23706985.371   124580936.478         332.620          37.000  
E12  25286319.620   132880346.988       -2109.047          29.000  
E16  23381027.327   122867939.503        -750.431          40.000  
E24  24943146.294   131077117.799       -1981.595          23.000  
E25  23407307.733   123006110.811         586.431          36.000  
G01  21684931.110   113954865.346       -2449.674          37.000  
G02  23731947.590   124712041.753       -2977.398          34.000  
G03  21418921.964   112557002.2521       1282.365          12.000  
G14  20017452.781   105192224.114        -310.629          40.000  
G17  20903759.803   109849858.159         789.896          46.000  
G19  22165160.554   116478651.696        2390.076          25.000  
G22  20924893.972   109961068.929        1103.067          42.000  
J02  38011691.329   199752567.9701        623.303          18.000  
J03  38907250.846   204458763.8571       -425.804          10.000  
> 2025 03 12 06 41 49.0004055  0 22                     
C07  35823984.721   186544760.136         201.747          39.000  
C09  38826075.517   202177337.884       -1872.375          21.000  
C26  24694155.842   128588949.6121       1954.898          18.000  
C29  21611233.804   112535137.134          12.714          23.000  
C35  24538695.165   127779262.768        2248.949          21.000  
C40  36076883.643   187861674.577         137.243          42.000  
C45  22560950.229   117480788.238       -1083.374          24.000  
E10  23887442.518   125529167.207       -1130.116          40.000  
E11  23706909.298   124580529.002         331.365          37.000  
E12  25286710.625   132882381.457       -2109.642          30.000  
E16  23381155.113   122868614.380        -751.807          35.000  
E24  24943519.011   131079025.5931      -1982.889          20.000  
E25  23407179.797   123005457.443         569.395          36.000  
G01  21685384.771   113957243.524       -2452.570          37.000  
G02  23732501.981   124714947.841       -2980.885          34.000  
G03  21418665.416   112555644.2961       1280.650          11.000  
G14  20017499.024   105192459.523        -313.714          40.000  
G17  20903594.393   109848993.754         786.838          46.000  
G19  22164688.156   116476184.530        2389.017          39.000  
G22  20924671.301   109959891.501        1099.395          42.000  
J02  38011565.791   199751869.6911        622.714          15.000  
J03  38907317.475   204459114.8931       -399.020          14.000  
> 2025 03 12 06 41 50.0003445  0 22                     
C07  35823973.816   186544697.988         201.242          39.000  
C09  38826463.036   202179348.580       -1871.969          21.000  
C26  24693810.968   128587134.626        1954.757          21.000  
C29  21611268.168   112535544.344           8.174          25.000  
C35  24538284.037   127777154.863        2247.756          28.000  
C40  36076886.828   187861677.483         136.004          42.000  
C45  22561186.653   117482007.262       -1082.846          25.000  
E10  23887682.839   125530440.057       -1131.504          39.000  
E11  23706875.609   124580339.858         330.013          37.000  
E12  25287139.815   132884633.052       -2112.527          29.000  
E16  23381328.281   122869507.323        -754.636          28.000  
E24  24943931.713   131081148.4361      -1983.817          15.000  
E25  23407098.141   123005036.855         555.191          36.000  
G01  21685879.915   113959838.733       -2456.008          36.000  
G02  23733098.156   124718069.494       -2982.196          34.000  
G03  21418332.534   112554096.744        1304.396          26.000  
G14  20017587.350   105192912.365        -311.614          40.000  
G17  20903474.663   109848347.640         788.715          47.000  
G19  22164256.642   116473936.328        2388.369          37.000  
G22  20924489.215   109958933.315        1100.652          42.000  
J02  38011481.436   199751682.1971        623.295          14.000  
J03  38907414.195   204459655.370        -399.104          27.000  
> 2025 03 12 06 41 51.0002834  0 22                     
C07  35823931.583   186544481.269         202.658          38.000  
C09  38826823.424   202181205.948       -1871.163          21.000  
C26  24693430.569   128585166.213        1955.227          29.000  
C29  21611272.402   112535523.082           7.591          25.000  
C35  24537828.989   127774892.878        2250.401          32.000  
C40  36076858.386   187861526.147         137.153          41.000  
C45  22561392.648   117483077.240       -1083.160          24.000  
E10  23887899.027   125531557.048       -1131.906          39.000  
E11  23706807.594   124579995.215         331.267          36.000  
E12  25287538.576   132886729.461       -2112.197          28.000  
E16  23381472.518   122870250.123        -756.481          23.000  
E24  24944310.688   131083117.2321      -1984.901           9.000  
E25  23406983.657   123004473.553         542.189          36.000  
G01  21686344.931   113962278.895       -2454.493          36.000  
G02  23733664.201   124721037.068       -2985.113          33.000  
G03  21418086.442   112552781.776        1295.618          34.000  
G14  20017645.248   105193210.625        -311.353          40.000  
G17  20903323.905   109847545.903         788.602          46.000  
G19  22163803.093   116471534.751        2389.141          34.000  
G22  20924277.299   109957818.894        1102.055          41.000  
J02  38011362.157   199751044.3441        624.507          13.000  
J03  38907430.421   204460042.154        -402.129          39.000  
> 2025 03 12 06 41 52.0002223  0 22                     
C07  35823888.600   186544264.659         203.945          36.000  
C09  38827181.864   202183324.787       -1867.192          23.000  
C26  24693040.127   128583197.515        1955.530          30.000  
C29  21611282.183   112535502.365           7.555          25.000  
C35  24537391.480   127772628.067        2253.626          34.000  
C40  36076829.193   187861377.279         134.308          41.000  
C45  22561599.992   117484145.282       -1080.388          26.000  
E10  23888113.266   125532677.899       -1134.655          39.000  
E11  23706746.024   124579651.314         330.886          37.000  
E12  25287944.383   132888830.858       -2116.839          27.000  
E16  23381618.105   122870991.6341       -756.037          19.000  
E24  24944687.715   131085089.7361      -1985.924           8.000  
E25  23406866.926   123003927.861         522.584          36.000  
G01  21686811.895   113964722.863       -2460.640          37.000  
G02  23734230.996   124724010.370       -2989.338          32.000  
G03  21417837.202   112551478.455        1288.895          40.000  
G14  20017703.295   105193508.241        -313.996          40.000  
G17  20903170.898   109846744.796         786.756          46.000  
G19  22163349.995   116469128.459        2397.405          30.000  
G22  20924067.032   109956704.878        1099.635          41.000  
J02  38011240.928   199750406.3461        625.384          13.000  
J03  38907514.551   204460431.729        -405.244          39.000  
> 2025 03 12 06 41 53.0001612  0 22                     
C07  35823849.777   186544048.809         199.737          37.000  
C09  38827535.469   202185175.922       -1862.655          22.000  
C26  24692667.035   128581228.940        1955.102          30.000  
C29  21611291.627   112535481.727           7.142          25.000  
C35  24536954.532   127770360.616        2253.565          34.000  
C40  36076803.261   187861230.177         132.101          42.000  
C45  22561806.099   117485211.035       -1079.612          31.000  
E10  23888329.266   125533800.031       -1137.424          39.000  
E11  23706681.119   124579307.974         329.741          37.000  
E12  25288341.458   132890935.107       -2121.533          27.000  
E16  23381762.755   122871992.7991       -753.375          18.000  
E24  24945067.402   131087060.9111      -1987.132           7.000  
E25  23406750.456   123003396.757         515.450          34.000  
G01  21687279.721   113967171.532       -2465.086          37.000  
G02  23734799.852   124726989.048       -2996.717          34.000  
G03  21417589.424   112550177.605        1284.610          41.000  
G14  20017761.904   105193808.066        -315.260          40.000  
G17  20903022.951   109845945.772         784.662          48.000  
G19  22162896.858   116466715.912        2399.528          32.000  
G22  20923857.927   109955592.389        1098.103          42.000  
J02  38011122.360   199749767.2681        626.230          14.000  
J03  38907594.745   204460824.693        -408.192          39.000  
> 2025 03 12 06 41 54.0001001  0 21                     
C07  35823812.790   186543834.295         201.509          38.000  
C09  38827893.309   202187021.047       -1859.501          21.000  
C26  24692299.976   128579260.025        1953.964          32.000  
C29  21611294.812   112535461.105           5.682          26.000  
C35  24536519.721   127768089.598        2259.127          35.000  
C40  36076776.467   187861083.925         132.140          42.000  
C45  22562011.944   117486272.561       -1077.190          33.000  
E10  23888543.805   125534925.645       -1140.140          39.000  
E11  23706615.352   124578964.589         329.497          37.000  
E12  25288749.063   132893043.390       -2124.947          26.000  
E16  23381909.841   122872732.0301       -754.692          13.000  
E25  23406636.123   123002865.595         519.276          35.000  
G01  21687747.585   113969621.800       -2466.348          37.000  
G02  23735366.947   124729969.873       -2997.818          34.000  
G03  21417343.182   112548877.822        1285.585          41.000  
G14  20017819.952   105194106.199        -313.770          40.000  
G17  20902870.844   109845145.344         787.387          46.000  
G19  22162443.460   116464303.876        2395.383          32.000  
G22  20923645.562   109954478.559        1100.729          41.000  
J02  38011000.232   199749125.3181        628.637          15.000  
J03  38907672.279   204461214.368        -405.755          39.000  
> 2025 03 12 06 41 55.0000391  0 22                     
C07  35823801.211   186543773.049         203.135          38.000  
C09  38828280.753   202189019.351       -1856.227          22.000  
C26  24691960.424   128577446.888        1955.405          33.000  
C29  21611333.897   112535886.214           6.459          26.000  
C35  24536116.013   127765969.621        2263.381          35.000  
C40  36076780.477   187861092.947         132.265          42.000  
C45  22562244.696   117487490.498       -1076.098          37.000  
E10  23888787.949   125536206.604       -1140.168          40.000  
E11  23706581.887   124578776.427         331.031          37.000  
E12  25289182.376   132895311.965       -2125.870          27.000  
E16  23382081.734   122873628.2141       -755.456          13.000  
E24  24945999.456   131092111.5061      -1969.910          20.000  
E25  23406552.593   123002484.216         529.473          35.000  
G01  21688245.353   113972498.350       -2469.772          36.000  
G02  23735965.446   124733110.022       -2999.348          34.000  
G03  21417127.144   112547735.527        1282.611          40.000  
G14  20017907.903   105194560.801        -313.175          41.000  
G17  20902747.442   109844500.785         785.351          45.000  
G19  22162021.464   116462051.057        2396.702          32.000  
G22  20923462.201   109953520.026        1099.890          40.000  
J02  38010902.013   199748638.734         627.145          28.000  
J03  38907778.818   204461763.341        -407.805          39.000  
> 2025 03 12 06 41 55.9999780  0 21                     
C07  35823761.189   186543558.542         198.927          36.000  
C09  38828637.056   202190858.953       -1852.170          24.000  
C26  24691525.275   128575478.595        1954.928          30.000  
C29  21611343.641   112535866.154           6.854          26.000  
C35  24535681.164   127763692.281        2264.899          35.000  
C40  36076753.945   187860948.965         127.947          41.000  
C45  22562451.702   117488551.133       -1073.221          39.000  
E10  23889006.048   125537336.553       -1144.033          40.000  
E11  23706518.481   124578432.385         329.827          36.000  
E12  25289584.248   132897426.317       -2135.369          28.000  
E16  23382232.380   122874372.0061       -757.293          12.000  
E24  24946363.554   131094067.9881      -1973.117          18.000  
E25  23406433.126   123001636.374         536.592          35.000  
G01  21688714.078   113974956.017       -2473.972          36.000  
G02  23736535.201   124736099.475       -3008.510          34.000  
G03  21416882.963   112546441.971        1279.476          41.000  
G14  20017965.913   105195120.394        -312.426          42.000  
G17  20902595.297   109843701.864         786.662          46.000  
G22  20923251.597   109952406.489        1100.843          41.000  
J02  38010774.751   199748002.830         620.582          30.000  
J03  38907855.415   204462157.370        -408.274          39.000  
> 2025 03 12 06 41 56.9999169  0 22                     
C07  35823720.867   186543343.234         201.791          37.000  
C09  38828989.762   202192692.072       -1845.422          24.000  
C26  24691159.678   128573510.165        1955.429          28.000  
C29  21611348.587   112535844.866           6.766          26.000  
C35  24535243.017   127761409.945        2271.855          36.000  
C40  36076727.414   187860805.100         128.856          42.000  
C45  22562657.210   117489603.439       -1067.445          38.000  
E10  23889222.348   125538465.255       -1145.159          39.000  
E11  23706452.977   124578085.912         332.237          35.000  
E12  25289990.317   132899547.179       -2135.609          28.000  
E16  23382380.327   122875111.3601       -753.560          13.000  
E24  24946733.049   131096028.2981      -1980.249          16.000  
E25  23406314.858   123001082.073         541.074          35.000  
G01  21689182.504   113977417.518       -2478.673          36.000  
G02  23737108.554   124739094.263       -3013.572          31.000  
G03  21416637.883   112545148.927        1277.622          41.000  
G14  20018023.323   105195416.591        -309.068          42.000  
G17  20902445.850   109842900.909         787.046          47.000  
G19  22161112.494   116457223.0411       2400.645          33.000  
G22  20923040.693   109951290.508        1102.821          41.000  
J02  38010656.183   199747368.184         620.744          29.000  
J03  38907932.012   204462550.279        -408.295          40.000  
> 2025 03 12 06 41 57.9998558  0 22                     
C07  35823679.982   186543129.279         201.088          38.000  
C09  38829337.709   202194521.207       -1840.778          23.000  
C26  24690792.920   128571540.379        1955.954          32.000  
C29  21611354.770   112535826.331           4.474          27.000  
C35  24534805.208   127759124.349        2273.057          36.000  
C40  36076700.320   187860665.012         126.045          41.000  
C45  22562858.258   117490657.851       -1068.028          39.000  
E10  23889438.086   125539600.525       -1148.073          39.000  
E11  23706389.008   124577741.807         330.690          36.000  
E12  25290392.226   132901671.907       -2140.042          28.000  
E16  23382518.719   122875848.8701       -751.658          12.000  
E24  24947106.777   131097997.3301      -1984.141          16.000  
E25  23406203.522   123000527.347         539.517          36.000  
G01  21689653.665   113979884.365       -2483.427          37.000  
G02  23737680.446   124742093.790       -3014.582          32.000  
G03  21416394.039   112543861.050        1271.888          40.000  
G14  20018081.071   105195714.723        -313.615          43.000  
G17  20902295.842   109842102.519         783.379          46.000  
G19  22160655.797   116454807.791        2403.012          31.000  
G22  20922831.625   109950177.085        1098.368          42.000  
J02  38010533.755   199746735.245         619.332          31.000  
J03  38908008.646   204462947.590        -412.299          39.000  
> 2025 03 12 06 41 58.9997948  0 22                     
C07  35823670.014   186543072.942         202.252          38.000  
C09  38829714.773   202196503.577       -1838.170          23.000  
C26  24690456.178   128569729.668        1956.007          32.000  
C29  21611388.872   112535967.535           3.166          26.000  
C35  24534395.317   127756995.362        2275.022          33.000  
C40  36076704.742   187860683.500         127.250          41.000  
C45  22563094.720   117491869.361       -1067.338          38.000  
E10  23889685.340   125540894.255       -1148.810          39.000  
E11  23706353.258   124577557.176         331.572          35.000  
E12  25290824.452   132903960.052       -2142.384          27.000  
E16  23382693.123   122876742.7691       -747.734          12.000  
E24  24947510.823   131100128.4131      -1985.981          10.000  
E25  23406115.309   123000138.115         531.072          35.000  
G01  21690155.443   113982513.367       -2483.904          38.000  
G02  23738285.652   124745532.362       -3015.670          31.000  
G03  21416179.912   112542735.154        1272.730          40.000  
G14  20018170.934   105196173.091        -313.005          42.000  
G17  20902175.550   109841464.585         784.784          46.000  
G19  22160229.717   116452550.545        2404.431          27.000  
G22  20922652.874   109949223.674        1099.751          42.000  
J02  38010443.443   199746260.992         620.704          35.000  
J03  38908115.597   204463503.352        -410.765          39.000  
> 2025 03 12 06 41 59.9997337  0 22                     
C07  35823628.718   186542856.504         202.752          39.000  
C09  38830066.504   202198327.152       -1838.734          23.000  
C26  24690097.101   128567758.545        1956.264          33.000  
C29  21611391.645   112535949.014           3.708          25.000  
C35  24533952.598   127754706.376        2274.593          32.000  
C40  36076676.936   187860541.898         129.146          42.000  
C45  22563301.052   117492920.475       -1067.346          38.000  
E10  23889904.563   125542295.463       -1149.128          39.000  
E11  23706292.475   124577210.725         331.357          35.000  
E12  25291229.246   132906089.341       -2141.707          26.000  
E16  23382837.399   122877475.1991       -746.507           6.000  
E24  24947888.037   131102100.2331      -1987.613           7.000  
E25  23406001.462   122999594.492         524.412          36.000  
G01  21690626.492   113984980.097       -2483.532          37.000  
G02  23738858.031   124748531.744       -3015.765          32.000  
G03  21415935.057   112541447.023        1271.880          41.000  
G14  20018229.768   105196468.034        -311.931          42.000  
G17  20902023.930   109840663.712         784.795          46.000  
G19  22159778.305   116450420.916        2403.856          28.000  
G22  20922443.394   109948108.231        1099.071          42.000  
J02  38010322.102   199745624.550         621.672          35.000  
J03  38908192.119   204463898.379        -411.483          40.000  
> 2025 03 12 06 42 00.9996726  0 22                     
C07  35823589.782   186542640.622         202.359          38.000  
C09  38830416.100   202200151.297       -1837.699          22.000  
C26  24689725.696   128565788.606        1956.131          33.000  
C29  21611397.678   112536218.047           4.415          24.000  
C35  24533513.140   127752418.822        2274.591          32.000  
C40  36076651.491   187860399.997         128.172          41.000  
C45  22563503.149   117493974.073       -1068.369          39.000  
E10  23890118.952   125543431.234       -1149.683          39.000  
E11  23706226.858   124576865.305         331.069          35.000  
E12  25291647.194   132908503.011       -2145.134          27.000  
E16  23382979.538   122878387.0811       -745.430           3.000  
E24  24948263.714   131104073.9221      -1985.192          10.000  
E25  23405880.983   122998734.915         525.648          35.000  
G01  21691100.501   113987446.576       -2483.229          37.000  
G02  23739430.971   124751532.910       -3015.283          31.000  
G03  21415691.962   112540160.630        1270.861          41.000  
G14  20018287.366   105196765.064        -312.066          42.000  
G17  20901872.872   109839864.456         784.622          46.000  
G19  22159315.762   116448003.610        2402.227          28.000  
G22  20922234.176   109946994.363        1099.589          43.000  
J02  38010201.622   199744988.472         622.708          35.000  
J03  38908268.903   204464291.901        -410.063          39.000  
> 2025 03 12 06 42 01.9996115  0 20                     
C07  35823547.662   186542426.198         197.698          37.000  
C09  38830768.806   202201974.346       -1837.981          21.000  
C26  24689348.707   128563818.838        1954.044          33.000  
C29  21611402.025   112536199.569           2.858          24.000  
C35  24533078.291   127750130.085        2271.540          31.000  
C40  36076625.260   187860259.931         123.576          41.000  
C45  22563702.961   117495029.658       -1071.062          38.000  
E10  23890339.150   125544565.517       -1151.880          40.000  
E11  23706160.154   124576520.930         329.120          34.000  
E12  25292055.962   132910632.848       -2143.550          25.000  
E25  23405766.313   122998194.356         525.797          35.000  
G01  21691574.623   113989915.803       -2485.577          37.000  
G02  23740004.924   124754532.579       -3018.046          31.000  
G03  21415448.981   112538877.000        1270.072          41.000  
G14  20018345.675   105197063.217        -313.811          42.000  
G17  20901722.826   109839066.090         784.033          46.000  
G19  22158844.639   116445588.341        2399.913          27.000  
G22  20922024.172   109945882.387        1098.002          43.000  
J02  38010080.356   199744352.338         619.549          31.000  
J03  38908346.400   204464687.687        -411.523          39.000  
> 2025 03 12 06 42 02.9995504  0 20                     
C07  35823507.414   186542213.048         199.495          37.000  
C09  38831121.287   202203800.801       -1839.023          20.000  
C26  24688977.189   128561852.359        1949.978          31.000  
C29  21611412.743   112536183.826           4.605          23.000  
C35  24532640.819   127747846.647        2269.720          30.000  
C40  36076600.901   187860120.560         125.971          40.000  
C45  22563902.848   117496082.569       -1068.369          36.000  
E10  23890556.424   125545704.430       -1151.078          39.000  
E11  23706093.226   124576179.103         330.175          34.000  
E12  25292460.007   132912763.970       -2143.218          24.000  
E25  23405651.417   122997654.386         527.434          34.000  
G01  21692046.721   113992385.700       -2483.769          36.000  
G02  23740577.153   124757535.924       -3017.267          30.000  
G03  21415207.573   112537592.314        1271.242          41.000  
G14  20018404.360   105197364.061        -316.121          41.000  
G17  20901572.555   109838268.536         784.385          46.000  
G19  22158382.883   116443174.404        2401.866          28.000  
G22  20921814.542   109944770.635        1098.379          43.000  
J02  38009960.964   199743721.161         617.687          28.000  
J03  38908423.371   204465085.288        -410.029          39.000  
> 2025 03 12 06 42 03.9994894  0 20                     
C07  35823494.636   186542154.771         200.899          38.000  
C09  38831502.435   202205781.4201      -1838.850          20.000  
C26  24688631.941   128560042.569        1953.752          30.000  
C29  21611458.424   112536320.779           6.656          25.000  
C35  24532235.012   127745717.769        2271.746          32.000  
C40  36076604.012   187860136.236         125.670          41.000  
C45  22564137.098   117497294.396       -1071.157          37.000  
E10  23890800.268   125546998.220       -1150.874          39.000  
E11  23706064.558   124575992.888         329.943          34.000  
E12  25292897.217   132915050.961       -2140.964          24.000  
E25  23405564.890   122997267.785         531.285          34.000  
G01  21692545.089   113995013.787       -2485.522          36.000  
G02  23741178.349   124760694.607       -3016.891          32.000  
G03  21414996.032   112536467.215        1267.570          42.000  
G14  20018492.011   105197823.393        -317.043          41.000  
G17  20901452.151   109837629.250         781.592          46.000  
G19  22157961.188   116440916.966        2401.356          29.000  
G22  20921633.879   109943817.266        1095.521          43.000  
J02  38009869.040   199743246.295         619.038          28.000  
J03  38908530.210   204465638.796        -413.514          39.000  
> 2025 03 12 06 42 05.0004282  0 20                     
C07  35823443.109   186541880.203         201.803          38.000  
C09  38831844.236   202207548.2331      -1840.144          19.000  
C26  24688256.038   128558012.736        1952.922          29.000  
C29  21611450.966   112536238.357           8.601          26.000  
C35  24531781.164   127743368.132        2272.760          32.000  
C40  36076566.575   187859936.133         127.288          41.000  
C45  22564332.300   117498292.946       -1070.888          38.000  
E10  23891009.861   125548074.354       -1151.672          40.000  
E11  23705983.652   124575588.449         328.998          34.000  
E12  25293296.877   132917119.560       -2145.911          25.000  
E25  23405438.714   122996661.531         529.610          34.000  
G01  21693000.811   113997426.006       -2486.696          36.000  
G02  23741736.900   124763638.309       -3015.504          32.000  
G03  21414743.044   112535124.095        1267.172          42.000  
G14  20018538.217   105198064.692        -318.983          42.000  
G17  20901290.900   109836771.830         781.386          46.000  
G19  22157494.148   116438438.871        2400.353          30.000  
G22  20921411.771   109942645.853        1095.199          43.000  
J02  38009736.270   199742551.450         619.168          27.000  
J03  38908596.202   204465977.846        -413.583          39.000  
> 2025 03 12 06 42 06.0003671  0 21                     
C07  35823404.211   186541661.772         201.391          38.000  
C09  38832202.263   202209369.8181      -1841.287          19.000  
C26  24687886.170   128556043.463        1952.565          29.000  
C29  21611458.536   112536535.587           9.110          26.000  
C35  24531341.743   127741079.723        2271.106          31.000  
C40  36076540.268   187859792.480         126.790          42.000  
C45  22564540.431   117499346.160       -1072.912          39.000  
E10  23891226.985   125549208.885       -1151.362          39.000  
E11  23705921.669   124575244.080         327.910          34.000  
E12  25293704.071   132919247.235       -2144.386          25.000  
E24  24950002.810   131113149.3711      -1987.426           2.000  
E25  23405317.673   122995774.785         524.621          34.000  
G01  21693465.564   113999894.576       -2485.846          35.000  
G02  23742305.082   124766636.442       -3016.228          32.000  
G03  21414500.287   112533838.564        1266.693          42.000  
G14  20018595.852   105198363.542        -317.354          41.000  
G17  20901139.879   109835972.110         782.017          47.000  
G19  22157040.937   116436020.894        2400.420          32.000  
G22  20921201.091   109941532.483        1095.256          43.000  
J02  38009614.329   199741915.007         620.260          27.000  
J03  38908672.724   204466370.341        -412.609          40.000  
> 2025 03 12 06 42 07.0003061  0 21                     
C07  35823393.306   186541606.064         200.130          38.000  
C09  38832588.883   202211355.6621      -1842.223          19.000  
C26  24687546.092   128554530.921        1951.304          28.000  
C29  21611501.594   112536670.438           9.847          26.000  
C35  24530933.313   127738953.115        2271.590          31.000  
C40  36076545.252   187859810.936         125.828          42.000  
C45  22564776.855   117500560.206       -1072.041          39.000  
E10  23891474.202   125550505.668       -1152.452          39.000  
E11  23705889.779   124575062.688         327.409          34.000  
E12  25294148.251   132921537.272       -2143.506          26.000  
E24  24950415.812   131115319.7401      -1987.521           4.000  
E25  23405234.219   122995397.810         522.304          34.000  
G01  21693964.906   114002524.189       -2484.980          34.000  
G02  23742903.655   124769797.731       -3015.624          31.000  
G03  21414289.721   112532716.605        1267.819          42.000  
G14  20018684.778   105198827.383        -316.769          42.000  
G17  20901019.850   109835600.467         784.290          47.000  
G19  22156615.120   116433765.748        2401.721          31.000  
G22  20921021.403   109940581.838        1097.449          43.000  
J02  38009523.080   199741438.803         623.120          30.000  
J03  38908780.237   204466926.197        -409.545          39.000  
> 2025 03 12 06 42 08.0002450  0 21                     
C07  35823354.895   186541389.242         201.199          38.000  
C09  38832945.299   202213180.4321      -1842.495          18.000  
C26  24687174.612   128552564.890        1949.030          27.000  
C29  21611515.047   112536645.250           9.880          28.000  
C35  24530494.979   127736664.595        2273.846          31.000  
C40  36076519.133   187859668.424         127.078          42.000  
C45  22564984.874   117501616.626       -1072.485          39.000  
E10  23891693.013   125551640.411       -1151.701          39.000  
E11  23705827.085   124574719.075         328.472          34.000  
E12  25294551.434   132923664.369       -2143.737          25.000  
E24  24950796.211   131117289.2661      -1987.290          10.000  
E25  23405119.660   122994857.710         527.213          33.000  
G01  21694440.339   114004992.063       -2484.275          33.000  
G02  23743469.925   124772795.078       -3016.790          30.000  
G03  21414046.252   112531434.388        1266.284          42.000  
G14  20018744.099   105199125.720        -316.113          42.000  
G17  20900869.317   109834801.368         783.703          47.000  
G19  22156156.699   116431348.980        2401.062          30.000  
G22  20920811.811   109939470.099        1095.656          42.000  
J02  38009401.926   199740800.780         621.321          29.000  
J03  38908856.946   204467318.710        -409.316          40.000  
> 2025 03 12 06 42 09.0001839  0 21                     
C07  35823318.358   186541172.786         200.951          39.000  
C09  38833301.790   202215009.080       -1845.213          24.000  
C26  24686718.965   128550223.537        1957.211          26.000  
C29  21611527.676   112536895.485           8.064          28.000  
C35  24530061.517   127734377.705        2272.084          33.000  
C40  36076493.388   187859526.575         126.375          42.000  
C45  22565190.269   117502675.312       -1073.040          40.000  
E10  23891913.697   125552776.292       -1151.427          39.000  
E11  23705760.868   124574376.826         328.386          35.000  
E12  25294958.290   132925793.325       -2142.685          23.000  
E24  24951175.486   131119261.0501      -1986.212          14.000  
E25  23405001.879   122994314.755         529.164          34.000  
G01  21694912.550   114007463.491       -2487.269          36.000  
G02  23744036.271   124775795.794       -3016.160          29.000  
G03  21413802.258   112530154.565        1266.059          41.000  
G14  20018804.695   105199428.923        -318.787          43.000  
G17  20900719.758   109834004.701         782.093          48.000  
G19  22155695.356   116428933.882        2400.988          28.000  
G22  20920601.994   109938361.014        1094.575          42.000  
J02  38009280.548   199740166.451         620.414          26.000  
J03  38908932.532   204467714.954        -411.506          40.000  
> 2025 03 12 06 42 10.0001228  0 21                     
C07  35823278.298   186540958.974         199.903          40.000  
C09  38833656.856   202216836.660       -1843.873          24.000  
C26  24686359.327   128548254.629        1949.379          29.000  
C29  21611535.283   112536872.701           7.477          31.000  
C35  24529628.729   127732092.541        2270.826          35.000  
C40  36076468.018   187859387.150         125.943          42.000  
C45  22565387.345   117503732.724       -1074.294          40.000  
E10  23892123.065   125553915.104       -1154.146          38.000  
E11  23705699.223   124574036.988         325.438          34.000  
E12  25295352.929   132927921.397       -2144.325          26.000  
E24  24951560.532   131121232.4841      -1987.635          14.000  
E25  23404889.570   122993772.312         524.808          34.000  
G01  21695387.233   114009933.807       -2486.385          37.000  
G02  23744606.588   124778796.451       -3016.453          29.000  
G03  21413556.841   112528874.105        1264.776          41.000  
G14  20018864.766   105199731.707        -319.120          43.000  
G17  20900569.075   109833207.292         782.503          47.000  
G19  22155241.283   116426518.877        2400.401          30.000  
G22  20920390.453   109937251.418        1094.463          41.000  
J02  38009162.542   199739531.704         619.911          27.000  
J03  38909008.491   204468109.525        -410.871          39.000  
> 2025 03 12 06 42 11.0000618  0 21                     
C07  35823267.056   186540900.438         202.835          38.000  
C09  38834038.042   202218821.424       -1842.133          23.000  
C26  24686022.810   128546448.006        1953.046          29.000  
C29  21611572.607   112537007.966           8.784          30.000  
C35  24529216.964   127729963.997        2272.221          34.000  
C40  36076475.663   187859675.729         129.045          41.000  
C45  22565622.232   117504949.996       -1072.809          38.000  
E10  23892379.837   125555211.835       -1151.989          38.000  
E11  23705662.199   124573854.046         327.927          34.000  
E12  25295794.673   132930210.015       -2143.436          26.000  
E24  24951971.397   131123363.7321      -1987.447          14.000  
E25  23404802.780   122993068.282         522.184          34.000  
G01  21695886.838   114012563.412       -2484.664          36.000  
G02  23745215.917   124781957.042       -3015.003          30.000  
G03  21413344.737   112527752.990        1266.640          41.000  
G14  20018953.055   105200195.346        -320.205          42.000  
G17  20900448.408   109832568.778         782.567          46.000  
G19  22154813.629   116424262.512        2401.977          28.000  
G22  20920208.628   109936301.186        1094.734          40.000  
J02  38009076.052   199739055.222         621.752          32.000  
J03  38909114.768   204468664.336        -409.961          38.000  
> 2025 03 12 06 42 12.0000007  0 21                     
C07  35823224.748   186540686.456         199.775          38.000  
C09  38834386.664   202220649.7221      -1841.638          20.000  
C26  24685644.734   128544484.410        1949.309          31.000  
C29  21611578.266   112536989.269           3.923          31.000  
C35  24528784.626   127727680.182        2270.092          37.000  
C40  36076447.745   187859535.577         125.731          42.000  
C45  22565826.953   117506009.549       -1076.323          39.000  
E10  23892596.550   125556349.282       -1153.567          39.000  
E11  23705599.805   124573515.366         325.375          35.000  
E12  25296199.056   132932340.034       -2144.897          25.000  
E24  24952354.195   131125338.0551      -1988.594          14.000  
E25  23404688.222   122992533.140         523.537          35.000  
G01  21696356.875   114015034.732       -2488.569          35.000  
G02  23745793.279   124784959.185       -3018.604          30.000  
G03  21413100.969   112526476.343        1262.112          40.000  
G14  20019012.676   105200503.574        -323.301          42.000  
G17  20900296.975   109831776.003         779.063          46.000  
G19  22154363.004   116421848.992        2398.916          28.000  
G22  20919997.537   109935195.928        1091.220          40.000  
J02  38008956.097   199738421.420         620.467          31.000  
J03  38909190.878   204469062.237        -413.494          39.000  
> 2025 03 12 06 42 12.9999396  0 21                     
C07  35823185.625   186540473.700         200.777          37.000  
C09  38834740.269   202222478.0311      -1841.076          20.000  
C26  24685258.751   128542523.446        1947.578          30.000  
C29  21611586.510   112536971.868           5.072          30.000  
C35  24528347.079   127725397.612        2271.378          37.000  
C40  36076422.412   187859397.759         126.377          42.000  
C45  22566035.459   117507071.989       -1075.096          38.000  
E10  23892813.749   125557491.489       -1154.790          39.000  
E11  23705533.101   124573177.272         325.360          35.000  
E12  25296615.318   132934470.091       -2145.974          26.000  
E24  24952737.180   131127311.0971      -1988.399          14.000  
E25  23404576.249   122991995.337         523.423          35.000  
G01  21696829.497   114017509.545       -2488.959          33.000  
G02  23746370.530   124787962.391       -3017.253          30.000  
G03  21412859.786   112525200.474        1262.865          40.000  
G14  20019072.784   105200810.754        -320.597          42.000  
G17  20900145.730   109830981.493         782.585          46.000  
G19  22153921.259   116419437.004        2399.109          24.000  
G22  20919787.832   109934089.680        1093.758          40.000  
J02  38008836.030   199737788.116         619.810          30.000  
J03  38909268.074   204469458.354        -410.258          39.000  
> 2025 03 12 06 42 13.9998785  0 21                     
C07  35823144.178   186540259.529         198.447          36.000  
C09  38835091.551   202224303.8101      -1840.403          20.000  
C26  24684871.944   128540561.670        1947.717          30.000  
C29  21611595.429   112537248.308           5.446          30.000  
C35  24527907.208   127723112.614        2270.408          37.000  
C40  36076397.155   187859257.453         125.584          41.000  
C45  22566238.943   117508132.153       -1076.359          38.000  
E10  23893031.024   125558630.688       -1155.364          39.000  
E11  23705469.770   124572837.935         324.512          35.000  
E12  25297019.663   132936602.130       -2146.759          25.000  
E24  24953127.135   131129567.7231      -1989.044          15.000  
E25  23404464.351   122991457.433         522.563          35.000  
G01  21697306.392   114019983.578       -2487.902          33.000  
G02  23746946.956   124790965.408       -3018.039          32.000  
G03  21412618.977   112523924.315        1261.660          41.000  
G14  20019133.267   105201117.384        -322.236          42.000  
G17  20899994.860   109830185.315         780.807          46.000  
G19  22153477.192   116417307.5261       2398.962          19.000  
G22  20919576.703   109932982.460        1092.565          40.000  
J02  38008716.938   199737154.195         619.272          31.000  
J03  38909345.046   204469855.224        -412.457          39.000  
> 2025 03 12 06 42 14.9998175  0 21                     
C07  35823137.396   186540477.041         198.466          37.000  
C09  38835479.295   202226284.5821      -1842.068          20.000  
C26  24684515.303   128538756.940        1947.847          28.000  
C29  21611631.217   112537384.169           8.098          29.000  
C35  24527499.603   127720985.724        2268.432          38.000  
C40  36076400.565   187859275.598         123.905          42.000  
C45  22566471.394   117509351.104       -1077.283          38.000  
E10  23893280.564   125559929.460       -1156.124          39.000  
E11  23705436.905   124572658.077         323.876          34.000  
E12  25297451.776   132938892.075       -2147.367          25.000  
E24  24953549.355   131131701.0221      -1990.358          15.000  
E25  23404379.623   122991079.715         520.987          36.000  
G01  21697814.353   114022615.404       -2490.116          33.000  
G02  23747555.647   124794127.108       -3019.342          34.000  
G03  21412409.835   112522807.598        1260.111          41.000  
G14  20019223.318   105201584.632        -325.960          42.000  
G17  20899874.156   109829549.116         779.229          46.000  
G19  22153059.394   116415053.459        2398.116          21.000  
G22  20919396.341   109932035.253        1089.949          40.000  
J02  38008628.611   199736679.275         618.421          31.000  
J03  38909451.285   204470410.105        -412.707          38.000  
> 2025 03 12 06 42 15.9997564  0 21                     
C07  35823095.612   186540263.874         200.745          37.000  
C09  38835819.447   202228114.623       -1844.534          22.000  
C26  24684138.651   128536795.113        1946.231          26.000  
C29  21611637.400   112537360.746          10.208          29.000  
C35  24527062.993   127718702.955        2269.004          38.000  
C40  36076374.671   187859136.214         125.901          42.000  
C45  22566677.239   117510412.414       -1075.170          39.000  
E10  23893496.602   125561071.189       -1155.897          38.000  
E11  23705372.337   124572320.961         323.075          35.000  
E12  25297850.687   132941022.722       -2147.174          24.000  
E24  24953936.874   131133674.6001      -1990.503          20.000  
E25  23404267.688   122990256.902         521.267          37.000  
G01  21698282.816   114025088.231       -2486.248          35.000  
G02  23748130.536   124797130.175       -3019.248          32.000  
G03  21412170.488   112521532.512        1263.721          41.000  
G14  20019283.463   105201893.448        -322.484          42.000  
G17  20899723.547   109828755.109         782.238          46.000  
G19  22152606.894   116412640.782        2398.895          25.000  
G22  20919186.973   109930930.318        1093.594          41.000  
J02  38008509.182   199736046.385         618.411          29.000  
J03  38909528.519   204470807.724        -409.749          38.000  
> 2025 03 12 06 42 16.9996953  0 21                     
C07  35823055.889   186540050.059         201.200          37.000  
C09  38836166.456   202229944.192       -1844.062          23.000  
C26  24683769.757   128534836.153        1945.551          24.000  
C29  21611644.445   112537337.704          10.291          27.000  
C35  24526623.647   127716420.731        2269.461          38.000  
C40  36076347.839   187858996.764         126.240          42.000  
C45  22566884.546   117511474.639       -1078.787          40.000  
E10  23893715.900   125562211.333       -1155.737          39.000  
E11  23705315.527   124572274.223         323.393          35.000  
E12  25298259.454   132943155.220       -2146.077          25.000  
E24  24954318.660   131135651.9041      -1987.809          19.000  
E25  23404151.818   122989721.335         522.756          37.000  
G01  21698754.240   114027562.846       -2490.284          36.000  
G02  23748699.093   124800133.575       -3017.057          32.000  
G03  21411924.808   112520257.988        1259.578          40.000  
G14  20019343.272   105202203.117        -324.664          41.000  
G17  20899572.302   109827961.001         780.296          46.000  
G19  22152156.756   116410228.538        2399.456          26.000  
G22  20918979.367   109929825.874        1090.804          41.000  
J02  38008387.916   199735414.608         618.529          28.000  
J03  38909606.315   204471204.317        -411.485          39.000  
> 2025 03 12 06 42 17.9996342  0 21                     
C07  35823014.705   186539836.498         202.717          36.000  
C09  38836520.399   202231772.777       -1843.137          21.000  
C26  24683414.690   128532877.818        1946.265          24.000  
C29  21611645.232   112537315.530           7.713          25.000  
C35  24526185.538   127714137.778        2272.291          35.000  
C40  36076324.643   187858857.495         129.081          40.000  
C45  22567087.093   117512539.815       -1076.946          38.000  
E10  23893940.931   125563353.682       -1155.091          39.000  
E11  23705250.659   124571938.075         323.837          34.000  
E12  25298661.064   132945287.019       -2145.534          24.000  
E24  24954703.781   131137625.2241      -1991.203          18.000  
E25  23404036.885   122989184.726         523.607          36.000  
G01  21699225.701   114030037.438       -2487.728          35.000  
G02  23749270.385   124803136.829       -3014.566          31.000  
G03  21411683.363   112518985.092        1261.279          40.000  
G14  20019402.519   105202512.399        -323.559          41.000  
G17  20899422.893   109827167.342         781.738          45.000  
G19  22151698.261   116407815.859        2400.824          28.000  
G22  20918770.899   109928722.057        1091.848          42.000  
J02  38008269.085   199734782.841         619.394          28.000  
J03  38909682.050   204471600.897        -409.557          39.000  
> 2025 03 12 06 42 18.9995731  0 21                     
C07  35822971.198   186539619.620         198.794          35.000  
C09  38836869.919   202233599.497       -1842.383          22.000  
C26  24683053.103   128530915.364        1947.247          25.000  
C29  21611650.291   112537294.931           2.214          23.000  
C35  24525740.608   127711850.779        2270.033          33.000  
C40  36076299.123   187858715.195         123.869          40.000  
C45  22567293.313   117513601.264       -1078.791          38.000  
E10  23894146.851   125564492.791       -1156.455          37.000  
E11  23705185.267   124571598.718         322.578          34.000  
E12  25299068.444   132947416.426       -2146.736          23.000  
E24  24955078.484   131139600.7781      -1991.376          13.000  
E25  23403919.928   122988645.792         521.650          36.000  
G01  21699696.937   114032511.029       -2490.895          36.000  
G02  23749846.548   124806135.725       -3018.797          32.000  
G03  21411442.292   112517709.428        1258.884          40.000  
G14  20019463.339   105202821.084        -325.474          42.000  
G17  20899270.861   109826370.691         780.162          45.000  
G19  22151239.541   116405400.039        2399.664          32.000  
G22  20918563.405   109927615.519        1090.320          42.000  
J02  38008149.431   199734147.418         619.856          27.000  
J03  38909756.961   204471993.505        -410.950          39.000  
> 2025 03 12 06 42 19.9995121  0 21                     
C07  35822961.867   186539562.746         199.663          36.000  
C09  38837250.019   202235582.236       -1842.385          21.000  
C26  24682715.799   128529377.694        1946.199          27.000  
C29  21611688.627   112537733.864          -3.347          24.000  
C35  24525333.452   127709723.041        2270.071          34.000  
C40  36076304.482   187858732.161         126.356          41.000  
C45  22567529.212   117514820.734       -1079.624          38.000  
E10  23894391.744   125565791.878       -1156.953          37.000  
E11  23705153.151   124571419.757         322.462          35.000  
E12  25299503.406   132949705.716       -2146.993          21.000  
E24  24955484.965   131141734.9201      -1994.976          13.000  
E25  23403834.150   122987978.687         518.630          36.000  
G01  21700200.851   114035143.973       -2490.846          37.000  
G02  23750451.492   124809296.748       -3018.658          32.000  
G03  21411232.100   112516594.432        1258.122          41.000  
G14  20019554.738   105203288.200        -325.150          42.000  
G17  20899150.307   109825734.252         779.461          45.000  
G19  22150816.197   116403144.085        2399.389          32.000  
G22  20918385.890   109926668.592        1089.381          43.000  
J02  38008058.856   199733670.760         619.728          27.000  
J03  38909863.949   204472548.397        -411.197          40.000  
> 2025 03 12 06 42 20.9994510  0 22                     
C07  35822919.971   186539351.152         199.979          36.000  
C09  38837598.752   202237411.644       -1844.041          21.000  
C26  24682350.427   128527420.121        1945.271          28.000  
C29  21611702.792   112537725.805          -3.924          24.000  
C35  24524897.030   127707442.291        2268.051          34.000  
C40  36076279.074   187858595.056         125.028          41.000  
C45  22567734.345   117515887.698       -1078.051          40.000  
E10  23894612.766   125566936.480       -1158.012          37.000  
E11  23705091.169   124571086.093         322.231          35.000  
E12  25299908.500   132951839.396       -2147.142          23.000  
E16  23386635.731   122897600.0121       -786.723          10.000  
E24  24955861.879   131143714.8581      -1991.687          12.000  
E25  23403722.103   122987447.840         517.969          36.000  
G01  21700673.399   114037620.589       -2488.737          38.000  
G02  23751025.670   124812302.718       -3018.016          32.000  
G03  21410991.741   112515324.543        1259.517          41.000  
G14  20019616.570   105203602.135        -327.223          42.000  
G17  20899000.785   109824942.856         780.305          46.000  
G19  22150365.983   116400733.327        2399.557          30.000  
G22  20918178.209   109925567.246        1090.358          43.000  
J02  38007940.513   199733039.579         619.078          28.000  
J03  38909940.771   204472945.753        -409.903          39.000  
> 2025 03 12 06 42 22.0003899  0 21                     
C07  35822897.824   186539231.780         196.162          36.000  
C09  38837970.532   202239337.855       -1845.340          21.000  
C26  24682003.305   128525553.376        1943.803          29.000  
C29  21611728.312   112537811.059          -5.313          24.000  
C35  24524480.955   127705252.222        2266.698          35.000  
C40  36076271.917   187858549.908         122.619          41.000  
C45  22567955.330   117517049.167       -1084.020          39.000  
E10  23894848.740   125568175.885       -1158.864          38.000  
E11  23705048.037   124570845.932         319.333          35.000  
E12  25300330.346   132954069.301       -2148.207          22.000  
E24  24956264.538   131146055.6291      -1992.790          14.000  
E25  23403625.607   122987010.611         516.357          36.000  
G01  21701161.499   114040192.924       -2494.198          37.000  
G02  23751619.596   124815403.699       -3017.795          31.000  
G03  21410768.733   112514147.352        1252.371          41.000  
G14  20019695.453   105204009.839        -330.221          42.000  
G17  20898868.914   109824243.599         776.014          46.000  
G19  22149926.525   116398412.528        2397.912          26.000  
G22  20917987.579   109924558.576        1084.889          43.000  
J02  38007839.820   199732499.358         620.549          25.000  
J03  38910037.042   204473437.259        -414.532          40.000  
> 2025 03 12 06 42 23.0003288  0 21                     
C07  35822858.738   186539018.673         203.741          36.000  
C09  38838330.771   202241167.373       -1844.536          22.000  
C26  24681635.347   128523595.691        1943.777          29.000  
C29  21611734.495   112537801.278          -4.145          24.000  
C35  24524047.043   127702970.698        2269.680          34.000  
C40  36076246.022   187858411.477         128.382          41.000  
C45  22568158.776   117518116.670       -1080.855          40.000  
E10  23895065.078   125569320.618       -1158.780          38.000  
E11  23704983.769   124570512.449         320.379          35.000  
E12  25300743.647   132956201.089       -2147.830          21.000  
E24  24956648.759   131148032.9581      -1992.859          19.000  
E25  23403513.372   122986477.757         519.080          36.000  
G01  21701629.962   114042671.383       -2492.197          37.000  
G02  23752195.385   124818406.994       -3017.913          31.000  
G03  21410527.887   112512878.653        1256.243          40.000  
G14  20019755.899   105204323.318        -326.331          42.000  
G17  20898720.404   109823451.321         779.549          46.000  
G19  22149453.940   116396001.928        2393.003          24.000  
G22  20917778.811   109923457.160        1088.424          43.000  
J02  38007720.390   199731865.341         619.385          24.000  
J03  38910113.676   204473834.539        -411.411          40.000  
> 2025 03 12 06 42 24.0002677  0 21                     
C07  35822818.866   186538804.598         198.424          36.000  
C09  38838689.322   202242996.267       -1843.926          22.000  
C26  24681265.703   128521639.280        1943.899          30.000  
C29  21611745.587   112537791.258          -3.372          24.000  
C35  24523609.946   127700688.170        2269.496          35.000  
C40  36076219.640   187858271.936         124.753          41.000  
C45  22568366.832   117519183.734       -1083.852          40.000  
E10  23895290.822   125570463.481       -1158.426          38.000  
E11  23704922.611   124570178.562         320.146          34.000  
E12  25301154.962   132958335.768       -2148.022          21.000  
E24  24957023.500   131150012.551       -1993.084          20.000  
E25  23403396.753   122985679.656         517.776          35.000  
G01  21702099.137   114045149.750       -2493.420          37.000  
G02  23752769.188   124821410.251       -3017.716          31.000  
G03  21410287.454   112511610.360        1253.808          40.000  
G14  20019817.356   105204636.260        -328.549          42.000  
G17  20898572.607   109822659.697         777.819          47.000  
G19  22148981.467   116393594.479        2397.777          28.000  
G22  20917570.755   109922356.897        1086.463          43.000  
J02  38007602.872   199731233.867         618.586          23.000  
J03  38910190.723   204474232.016        -411.588          40.000  
> 2025 03 12 06 42 25.0002066  0 21                     
C07  35822777.832   186538589.162         199.844          36.000  
C09  38839038.318   202244824.207       -1843.501          21.000  
C26  24680894.597   128519680.208        1943.418          31.000  
C29  21611752.520   112538065.974          -2.261          24.000  
C35  24523173.485   127698404.272        2268.600          34.000  
C40  36076193.296   187858130.469         125.316          41.000  
C45  22568573.727   117520249.565       -1081.199          39.000  
E10  23895511.507   125571604.948       -1157.761          38.000  
E11  23704862.990   124569842.126         321.476          34.000  
E12  25301557.321   132960467.168       -2148.070          22.000  
E24  24957408.770   131151989.382       -1992.552          21.000  
E25  23403282.270   122985144.341         521.593          35.000  
G01  21702570.148   114047625.038       -2491.644          37.000  
G02  23753341.829   124824410.743       -3017.903          32.000  
G03  21410046.758   112510339.947        1256.068          40.000  
G14  20019878.851   105204949.873        -329.969          42.000  
G17  20898423.048   109821865.926         779.446          46.000  
G19  22148525.520   116391179.862        2399.284          30.000  
G22  20917361.537   109921254.552        1087.647          43.000  
J02  38007487.489   199730599.875         618.440          26.000  
J03  38910267.507   204474627.685        -411.039          40.000  
> 2025 03 12 06 42 26.0001455  0 21                     
C07  35822739.646   186538377.273         200.038          36.000  
C09  38839391.062   202246653.3421      -1842.305          20.000  
C26  24680522.143   128517725.626        1942.730          32.000  
C29  21611758.104   112538057.960          -2.718          24.000  
C35  24522735.676   127696123.286        2269.747          35.000  
C40  36076168.001   187857992.802         124.445          41.000  
C45  22568786.167   117521591.947       -1081.903          40.000  
E10  23895732.341   125572751.548       -1158.367          38.000  
E11  23704797.223   124569509.001         321.444          35.000  
E12  25301975.120   132962602.519       -2148.068          22.000  
E24  24957789.694   131153968.400       -1992.981          23.000  
E25  23403166.138   122984612.006         520.400          34.000  
G01  21703044.907   114050106.701       -2492.145          36.000  
G02  23753912.521   124827415.267       -3017.699          31.000  
G03  21409807.411   112509073.044        1255.401          41.000  
G14  20019939.897   105205266.557        -328.862          42.000  
G17  20898273.639   109821075.188         779.658          46.000  
G19  22148077.517   116388770.360        2398.276          32.000  
G22  20917154.268   109920155.934        1088.220          42.000  
J02  38007369.858   199729969.420         619.276          25.000  
J03  38910344.741   204475025.419        -409.431          40.000  
> 2025 03 12 06 42 27.0000845  0 21                     
C07  35822730.615   186538321.408         199.424          36.000  
C09  38839774.758   202248898.5711      -1843.214          19.000  
C26  24680180.042   128515925.909        1942.334          32.000  
C29  21611798.238   112538202.940          -3.381          24.000  
C35  24522328.220   127693998.120        2266.788          36.000  
C40  36076172.461   187858011.158         124.599          41.000  
C45  22569025.664   117522815.503       -1082.594          40.000  
E10  23895984.129   125574054.670       -1160.006          39.000  
E11  23704764.808   124569334.529         318.833          35.000  
E12  25302414.878   132964892.179       -2149.032          23.000  
E24  24958190.179   131156103.118       -1993.493          22.000  
E25  23403081.259   122984236.658         516.366          34.000  
G01  21703550.320   114052741.991       -2492.170          37.000  
G02  23754512.068   124830577.831       -3019.306          32.000  
G03  21409598.718   112507962.539        1254.655          42.000  
G14  20020031.596   105205739.602        -331.621          42.000  
G17  20898154.584   109820440.179         778.503          46.000  
G19  22147653.274   116386516.385        2398.276          32.000  
G22  20916976.454   109919213.015        1085.958          42.000  
J02  38007281.082   199729493.611         618.630          26.000  
J03  38910451.730   204475580.005        -411.325          40.000  
> 2025 03 12 06 42 28.0000234  0 21                     
C07  35822690.555   186538105.961         203.379          36.000  
C09  38840126.527   202250728.779       -1845.011          20.000  
C26  24679806.613   128514229.072        1944.783          32.000  
C29  21611807.045   112538191.951          -2.602          24.000  
C35  24521888.238   127691715.360        2270.951          36.000  
C40  36076146.791   187857869.644         129.773          41.000  
C45  22569233.532   117523883.088       -1080.344          39.000  
E10  23896202.491   125575197.152       -1157.395          39.000  
E11  23704705.262   124569000.679         320.640          34.000  
E12  25302821.808   132967027.106       -2146.885          25.000  
E24  24958566.232   131158083.360       -1990.198          20.000  
E25  23402967.150   122983421.946         514.674          34.000  
G01  21704025.903   114055217.799       -2490.472          36.000  
G02  23755081.787   124833578.802       -3014.143          33.000  
G03  21409360.795   112506693.843        1256.085          41.000  
G14  20020091.666   105206053.893        -328.435          41.000  
G17  20898005.699   109819646.896         780.862          46.000  
G19  22147186.309   116384104.303        2399.509          28.000  
G22  20916767.611   109918112.040        1089.002          42.000  
J02  38007163.975   199728860.833         619.930          28.000  
J03  38910529.488   204475973.834        -408.287          40.000  
> 2025 03 12 06 42 28.9999623  0 21                     
C07  35822653.680   186537890.086         200.200          36.000  
C09  38840476.985   202252553.643       -1841.226          21.000  
C26  24679426.176   128512271.028        1943.390          32.000  
C29  21611816.938   112538181.261          -2.790          26.000  
C35  24521452.039   127689430.959        2269.454          34.000  
C40  36076119.809   187857727.676         126.373          42.000  
C45  22569436.192   117524950.311       -1085.007          41.000  
E10  23896419.840   125576339.995       -1158.317          39.000  
E11  23704645.003   124568665.838         320.320          34.000  
E12  25303218.434   132969159.252       -2146.589          26.000  
E24  24958933.178   131160057.4181      -1991.058          17.000  
E25  23402859.225   122982891.925         516.492          33.000  
G01  21704497.177   114057692.327       -2491.635          35.000  
G02  23755649.294   124836579.076       -3016.352          33.000  
G03  21409117.664   112505425.953        1251.719          40.000  
G14  20020151.925   105206368.912        -332.235          40.000  
G17  20897855.503   109818853.341         777.601          46.000  
G19  22146662.572   116381690.510        2399.677          32.000  
G22  20916558.655   109917010.843        1085.047          42.000  
J02  38007049.455   199728226.523         620.420          30.000  
J03  38910608.933   204476368.817        -411.708          40.000  
> 2025 03 12 06 42 29.9999012  0 21                     
C07  35822614.258   186537673.559         199.827          36.000  
C09  38840837.785   202254380.468       -1843.997          22.000  
C26  24679038.695   128510312.563        1941.421          33.000  
C29  21611829.080   112538465.195          -3.917          26.000  
C35  24521016.591   127687146.112        2268.798          34.000  
C40  36076093.578   187857585.068         126.973          42.000  
C45  22569642.599   117526017.784       -1085.237          41.000  
E10  23896638.239   125577480.914       -1159.207          38.000  
E11  23704576.800   124568330.403         319.028          34.000  
E12  25303633.497   132971288.694       -2148.009          26.000  
E24  24959296.076   131162032.0831      -1994.730          15.000  
E25  23402742.756   122982357.778         517.919          32.000  
G01  21704971.598   114060169.010       -2495.263          36.000  
G02  23756217.850   124839579.324       -3019.696          33.000  
G03  21408874.382   112504158.678        1251.302          40.000  
G14  20020212.932   105206684.580        -331.206          40.000  
G17  20897704.857   109818059.860         778.148          46.000  
G19  22146207.037   116379275.678        2398.029          31.000  
G22  20916349.550   109915910.113        1085.074          42.000  
J02  38006933.285   199727590.781         619.333          29.000  
J03  38910686.130   204477035.255        -410.561          40.000  
> 2025 03 12 06 42 30.9998401  0 21                     
C07  35822574.423   186537460.481         199.758          36.000  
C09  38841191.578   202256209.885       -1842.539          23.000  
C26  24678658.295   128508358.816        1941.555          32.000  
C29  21611841.409   112538457.343          -3.055          26.000  
C35  24520580.131   127684864.935        2269.307          34.000  
C40  36076069.332   187857444.854         127.050          42.000  
C45  22569852.491   117527087.885       -1084.212          41.000  
E10  23896858.324   125578626.476       -1159.381          38.000  
E11  23704517.779   124567998.429         319.693          34.000  
E12  25304043.650   132973421.491       -2147.775          26.000  
E24  24959662.460   131164014.1461      -1994.766          15.000  
E25  23402632.470   122981826.189         519.720          32.000  
G01  21705446.807   114062649.950       -2492.408          37.000  
G02  23756789.292   124842582.304       -3016.659          34.000  
G03  21408633.686   112502894.010        1253.546          40.000  
G14  20020274.427   105207000.703        -329.451          40.000  
G17  20897554.999   109817268.702         780.525          46.000  
G19  22145743.596   116376865.034        2398.836          30.000  
G22  20916141.532   109914812.052        1087.014          41.000  
J02  38006815.204   199726958.648         619.903          28.000  
J03  38910762.914   204477430.570        -407.546          40.000  
> 2025 03 12 06 42 31.9997791  0 21                     
C07  35822565.167   186537400.814         198.809          36.000  
C09  38841575.949   202258192.917       -1843.366          23.000  
C26  24678311.773   128506558.455        1940.168          31.000  
C29  21611878.620   112538600.735          -4.576          27.000  
C35  24520176.048   127682737.004        2266.690          34.000  
C40  36076071.768   187857459.139         124.912          42.000  
C45  22570089.964   117528312.702       -1087.120          41.000  
E10  23897108.988   125579928.847       -1160.360          38.000  
E11  23704482.741   124567821.675         317.827          34.000  
E12  25304482.884   132975710.588       -2148.097          26.000  
E24  24960058.823   131166150.2161      -1995.164          15.000  
E25  23402541.670   122981448.611         518.277          31.000  
G01  21705949.296   114065283.506       -2495.063          37.000  
G02  23757391.912   124845742.248       -3018.442          34.000  
G03  21408422.970   112501784.810        1248.655          41.000  
G14  20020365.302   105207473.575        -335.674          40.000  
G17  20897435.119   109816632.908         775.259          46.000  
G19  22145303.238   116374608.689        2398.310          28.000  
G22  20915962.593   109913868.383        1082.427          41.000  
J02  38006724.105   199726481.020         619.118          27.000  
J03  38910869.978   204477981.125        -413.391          40.000  
> 2025 03 12 06 42 32.9997180  0 21                     
C07  35822526.493   186537191.259         198.443          36.000  
C09  38841925.207   202260023.292       -1843.519          22.000  
C26  24677934.934   128504607.099        1937.277          31.000  
C29  21611893.310   112538594.921          -4.990          27.000  
C35  24519741.049   127680725.946        2265.220          34.000  
C40  36076047.185   187857322.712         124.561          42.000  
C45  22570300.718   117529388.960       -1088.029          41.000  
E10  23897329.635   125581078.412       -1162.258          38.000  
E11  23704429.078   124567494.025         315.645          34.000  
E12  25304885.805   132977845.749       -2150.643          26.000  
E24  24960429.067   131168130.8461      -1997.181          15.000  
E25  23402428.948   122980594.126         514.371          31.000  
G01  21706422.969   114067765.327       -2495.981          38.000  
G02  23757966.315   124848748.248       -3019.656          35.000  
G03  21408185.834   112500524.698        1248.176          41.000  
G14  20020428.258   105208060.552        -335.758          40.000  
G17  20897286.722   109815845.430         775.905          46.000  
G19  22144850.551   116372199.979        2395.869          30.000  
G22  20915755.137   109912774.170        1081.876          41.000  
J02  38006603.888   199725851.921         616.572          26.000  
J03  38910947.324   204478380.263        -412.480          40.000  
> 2025 03 12 06 42 33.9996569  0 21                     
C07  35822485.797   186536976.419         204.497          36.000  
C09  38842276.639   202261851.534       -1843.854          23.000  
C26  24677559.968   128502653.443        1939.933          31.000  
C29  21611902.679   112538848.263          -0.725          27.000  
C35  24519304.626   127678445.419        2266.180          31.000  
C40  36076020.878   187857181.071         131.682          41.000  
C45  22570501.355   117530460.282       -1088.765          40.000  
E10  23897546.760   125582222.152       -1159.586          37.000  
E11  23704360.500   124567161.571         317.671          35.000  
E12  25305290.599   132979980.937       -2146.669          23.000  
E24  24960810.178   131170111.5021      -1992.792          14.000  
E25  23402318.999   122980064.800         512.128          33.000  
G01  21706896.116   114070508.932       -2489.034          37.000  
G02  23758538.693   124851749.140       -3011.765          33.000  
G03  21407946.375   112499258.796        1252.668          40.000  
G14  20020490.690   105208377.719        -334.865          39.000  
G17  20897138.100   109815052.597         777.679          47.000  
G19  22144401.837   116369789.544        2396.235          31.000  
G22  20915547.455   109911942.794        1082.536          41.000  
J02  38006486.444   199725219.235         618.093          25.000  
J03  38911023.247   204478773.882        -408.770          38.000  
> 2025 03 12 06 42 34.9995958  0 21                     
C07  35822445.999   186536760.215         200.004          37.000  
C09  38842629.869   202263680.972       -1843.755          20.000  
C26  24677183.204   128500698.536        1940.047          32.000  
C29  21611913.846   112538832.434           2.810          25.000  
C35  24518866.704   127676167.152        2263.222          30.000  
C40  36075994.271   187857035.260         131.141          40.000  
C45  22570707.987   117531537.747       -1094.748          38.000  
E10  23897762.386   125583361.637       -1155.949          37.000  
E11  23704298.818   124566830.699         316.078          36.000  
E12  25305699.291   132982111.8691      -2139.041          18.000  
E24  24961173.901   131172091.052       -1995.210          20.000  
E25  23402205.453   122979539.083         512.879          33.000  
G01  21707368.064   114072980.579       -2482.980          36.000  
G02  23759110.473   124854740.574       -3005.850          30.000  
G03  21407706.616   112498256.754        1252.470          41.000  
G14  20020552.822   105208699.199        -338.035          41.000  
G17  20896988.578   109814260.503         777.790          47.000  
G19  22143945.628   116367382.058        2390.667          34.000  
G22  20915340.673   109910846.687        1081.091          40.000  
J02  38006365.103   199724586.594         618.476          34.000  
J03  38911097.970   204479167.393        -408.326          40.000  
> 2025 03 12 06 42 35.9995348  0 21                     
C07  35822435.881   186536700.862         199.337          37.000  
C09  38843010.381   202265665.830       -1858.983          26.000  
C26  24676841.815   128498900.085        1940.166          31.000  
C29  21611944.500   112538969.708           5.028          22.000  
C35  24518462.059   127674050.238        2254.910          33.000  
C40  36075997.044   187857046.249         129.146          39.000  
C45  22570947.895   117532774.486       -1098.773          38.000  
E10  23898011.588   125584658.801       -1156.389          39.000  
E11  23704267.714   124566658.931         314.031          37.000  
E12  25306131.667   132984392.440       -2138.729          28.000  
E24  24961568.203   131173925.938       -1998.964          28.000  
E25  23402126.682   122979167.576         513.437          33.000  
G01  21707868.193   114075604.750       -2483.119          36.000  
G02  23759711.332   124857888.684       -3005.671          34.000  
G03  21407498.335   112497148.152        1250.202          41.000  
G14  20020646.133   105209179.061        -338.653          42.000  
G17  20896868.736   109813625.111         779.261          47.000  
G19  22143517.599   116365135.672        2389.021          33.000  
G22  20915163.871   109909908.121        1081.913          38.000  
J02  38006271.643   199724110.894         617.624          35.000  
J03  38911202.672   204479717.459        -409.095          40.000  
> 2025 03 12 06 42 36.9994737  0 21                     
C07  35822396.983   186536485.769         203.146          36.000  
C09  38843365.710   202267511.583       -1859.627          28.000  
C26  24676459.655   128496944.891        1944.617          33.000  
C29  21611966.759   112538951.877           6.335          28.000  
C35  24518029.234   127671781.082        2259.697          35.000  
C40  36075971.037   187856902.372         132.101          37.000  
C45  22571153.928   117533857.380       -1096.099          43.000  
E10  23898230.212   125585801.105       -1154.704          41.000  
E11  23704209.030   124566331.769         315.013          37.000  
E12  25306526.569   132986515.836       -2138.037          34.000  
E24  24961932.526   131175914.324       -2001.887          37.000  
E25  23402014.335   122978643.154         510.032          32.000  
G01  21708338.043   114078075.301       -2484.054          42.000  
G02  23760279.213   124860877.833       -3006.776          41.000  
G03  21407260.075   112495884.827        1249.085          37.000  
G14  20020710.363   105209506.380        -339.097          42.000  
G17  20896719.515   109812832.301         782.070          44.000  
G19  22143061.990   116362733.923        2390.659          32.000  
G22  20914957.089   109908813.249        1084.367          41.000  
J02  38006151.801   199723481.780         616.454          34.000  
J03  38911278.295   204480113.080        -408.777          39.000  
> 2025 03 12 06 42 38.0004125  0 20                     
C07  35822343.807   186536205.946         203.943          36.000  
C09  38843712.457   202269296.129       -1858.314          27.000  
C26  24676062.917   128494919.665        1950.886          35.000  
C29  21611971.144   112539204.334           4.316          32.000  
C35  24517579.433   127669439.657        2267.558          35.000  
C40  36075932.252   187856693.558         132.260          37.000  
C45  22571349.880   117534875.658       -1092.637          44.000  
E10  23898437.556   125586880.082       -1154.033          40.000  
E11  23704133.070   124565940.195         315.845          37.000  
E12  25306923.981   132988579.140       -2137.309          36.000  
E24  24962300.259   131177841.745       -2003.486          39.000  
E25  23401888.310   122977753.259         516.942          34.000  
G01  21708796.313   114080485.109       -2483.635          43.000  
G02  23760837.614   124863806.908       -3006.041          40.000  
G03  21407011.434   112494562.291        1241.817          34.000  
G14  20020760.916   105209767.114        -338.598          41.000  
G17  20896557.514   109811972.920         785.479          44.000  
G22  20914736.929   109907652.311        1087.144          43.000  
J02  38006017.981   199722791.883         612.452          36.000  
J03  38911342.938   204480446.059        -407.986          39.000  
> 2025 03 12 06 42 39.0003515  0 21                     
C07  35822334.401   186536143.013         203.489          36.000  
C09  38844094.281   202271293.871       -1855.840          30.000  
C26  24675719.842   128493109.432        1952.624          32.000  
C29  21612007.306   112539339.043           6.509          35.000  
C35  24517171.903   127667311.831        2271.140          34.000  
C40  36075937.236   187856702.901         131.732          34.000  
C45  22571586.303   117536110.342       -1092.549          44.000  
E10  23898684.772   125588176.333       -1156.448          38.000  
E11  23704102.679   124565767.390         314.997          38.000  
E12  25307360.366   132990858.826       -2138.931          36.000  
E24  24962708.464   131179990.645       -2006.632          37.000  
E25  23401799.759   122977378.066         518.335          34.000  
G01  21709297.753   114083113.576       -2490.596          42.000  
G02  23761437.686   124866956.949       -3012.045          41.000  
G03  21406803.866   112493465.754        1237.202          36.000  
G14  20020853.139   105210249.529        -341.075          44.000  
G17  20896436.885   109811330.533         784.978          41.000  
G19  22142133.907   116357698.5801       2406.733          45.000  
G22  20914559.339   109906708.586        1085.078          42.000  
J02  38005927.931   199722323.712         608.548          38.000  
J03  38911449.851   204480999.252        -413.080          37.000  
> 2025 03 12 06 42 40.0002904  0 22                     
C07  35822294.192   186535930.299         203.771          35.000  
C09  38844452.195   202273134.960       -1853.731          31.000  
C26  24675342.666   128491147.169        1951.251          30.000  
C29  21612012.965   112539325.324           0.687          35.000  
C35  24516735.367   127665027.257        2276.830          33.000  
C40  36075910.517   187856563.085         129.014          36.000  
C45  22571794.322   117537188.432       -1088.767          47.000  
E10  23898905.682   125589597.334       -1161.021          37.000  
E11  23704044.781   124565442.684         314.296          37.000  
E12  25307768.347   132992991.888       -2146.801          34.000  
E16  23388890.958   122909451.6341       -776.368           6.000  
E24  24963095.459   131181991.259       -2012.639          36.000  
E25  23401692.995   122976848.764         517.106          30.000  
G01  21709771.988   114085597.131       -2496.359          41.000  
G02  23762011.152   124869961.185       -3015.857          38.000  
G03  21406567.891   112492220.885        1231.503          39.000  
G14  20020916.658   105210578.452        -341.841          45.000  
G17  20896286.952   109810536.260         783.141          43.000  
G19  22141668.592   116355280.299        2409.409          44.000  
G22  20914351.845   109905612.939        1085.268          43.000  
J02  38005810.075   199721707.011         604.108          36.000  
J03  38911528.060   204481402.624        -418.650          33.000  
> 2025 03 12 06 42 41.0002293  0 22                     
C07  35822252.820   186535709.490         203.689          35.000  
C09  38844805.351   202274969.988       -1847.010          31.000  
C26  24674962.229   128489173.892        1961.255          33.000  
C29  21612018.361   112539306.545           4.087          31.000  
C35  24516294.373   127662731.671        2282.612          31.000  
C40  36075884.435   187856417.629         130.072          33.000  
C45  22572002.678   117538258.869       -1086.051          46.000  
E10  23899121.233   125590741.514       -1161.536          38.000  
E11  23703978.527   124565111.400         315.058          37.000  
E12  25308178.762   132995126.085       -2144.697          28.000  
E16  23389031.560   122910210.6151       -776.063          10.000  
E24  24963472.897   131183985.895       -2010.059          32.000  
E25  23401580.273   122976317.324         512.730          32.000  
G01  21710245.660   114088075.731       -2498.621          37.000  
G02  23762582.856   124872959.671       -3019.833          35.000  
G03  21406331.655   112490976.039        1224.934          39.000  
G14  20020979.015   105210902.527        -339.575          45.000  
G17  20896135.556   109809734.157         786.634          41.000  
G19  22141207.211   116352851.777        2411.217          41.000  
G22  20914142.890   109904509.010        1087.649          43.000  
J02  38005691.058   199721086.151         604.218          35.000  
J03  38911606.605   204481805.537        -418.675          36.000  
> 2025 03 12 06 42 42.0001682  0 22                     
C07  35822212.723   186535494.034         202.961          34.000  
C09  38845157.382   202276799.702       -1839.888          30.000  
C26  24674583.966   128487200.421        1961.672          33.000  
C29  21612027.130   112539288.951           5.985          27.000  
C35  24515857.350   127660436.079        2284.415          28.000  
C40  36075859.927   187856276.856         127.633          29.000  
C45  22572211.408   117539328.818       -1080.908          41.000  
E10  23899345.552   125591894.518       -1164.823          36.000  
E11  23703918.344   124564784.032         315.451          37.000  
E12  25308589.553   132997535.593       -2147.959          22.000  
E16  23389172.238   122910973.3351       -776.015          12.000  
E24  24963857.906   131185983.004       -2013.693          35.000  
E25  23401461.330   122975509.742         514.413          34.000  
G01  21710719.407   114090564.382       -2503.050          34.000  
G02  23763159.132   124876243.643       -3026.290          35.000  
G03  21406096.693   112489737.904        1225.435          37.000  
G14  20021042.945   105211227.641        -340.105          43.000  
G17  20895984.836   109808934.682         786.855          42.000  
G19  22140754.000   116350434.422        2395.513          39.000  
G22  20913934.010   109903407.481        1089.110          43.000  
J02  38005574.813   199720470.691         602.206          36.000  
J03  38911684.326   204482208.509        -418.593          37.000  
> 2025 03 12 06 42 43.0001071  0 22                     
C07  35822171.239   186535276.798         204.225          35.000  
C09  38845509.226   202278622.628       -1838.654          27.000  
C26  24674208.214   128485225.827        1959.414          31.000  
C29  21612031.814   112539268.660           5.716          24.000  
C35  24515417.142   127658136.980        2281.996          25.000  
C40  36075840.028   187856136.710         123.980          25.000  
C45  22572419.052   117540396.530       -1083.334          39.000  
E10  23899567.886   125593045.497       -1167.218          36.000  
E11  23703857.673   124564456.101         313.515          37.000  
E12  25309007.651   132999666.7171      -2144.836          18.000  
E16  23389310.030   122911733.2361       -776.463          15.000  
E24  24964238.530   131187986.929       -2017.605          37.000  
E25  23401345.798   122974978.471         519.131          34.000  
G01  21711196.564   114093054.315       -2509.245          29.000  
G02  23763733.422   124879255.746       -3029.123          35.000  
G03  21405862.143   112488501.389        1220.383          37.000  
G14  20021106.389   105211554.090        -341.111          44.000  
G17  20895833.628   109808133.164         788.263          43.000  
G19  22140305.098   116348027.621        2394.962          36.000  
G22  20913725.242   109902304.365        1089.760          43.000  
J02  38005461.079   199719856.092         599.391          35.000  
J03  38911762.460   204482613.936        -422.757          34.000  
> 2025 03 12 06 42 44.0000460  0 22                     
C07  35822130.543   186535058.989         203.525          36.000  
C09  38845865.754   202280448.700       -1839.639          25.000  
C26  24673830.250   128483249.438        1965.973          31.000  
C29  21612036.986   112539547.028           4.514          25.000  
C35  24514977.422   127655840.494        2283.336          22.000  
C40  36075818.218   187855999.491         122.692          25.000  
C45  22572626.583   117541465.164       -1081.224          40.000  
E10  23899792.206   125594200.276       -1167.944          35.000  
E11  23703795.991   124564127.857         314.593          37.000  
E12  25309421.440   133001795.9711      -2143.977          20.000  
E16  23389442.613   122912495.459        -777.130          22.000  
E24  24964619.641   131189991.679       -2020.297          37.000  
E25  23401234.650   122974444.400         520.534          34.000  
G01  21711674.808   114095548.876       -2511.114          24.000  
G02  23764310.598   124882270.747       -3016.285          29.000  
G03  21405628.080   112487268.018        1218.058          36.000  
G14  20021170.320   105211880.548        -342.334          43.000  
G17  20895682.308   109807330.669         788.768          42.000  
G19  22139852.786   116345612.224        2407.061          36.000  
G22  20913516.661   109901200.552        1090.031          42.000  
J02  38005347.533   199719243.455         597.166          34.000  
J03  38911841.080   204483022.382        -423.044          30.000  
> 2025 03 12 06 42 44.9999850  0 22                     
C07  35822119.862   186534997.132         203.129          35.000  
C09  38846247.802   202282429.108       -1840.784          27.000  
C26  24673485.002   128481425.989        1963.343          30.000  
C29  21612069.775   112539684.807           1.537          24.000  
C35  24514569.517   127653698.211        2284.622          20.000  
C40  36075826.425   187856294.649         123.905          26.000  
C45  22572862.333   117542686.839       -1081.672          39.000  
E10  23900040.246   125595510.479       -1169.177          34.000  
E11  23703765.525   124563956.741         313.606          37.000  
E12  25309863.746   133004081.6501      -2143.138          19.000  
E16  23389569.538   122913017.240        -779.362          39.000  
E24  24965034.966   131192154.897       -2021.732          38.000  
E25  23401150.221   122974065.320         522.841          34.000  
G01  21712190.563   114098202.9591      -2512.158          19.000  
G02  23764914.492   124885428.414       -3015.702          24.000  
G03  21405424.933   112486194.137        1214.994          35.000  
G14  20021263.668   105212365.219        -342.390          44.000  
G17  20895560.704   109806685.267         787.918          42.000  
G19  22139424.795   116343348.538        2408.521          33.000  
G22  20913337.798   109900253.348        1089.787          42.000  
J02  38005264.003   199718789.183         596.964          35.000  
J03  38911948.519   204483587.221        -421.823          28.000  
> 2025 03 12 06 42 45.9999239  0 22                     
C07  35822079.878   186534780.668         204.699          34.000  
C09  38846601.145   202284254.356       -1840.759          26.000  
C26  24673112.847   128479451.157        1960.735          27.000  
C29  21612076.558   112539671.836          -1.171          25.000  
C35  24514135.904   127651399.5681       2286.989          18.000  
C40  36075799.931   187856157.229         124.995          26.000  
C45  22573069.677   117543753.381       -1081.598          37.000  
E10  23900262.280   125596665.398       -1168.495          32.000  
E11  23703704.554   124563630.137         313.932          37.000  
E12  25310269.552   133006210.3871      -2144.036          19.000  
E16  23389722.020   122913782.976        -779.745          42.000  
E24  24965420.387   131194162.522       -2021.961          38.000  
E25  23401037.986   122973528.187         525.382          33.000  
G01  21712674.316   114100700.6381      -2512.232          15.000  
G02  23765489.382   124888431.4871      -3017.976          19.000  
G03  21405191.582   112484965.740        1215.404          34.000  
G14  20021327.711   105212694.267        -343.125          43.000  
G17  20895409.497   109805883.787         788.054          42.000  
G19  22138960.904   116340919.772        2423.520          31.000  
G22  20913129.629   109899150.911        1088.761          41.000  
J02  38005148.770   199718179.758         596.521          36.000  
J03  38912027.551   204483994.680        -421.846          27.000  
> 2025 03 12 06 42 46.9998628  0 22                     
C07  35822038.581   186534561.925         204.082          35.000  
C09  38846953.176   202286080.904       -1840.963          24.000  
C26  24672735.183   128477477.023        1961.705          25.000  
C29  21612084.728   112539659.295          -0.944          24.000  
C35  24513698.882   127649098.2071       2288.735          17.000  
C40  36075772.425   187856017.683         126.627          27.000  
C45  22573276.308   117544820.022       -1081.024          37.000  
E10  23900484.501   125597816.934       -1168.668          33.000  
E11  23703644.971   124563302.718         313.134          37.000  
E12  25310677.645   133008338.4371      -2142.912          19.000  
E16  23389869.293   122914546.762        -779.941          42.000  
E24  24965804.795   131196171.278       -2022.958          33.000  
E25  23400922.941   122972680.063         526.148          33.000  
G01  21713161.853   114103180.085       -2493.299          23.000  
G02  23766072.253   124891434.1731      -3019.778          18.000  
G03  21404959.018   112483737.498        1212.513          36.000  
G14  20021391.342   105213020.091        -341.271          43.000  
G17  20895257.577   109805078.720         791.352          42.000  
G19  22138493.902   116338478.169        2430.707          31.000  
G22  20912920.449   109898045.680        1091.704          41.000  
J02  38005033.126   199717568.301         597.101          36.000  
J03  38912104.373   204484401.458        -420.561          28.000  
> 2025 03 12 06 42 47.9998017  0 22                     
C07  35821998.709   186534342.098         203.329          35.000  
C09  38847306.632   202287905.192       -1841.159          21.000  
C26  24672349.051   128475499.578        1968.020          24.000  
C29  21612094.921   112539646.271          -1.992          26.000  
C35  24513259.686   127646793.5731       2289.686          16.000  
C40  36075747.242   187855875.688         126.225          28.000  
C45  22573482.566   117545882.561       -1081.828          37.000  
E10  23900703.350   125598971.519       -1170.982          32.000  
E11  23703582.614   124562973.882         313.183          37.000  
E12  25311073.671   133010464.310       -2147.178          25.000  
E16  23390016.791   122915311.160        -780.701          43.000  
E24  24966193.027   131198178.900       -2024.021          28.000  
E25  23400811.718   122972136.473         528.855          33.000  
G01  21713649.616   114105998.098       -2495.290          29.000  
G02  23766655.949   124894442.2301      -3026.343          15.000  
G03  21404726.079   112482510.656        1209.154          38.000  
G14  20021455.197   105213346.182        -343.102          44.000  
G17  20895106.181   109804273.817         789.435          43.000  
G19  22138026.226   116336033.608        2426.632          31.000  
G22  20912711.793   109896940.657        1090.787          41.000  
J02  38004916.206   199716957.015         596.026          36.000  
J03  38912181.120   204484804.386        -419.502          27.000  
> 2025 03 12 06 42 48.9997407  0 22                     
C07  35821988.366   186534280.456         205.153          36.000  
C09  38847689.617   202289887.7791      -1841.356          19.000  
C26  24671991.248   128473674.002        1969.521          26.000  
C29  21612134.043   112540052.418          -1.293          27.000  
C35  24512854.516   127644646.4211       2289.646          16.000  
C40  36075750.690   187855892.361         125.775          30.000  
C45  22573716.854   117547104.153       -1080.048          37.000  
E10  23900957.124   125600285.472       -1170.803          30.000  
E11  23703550.086   124562804.357         313.827          37.000  
E12  25311507.321   133012754.641       -2147.068          27.000  
E16  23390194.118   122916236.102        -780.225          43.000  
E24  24966612.286   131200345.757       -2024.484          24.000  
E25  23400730.324   122971753.560         523.666          33.000  
G01  21714168.107   114108634.766       -2495.356          33.000  
G02  23767276.369   124897880.1801      -3032.117          15.000  
G03  21404525.368   112481446.461        1206.701          40.000  
G14  20021549.182   105213832.481        -342.531          44.000  
G17  20894984.016   109803627.367         790.760          43.000  
G19  22137594.075   116333753.613        2421.206          28.000  
G22  20912533.867   109895993.652        1091.107          42.000  
J02  38004830.316   199716505.043         596.003          37.000  
J03  38912289.195   204485367.710        -420.550          26.000  
> 2025 03 12 06 42 49.9996796  0 22                     
C07  35821948.981   186534062.082         203.424          36.000  
C09  38848041.161   202291714.3851      -1842.025          16.000  
C26  24671606.502   128471689.810        1969.754          28.000  
C29  21612146.822   112540040.304          -1.586          28.000  
C35  24512416.107   127642341.8181       2290.429          15.000  
C40  36075722.097   187855752.786         124.104          30.000  
C45  22573922.699   117548176.681       -1082.291          37.000  
E10  23901180.957   125601441.807       -1172.447          30.000  
E11  23703491.214   124562478.044         311.800          37.000  
E12  25311914.326   133014886.076       -2146.665          27.000  
E16  23390339.705   122917003.264        -782.500          44.000  
E24  24966999.806   131202353.6251      -2023.398          18.000  
E25  23400618.089   122971219.714         503.829          33.000  
G01  21714659.354   114111116.258       -2498.363          36.000  
G02  23767862.651   124900897.9241      -3032.235          16.000  
G03  21404294.116   112480224.565        1206.701          40.000  
G14  20021613.226   105214161.743        -345.513          44.000  
G17  20894832.209   109802822.957         789.443          43.000  
G19  22137130.483   116331320.495        2416.768          27.000  
G22  20912324.199   109894889.371        1088.495          41.000  
J02  38004715.983   199715896.092         591.756          36.000  
J03  38912366.129   204485772.345        -422.705          27.000  
> 2025 03 12 06 42 50.9996185  0 21                     
C07  35821909.033   186533846.899         204.530          36.000  
C09  38848396.640   202293542.1411      -1842.236          16.000  
C26  24671226.290   128469707.344        1969.582          30.000  
C29  21612155.741   112540029.513          -2.118          28.000  
C40  36075696.540   187855616.711         123.035          31.000  
C45  22574128.581   117549241.712       -1076.982          35.000  
E10  23901406.326   125602602.330       -1172.659          28.000  
E11  23703428.183   124562153.496         312.148          37.000  
E12  25312321.370   133017017.992       -2145.362          28.000  
E16  23390488.627   122917771.923        -782.942          44.000  
E24  24967395.757   131204364.2511      -2023.522          16.000  
E25  23400510.389   122970701.612         506.526          31.000  
G01  21715141.046   114113604.486       -2500.845          38.000  
G02  23768445.073   124903916.1101      -2984.450          15.000  
G03  21404062.601   112479005.982        1203.555          41.000  
G14  20021677.606   105214491.323        -344.284          44.000  
G17  20894680.439   109802286.731         790.049          43.000  
G19  22136668.129   116328892.520        2427.754          26.000  
G22  20912115.169   109893786.375        1089.930          41.000  
J02  38004601.687   199715290.151         594.126          36.000  
J03  38912444.900   204486181.988        -425.293          29.000  
> 2025 03 12 06 42 51.9995574  0 22                     
C07  35821867.662   186533627.067         203.828          36.000  
C09  38848742.900   202295348.2411      -1821.404          15.000  
C26  24670847.053   128467722.240        1970.146          32.000  
C29  21612163.835   112540015.869          -1.889          29.000  
C35  24511755.290   127639141.5741       2289.059           6.000  
C40  36075668.659   187855478.194         123.479          32.000  
C45  22574334.538   117550301.088       -1087.932          28.000  
E10  23901631.470   125603757.808       -1175.351          27.000  
E11  23703367.625   124561826.052         311.733          38.000  
E12  25312732.085   133019146.063       -2145.345          24.000  
E16  23390636.125   122918536.615        -782.689          44.000  
E24  24967787.286   131206368.7821      -2016.717          11.000  
E25  23400398.866   122970177.723         511.979          31.000  
G01  21715553.260   114116088.441       -2500.848          37.000  
G02  23769018.276   124906882.693       -2984.751          21.000  
G03  21403831.461   112477786.128        1204.704          42.000  
G14  20021741.162   105214818.622        -344.093          44.000  
G17  20894529.343   109801480.536         790.382          43.000  
G19  22136204.649   116326451.778        2420.979          26.000  
G22  20911905.614   109892679.503        1091.117          41.000  
J02  38004486.866   199714679.661         594.610          33.000  
J03  38912523.446   204486592.780        -425.242          31.000  
> 2025 03 12 06 42 52.9994963  0 21                     
C07  35821826.853   186533411.185         204.827          36.000  
C09  38849092.121   202297157.1351      -1825.400          16.000  
C26  24670469.277   128465741.022        1969.318          31.000  
C29  21612172.492   112540004.812          -2.308          29.000  
C35  24511313.358   127636838.9641       2289.325          10.000  
C40  36075642.540   187855342.374         124.955          34.000  
C45  22574545.855   117551375.480       -1087.400          26.000  
E10  23901852.379   125604919.621       -1170.450          28.000  
E11  23703307.929   124561501.845         311.640          38.000  
E12  25313142.763   133021278.8011      -2145.981          19.000  
E16  23390783.885   122919306.040        -782.744          44.000  
E24  24968173.980   131208639.9131      -2023.663          11.000  
E25  23400281.909   122969311.837         525.340          30.000  
G02  23769593.540   124909853.849       -2988.485          23.000  
G03  21403601.782   112476570.131        1203.052          42.000  
G14  20021805.580   105215149.347        -345.262          44.000  
G17  20894377.311   109800678.930         789.247          42.000  
G19  22135745.030   116324023.121        2412.923          25.000  
G22  20911696.621   109891577.150        1089.716          42.000  
J02  38004372.608   199714071.373         596.335          28.000  
J03  38912604.352   204487004.418        -426.730          32.000  
> 2025 03 12 06 42 54.0004352  0 22                     
C07  35821803.919   186533288.745         204.120          35.000  
C09  38849456.518   202299075.314       -1834.739          24.000  
C26  24670110.875   128463852.592        1968.502          30.000  
C29  21612196.925   112540380.655          -3.233          29.000  
C35  24510891.700   127634628.2691       2289.935           8.000  
C40  36075634.296   187855299.773         124.500          35.000  
C45  22574773.847   117552545.146       -1088.359          23.000  
E10  23902098.959   125606164.557       -1160.025          32.000  
E11  23703264.009   124561272.206         311.874          38.000  
E12  25313576.413   133023508.1581      -2167.759          17.000  
E16  23390949.220   122920171.990        -783.043          44.000  
E24  24968582.448   131210747.8631      -2027.129          11.000  
E25  23400183.428   122968864.512         513.950          30.000  
G01  21716524.700   114121187.7771      -2518.144          37.000  
G02  23770186.979   124912929.360       -2990.333          23.000  
G03  21403389.379   112475450.719        1200.552          41.000  
G14  20021887.873   105215579.848        -345.780          44.000  
G17  20894243.754   109799972.951         789.245          42.000  
G19  22135228.338   116321409.946        2425.189          24.000  
G22  20911505.503   109890570.172        1090.006          42.000  
J02  38004276.225   199713557.720         596.020          23.000  
J03  38912703.134   204487514.034        -427.107          32.000  
> 2025 03 12 06 42 55.0003741  0 22                     
C07  35821763.746   186533071.731         202.988          36.000  
C09  38849804.877   202300893.308       -1833.249          21.000  
C26  24669733.736   128461870.234        1966.793          31.000  
C29  21612204.720   112540370.767          -4.305          29.000  
C35  24510453.404   127632323.4391       2290.072           7.000  
C40  36075613.610   187855160.375         127.545          39.000  
C45  22574981.903   117553619.760       -1091.852          20.000  
E10  23902319.606   125607314.128       -1164.007          37.000  
E11  23703203.151   124560947.963         310.279          39.000  
E12  25313994.923   133025941.437       -2169.664          26.000  
E16  23391097.318   122920942.068        -784.707          44.000  
E24  24968975.176   131212759.6811      -2026.757          17.000  
E25  23400067.108   122968331.042         522.942          30.000  
G01  21717002.869   114123680.709       -2504.321          38.000  
G02  23770754.487   124915905.915       -2995.781          25.000  
G03  21403159.439   112474237.746        1198.200          41.000  
G14  20021952.328   105215911.786        -347.497          44.000  
G17  20894092.958   109799171.083         787.120          42.000  
G19  22134774.152   116318970.066        2426.994          28.000  
G22  20911296.848   109889467.181        1088.369          43.000  
J02  38004161.404   199713215.5061        596.239          19.000  
J03  38912783.778   204487925.101        -425.655          33.000  
> 2025 03 12 06 42 56.0003130  0 21                     
C07  35821724.324   186533118.074         206.285          36.000  
C09  38850155.185   202302709.7011      -1834.414          18.000  
C26  24669356.747   128459888.811        1967.069          30.000  
C29  21612215.362   112540359.907          -3.027          29.000  
C35  24510012.559   127630017.9181       2290.097           6.000  
C40  36075589.177   187855017.142         129.495          41.000  
C45  22575188.610   117554704.359       -1100.652          20.000  
E10  23902541.602   125608464.758       -1167.005          38.000  
E11  23703143.043   124560622.313         311.520          38.000  
E12  25314404.290   133028095.808       -2169.154          29.000  
E16  23391244.066   122921710.238        -783.220          44.000  
E24  24969367.754   131214770.7401      -2030.058          16.000  
E25  23399947.041   122967792.301         524.854          31.000  
G01  21717478.190   114126175.846       -2512.080          39.000  
G03  21402929.947   112473022.923        1204.475          41.000  
G14  20022016.334   105216241.161        -345.364          44.000  
G17  20893941.413   109798368.363         790.140          41.000  
G19  22134318.917   116316528.795        2427.371          29.000  
G22  20911087.743   109888362.927        1091.507          42.000  
J02  38004046.733   199712604.3231        596.590          17.000  
J03  38912863.073   204488335.233        -423.279          33.000  
> 2025 03 12 06 42 57.0002520  0 22                     
C07  35821712.332   186533053.976         205.522          36.000  
C09  38850536.821   202304687.5031      -1835.835          17.000  
C26  24669002.992   128458063.500        1968.496          30.000  
C29  21612254.935   112540505.483          -1.830          30.000  
C35  24509603.642   127627868.9501       2290.713           7.000  
C40  36075592.475   187855030.043         126.562          39.000  
C45  22575430.542   117555945.9981      -1102.125          16.000  
E10  23902790.130   125609774.416       -1167.251          40.000  
E11  23703112.764   124560453.534         312.509          39.000  
E12  25314846.484   133030406.552       -2165.945          27.000  
E16  23391422.743   122922634.388        -782.092          45.000  
E24  24969779.069   131216943.3421      -2029.595          11.000  
E25  23399858.602   122967086.904         523.463          30.000  
G01  21717986.938   114128826.535       -2507.362          39.000  
G02  23771928.924   124922069.9841      -3031.875          34.000  
G03  21402729.086   112471962.214        1204.092          42.000  
G14  20022110.769   105216728.512        -345.686          43.000  
G17  20893819.397   109797721.353         790.430          42.000  
G19  22133890.814   116314245.301        2428.467          30.000  
G22  20910908.767   109887415.349        1090.581          42.000  
J02  38003961.592   199712151.2251        596.815          15.000  
J03  38912973.097   204488896.355        -415.489          34.000  
> 2025 03 12 06 42 58.0001909  0 22                     
C07  35821671.148   186532836.202         204.914          36.000  
C09  38850888.964   202306773.1721      -1836.616          16.000  
C26  24668618.546   128456083.104        1966.793          31.000  
C29  21612262.617   112540493.865          -2.850          30.000  
C35  24509163.434   127625564.3581       2290.617           7.000  
C40  36075566.880   187854892.779         125.066          38.000  
C45  22575641.484   117557035.0611      -1103.701          15.000  
E10  23903013.363   125610928.052       -1168.423          38.000  
E11  23703049.395   124560129.358         310.851          38.000  
E12  25315269.379   133032556.095       -2160.738          28.000  
E16  23391570.428   122923404.014        -784.160          44.000  
E24  24970080.848   131218660.389       -2025.856          21.000  
E25  23399745.468   122966552.714         517.839          31.000  
G01  21718464.995   114131323.469       -2514.140          41.000  
G02  23772501.715   124925092.096       -3036.254          35.000  
G03  21402499.033   112470748.352        1200.626          42.000  
G14  20022175.711   105217062.106        -347.870          42.000  
G17  20893668.489   109796920.257         787.844          43.000  
G19  22133429.621   116311804.417        2426.481          29.000  
G22  20910700.598   109886315.271        1085.579          42.000  
J02  38003847.559   199711541.5121        596.516          14.000  
J03  38913051.230   204489301.857        -422.021          33.000  
> 2025 03 12 06 42 59.0001298  0 22                     
C07  35821630.526   186532616.827         206.603          36.000  
C09  38851244.968   202308594.1331      -1837.884          15.000  
C26  24668236.160   128454102.168        1965.583          30.000  
C29  21612270.561   112540764.108          -2.352          30.000  
C35  24508724.088   127623258.0191       2290.791           6.000  
C40  36075543.046   187854752.975         127.431          37.000  
C45  22575846.392   117558123.0081      -1104.006          15.000  
E10  23903231.162   125612083.188       -1170.492          38.000  
E11  23702989.287   124559803.405         311.293          39.000  
E12  25315694.334   133034700.993       -2162.774          32.000  
E16  23391716.577   122924169.985        -782.250          42.000  
E24  24970464.432   131220669.097       -2024.945          36.000  
E25  23399630.798   122966021.330         515.800          31.000  
G01  21718941.814   114133821.519       -2511.693          40.000  
G02  23773081.963   124928388.037       -3030.623          32.000  
G03  21402268.043   112469529.765        1205.396          42.000  
G14  20022240.616   105217394.107        -347.243          42.000  
G17  20893516.345   109796117.436         787.665          42.000  
G19  22132968.690   116309365.112        2422.089          27.000  
G22  20910492.093   109885213.651        1087.374          42.000  
J02  38003734.687   199710930.3341        596.455          14.000  
J03  38913130.825   204489708.739        -423.079          34.000  
> 2025 03 12 06 43 00.0000687  0 22                     
C07  35821589.979   186532395.598         204.629          35.000  
C09  38851597.149   202310418.1671      -1838.892          10.000  
C26  24667854.750   128452123.954        1961.640          30.000  
C29  21612278.881   112540752.895          -3.223          30.000  
C35  24508285.417   127620952.1111       2290.796           6.000  
C40  36075515.990   187854612.850         122.629          37.000  
C45  22576038.484   117559189.780       -1084.018          29.000  
E10  23903451.735   125613238.366       -1171.643          35.000  
E11  23702928.954   124559478.811         309.319          39.000  
E12  25316108.273   133036848.331       -2165.567          28.000  
E16  23391866.098   122924938.782        -783.996          40.000  
E24  24970865.180   131222678.414       -2024.320          32.000  
E25  23399518.301   122965491.173         515.411          30.000  
G01  21719419.309   114136319.903       -2516.581          40.000  
G02  23773659.588   124931404.385       -3036.540          31.000  
G03  21402037.728   112468312.031        1203.237          42.000  
G14  20022305.296   105217728.406        -349.078          42.000  
G17  20893365.474   109795317.890         783.734          42.000  
G19  22132511.731   116306931.719        2415.186          25.000  
G22  20910283.662   109884113.753        1083.935          42.000  
J02  38003619.791   199710319.3171        596.840          14.000  
J03  38913210.195   204490114.504        -421.756          34.000  
> 2025 03 12 06 43 01.0000077  0 22                     
C07  35821578.362   186532334.345         203.474          35.000  
C09  38851981.858   202312397.9291      -1840.311           9.000  
C26  24667506.166   128450306.571        1958.120          30.000  
C29  21612315.830   112540899.547          -3.738          29.000  
C35  24507876.575   127618802.7701       2291.002           5.000  
C40  36075520.262   187854631.387         124.277          39.000  
C45  22576264.902   117560416.097       -1086.579          32.000  
E10  23903706.933   125614827.499       -1173.423          35.000  
E11  23702899.649   124559577.933         310.420          38.000  
E12  25316545.145   133039157.554       -2164.854          26.000  
E16  23392041.552   122925864.729        -782.106          39.000  
E24  24971284.365   131224845.437       -2023.043          26.000  
E25  23399436.232   122965116.642         520.989          30.000  
G01  21719927.232   114138978.332       -2513.254          37.000  
G02  23774269.741   124934584.256       -3037.386          33.000  
G03  21401836.942   112467249.486        1210.499          41.000  
G14  20022400.106   105218219.698        -348.448          43.000  
G17  20893244.433   109794677.773         786.478          41.000  
G19  22132083.702   116304659.230        2418.186          25.000  
G22  20910106.260   109883174.251        1085.415          42.000  
J02  38003533.526   199709865.6411        598.673          19.000  
J03  38913321.193   204490679.735        -418.987          33.000  
> 2025 03 12 06 43 01.9999466  0 21                     
C07  35821537.216   186532113.973         207.761          34.000  
C09  38852334.638   202314223.6141      -1841.302           9.000  
C26  24667125.954   128448335.663        1954.726          30.000  
C29  21612321.751   112540889.143          -3.976          28.000  
C35  24507436.105   127616650.3711       2291.419           5.000  
C40  36075497.403   187854492.516         123.585          38.000  
C45  22576474.982   117561491.510       -1100.423          43.000  
E10  23903921.210   125615983.296       -1170.799          34.000  
E11  23702839.616   124559251.977         311.300          37.000  
E12  25316947.392   133041305.892       -2157.339          23.000  
E16  23392188.075   122926628.347        -781.305          39.000  
E24  24971674.020   131226852.806       -2023.268          21.000  
E25  23399320.737   122964260.191         517.334          30.000  
G01  21720401.729   114141473.262       -2507.468          37.000  
G02  23774848.565   124937604.102       -3035.753          29.000  
G03  21401605.127   112466023.521        1212.163          39.000  
G14  20022465.386   105218553.230        -351.474          43.000  
G17  20893093.562   109793879.114         782.186          41.000  
G19  22131620.748   116302222.401        2421.700          26.000  
G22  20909898.728   109882076.387        1080.535          41.000  
J02  38003417.132   199709248.645         603.595          24.000  
> 2025 03 12 06 43 02.9998855  0 21                     
C07  35821495.657   186531892.795         207.224          32.000  
C26  24666752.825   128446369.219        1948.505          30.000  
C29  21612328.159   112540879.670          -2.337          25.000  
C35  24506997.621   127614346.0641       2290.143          10.000  
C40  36075472.632   187854357.355         120.746          34.000  
C45  22576684.949   117562580.489       -1098.744          42.000  
E10  23904140.171   125617138.257       -1168.024          35.000  
E11  23702781.268   124558930.508         307.819          37.000  
E12  25317345.329   133043445.858       -2153.324          24.000  
E16  23392335.386   122927399.437        -783.925          41.000  
E24  24972061.164   131228860.8191      -2023.484          18.000  
E25  23399206.629   122963733.348         510.209          32.000  
G01  21720874.614   114143963.309       -2501.944          37.000  
G02  23775426.677   124940624.812       -3034.339          24.000  
G03  21401373.200   112464796.190        1217.350          40.000  
G14  20022530.853   105218890.605        -353.478          44.000  
G17  20892941.680   109793080.868         785.881          41.000  
G19  22131157.981   116299789.807        2416.758          31.000  
G22  20909690.785   109880982.614        1080.394          42.000  
J02  38003300.925   199708631.397         604.287          25.000  
J03  38913478.622   204491482.8011       -414.252          36.000  
> 2025 03 12 06 43 03.9998244  0 21                     
C07  35821456.684   186531675.092         205.038          34.000  
C26  24666382.581   128444406.743        1949.151          27.000  
C29  21612344.648   112541149.158           0.836          28.000  
C35  24506562.622   127612044.9601       2287.839          16.000  
C40  36075445.651   187854219.797         137.167          32.000  
C45  22576891.506   117563670.231       -1107.442          47.000  
E10  23904359.319   125618289.225       -1165.341          37.000  
E11  23702718.912   124558611.983         306.655          37.000  
E12  25317750.948   133045583.788       -2147.022          26.000  
E16  23392484.383   122928170.331        -785.507          39.000  
E24  24972439.203   131230870.1411      -2022.154          18.000  
E25  23399093.307   122963212.144         505.647          30.000  
G01  21721348.586   114146452.342       -2496.662          34.000  
G02  23776006.476   124943646.0071      -3037.163          20.000  
G03  21401139.962   112463565.897        1219.259          41.000  
G14  20022596.807   105219231.602        -355.935          44.000  
G17  20892791.484   109792285.977         780.182          40.000  
G19  22130695.701   116297367.042        2407.162          41.000  
G22  20909483.928   109879892.809        1074.820          42.000  
J02  38003183.706   199708014.436         605.089          31.000  
J03  38913558.666   204491883.915        -415.847          33.000  
> 2025 03 12 06 43 04.9997633  0 22                     
C07  35821414.676   186531455.378         206.662          38.000  
C09  38853502.705   202320384.3301      -1877.951          27.000  
C26  24666005.705   128442446.160        1943.397          28.000  
C29  21612365.296   112541132.700           2.475          34.000  
C35  24505909.637   127608701.6111       2285.169          17.000  
C40  36075409.339   187854067.846         138.228          33.000  
C45  22577101.923   117564762.137       -1109.608          46.000  
E10  23904576.931   125619435.012       -1161.050          38.000  
E11  23702659.215   124558291.633         305.765          38.000  
E12  25318152.633   133047709.721       -2137.460          31.000  
E16  23392634.241   122928938.968        -784.126          39.000  
E24  24972828.596   131232875.9941      -2017.763          14.000  
E25  23398979.948   122962691.905         507.103          33.000  
G01  21721818.323   114148925.290       -2485.789          40.000  
G02  23776589.834   124946668.4821      -3041.070          17.000  
G03  21400905.187   112462327.007        1226.462          38.000  
G14  20022662.424   105219573.751        -357.829          45.000  
G17  20892640.351   109791489.641         781.117          41.000  
G19  22130234.882   116294947.905        2400.490          45.000  
G22  20909278.233   109878802.838        1075.047          40.000  
J02  38003065.550   199707393.766         606.922          36.000  
J03  38913637.175   204492282.486        -409.871          33.000  
> 2025 03 12 06 43 05.9997023  0 22                     
C07  35821402.197   186531389.534         203.661          39.000  
C09  38853752.844   202321686.743       -1818.065          23.000  
C26  24665663.154   128440646.447        1933.900          36.000  
C29  21612400.784   112541270.128           3.151          32.000  
C35  24505326.953   127605667.105        2256.065          27.000  
C40  36075409.451   187854069.314         137.262          37.000  
C45  22577344.867   117566015.459       -1118.778          45.000  
E10  23904823.473   125620733.292       -1157.620          39.000  
E11  23702632.347   124558128.430         303.857          38.000  
E12  25318576.951   133049982.935       -2129.824          36.000  
E16  23392813.030   122929863.559        -784.850          38.000  
E24  24973235.227   131235031.854       -2014.948          25.000  
E25  23398897.918   122962038.920         503.833          34.000  
G01  21722316.391   114151548.980       -2478.926          43.000  
G02  23777200.324   124949850.2301      -3042.701          16.000  
G03  21400700.841   112461239.165        1232.408          35.000  
G14  20022758.470   105220072.353        -358.740          43.000  
G17  20892519.347   109790851.455         779.894          43.000  
G19  22129806.891   116292693.797        2390.368          43.000  
G22  20909101.468   109877872.080        1072.400          43.000  
J02  38002976.025   199706924.450         614.602          37.000  
J03  38913742.514   204493096.273        -402.203          38.000  
> 2025 03 12 06 43 06.9996412  0 22                     
C07  35821361.687   186531171.884         206.085          37.000  
C09  38854108.660   202323496.530       -1824.718          22.000  
C26  24665293.772   128438703.153        1928.884          32.000  
C29  21612403.444   112541254.477           3.633          27.000  
C35  24504953.374   127603722.195        2245.352          33.000  
C40  36075378.235   187853917.372         141.330          39.000  
C45  22577559.481   117567120.139       -1121.202          43.000  
E10  23905043.783   125621873.300       -1154.047          40.000  
E11  23702570.552   124557812.006         303.964          37.000  
E12  25318983.732   133052094.828       -2125.957          35.000  
E16  23392963.788   122930633.983        -783.449          38.000  
E24  24973612.628   131237030.396       -2010.621          32.000  
E25  23398789.655   122961524.647         500.008          31.000  
G01  21722785.529   114154012.123       -2475.224          42.000  
G02  23777777.987   124952879.5171      -3036.736          18.000  
G03  21400466.965   112459989.013        1243.165          37.000  
G14  20022825.586   105220417.352        -358.944          41.000  
G17  20892369.713   109790060.678         777.201          44.000  
G19  22129350.869   116290293.295        2386.759          39.000  
G22  20908896.072   109876789.664        1068.943          41.000  
J02  38002858.768   199706295.683         619.010          34.000  
J03  38913817.125   204493484.611        -400.234          38.000  
> 2025 03 12 06 43 07.9995801  0 22                     
C07  35821319.829   186530951.464         205.740          38.000  
C09  38854460.429   202325307.743       -1827.578          23.000  
C26  24664924.840   128436761.462        1928.953          25.000  
C29  21612404.456   112541235.214           4.173          24.000  
C35  24504552.064   127601467.855        2241.506          36.000  
C40  36075348.968   187853761.650         142.746          42.000  
C45  22577775.444   117568227.675       -1122.500          37.000  
E10  23905263.343   125623009.522       -1153.389          39.000  
E11  23702511.006   124557494.645         302.851          36.000  
E12  25319390.963   133054202.470       -2125.119          30.000  
E16  23393111.099   122931401.382        -782.532          37.000  
E24  24974002.770   131239021.717       -2009.152          27.000  
E25  23398677.645   122961008.916         501.028          32.000  
G01  21723255.416   114156472.639       -2476.019          39.000  
G02  23778353.101   124955900.784       -3037.056          23.000  
G03  21400228.143   112458730.250        1243.498          39.000  
G14  20022892.552   105220761.318        -361.878          40.000  
G17  20892219.930   109789270.416         774.053          46.000  
G19  22128894.398   116287893.473        2383.860          41.000  
G22  20908691.127   109875707.128        1065.618          39.000  
J02  38002740.463   199705659.819         620.178          35.000  
J03  38913891.886   204493868.250        -401.058          41.000  
> 2025 03 12 06 43 08.9995190  0 22                     
C07  35821278.607   186530732.474         207.340          38.000  
C09  38854886.284   202327588.2661      -1828.438          18.000  
C26  24664558.944   128434819.450        1929.237          21.000  
C29  21612411.801   112541498.872           2.267          22.000  
C35  24504124.410   127599216.566        2237.565          37.000  
C40  36075321.837   187853604.584         145.069          42.000  
C45  22577990.545   117569336.762       -1123.466          33.000  
E10  23905479.044   125624145.078       -1149.946          38.000  
E11  23702451.497   124557178.116         303.507          35.000  
E12  25319797.332   133056313.084       -2124.886          26.000  
E16  23393256.948   122932168.334        -782.357          37.000  
E24  24974394.449   131241328.951       -2005.178          22.000  
E25  23398563.274   122960494.453         502.585          33.000  
G01  21723723.542   114158930.816       -2467.558          37.000  
G02  23778928.553   124958922.640       -3038.687          21.000  
G03  21399989.658   112457472.653        1244.874          41.000  
G14  20022959.856   105221109.523        -362.460          40.000  
G17  20892070.483   109788480.915         776.551          47.000  
G19  22128438.863   116285496.451        2385.171          40.000  
G22  20908486.219   109874627.686        1066.373          38.000  
J02  38002621.595   199705026.189         618.638          35.000  
J03  38913966.084   204494253.225        -399.015          42.000  
> 2025 03 12 06 43 09.9994580  0 22                     
C07  35821265.491   186530668.626         205.511          37.000  
C09  38855262.899   202329561.0631      -1831.290          19.000  
C26  24664222.052   128433032.7621       1929.290          18.000  
C29  21612456.845   112541638.766           2.923          22.000  
C35  24503724.862   127597124.452        2234.682          36.000  
C40  36075321.312   187853604.197         143.596          42.000  
C45  22578237.949   117570602.737       -1127.256          32.000  
E10  23905727.047   125625438.991       -1151.015          38.000  
E11  23702422.492   124557019.975         301.189          35.000  
E12  25320237.802   133058583.513       -2127.916          27.000  
E16  23393430.602   122933095.354        -784.846          36.000  
E24  24974817.231   131243474.4581      -2001.064          18.000  
E25  23398481.506   122959850.098         500.895          33.000  
G01  21724223.371   114161544.531       -2476.632          34.000  
G02  23779534.508   124962107.0171      -3045.956          19.000  
G03  21399780.478   112456373.557        1240.550          41.000  
G14  20023057.663   105221617.300        -365.209          40.000  
G17  20891951.540   109787849.746         773.356          47.000  
G19  22128012.633   116283257.570        2379.559          40.000  
G22  20908310.915   109873706.084        1063.543          37.000  
J02  38002532.332   199704552.645         617.308          36.000  
J03  38914070.487   204494796.116        -401.244          42.000  
> 2025 03 12 06 43 11.0003968  0 22                     
C07  35821214.564   186530390.326         203.722          37.000  
C09  38855598.704   202331318.7691      -1831.532          19.000  
C26  24663840.154   128431027.170        1929.006          23.000  
C29  21612451.486   112541562.422           1.095          23.000  
C35  24503283.905   127594815.014        2231.755          36.000  
C40  36075281.477   187853387.737         142.020          42.000  
C45  22578440.646   117571651.275       -1116.367          32.000  
E10  23905933.042   125626516.848       -1152.482          38.000  
E11  23702352.977   124556645.376         299.432          34.000  
E12  25320621.573   133060634.405       -2119.524          28.000  
E16  23393570.943   122933807.520        -787.740          36.000  
E24  24975197.406   131245400.3711      -1997.849          13.000  
E25  23398362.526   122959275.517         496.643          32.000  
G01  21724685.988   114163954.081       -2470.906          32.000  
G02  23780101.154   124965081.304       -3050.283          22.000  
G03  21399531.687   112455057.057        1241.250          40.000  
G14  20023114.961   105222178.371        -364.049          40.000  
G17  20891790.889   109787000.469         775.057          47.000  
G19  22127545.594   116280799.619        2382.471          38.000  
G22  20908095.102   109872566.808        1064.779          37.000  
J02  38002403.758   199703860.934         616.256          36.000  
J03  38914133.181   204495119.922        -400.040          41.000  
> 2025 03 12 06 43 12.0003357  0 22                     
C07  35821174.804   186530172.806         206.944          38.000  
C09  38855953.171   202333138.9101      -1832.657          19.000  
C26  24663452.934   128429088.566        1925.159          31.000  
C29  21612467.488   112541552.347          -1.323          22.000  
C35  24502853.815   127592569.992        2233.931          36.000  
C40  36075252.210   187853230.534         145.568          43.000  
C45  22578655.110   117572758.535       -1126.881          31.000  
E10  23906150.804   125627653.269       -1148.610          38.000  
E11  23702295.230   124556332.381         301.511          35.000  
E12  25321019.510   133062739.589       -2118.169          28.000  
E16  23393722.750   122934580.909        -785.724          36.000  
E24  24975587.848   131247381.8801      -1984.796          19.000  
E25  23398250.816   122958765.872         498.301          32.000  
G01  21725154.376   114166411.903       -2470.456          35.000  
G02  23780680.465   124968119.300       -3050.161          22.000  
G03  21399294.964   112453802.610        1241.875          40.000  
G14  20023182.826   105222530.601        -366.015          40.000  
G17  20891642.005   109786212.849         775.381          47.000  
G19  22127091.821   116278402.682        2388.845          32.000  
G22  20907891.955   109871490.701        1062.986          37.000  
J02  38002284.853   199703232.281         618.430          36.000  
J03  38914208.242   204495506.263        -398.803          42.000  
> 2025 03 12 06 43 13.0002747  0 22                     
C07  35821163.525   186530108.047         205.522          37.000  
C09  38856336.118   202335112.7361      -1833.983          18.000  
C26  24663115.181   128427306.920        1921.201          26.000  
C29  21612502.076   112541969.208          -2.284          21.000  
C35  24502453.105   127590478.988        2232.104          36.000  
C40  36075253.222   187853228.748         143.127          42.000  
C45  22578903.750   117574030.107       -1135.850          31.000  
E10  23906397.645   125628945.011       -1151.171          37.000  
E11  23702265.963   124556175.525         299.524          35.000  
E12  25321454.622   133065001.731       -2119.728          27.000  
E16  23393897.342   122935511.263        -788.335          37.000  
E24  24976003.473   131249784.3651      -1980.484          15.000  
E25  23398173.282   122958408.845         500.803          32.000  
G01  21725650.345   114169023.074       -2470.871          38.000  
G02  23781289.756   124971312.953       -3053.791          22.000  
G03  21399088.219   112452967.296        1240.274          41.000  
G14  20023281.571   105223039.100        -367.713          40.000  
G17  20891522.800   109785580.751         773.613          47.000  
G19  22126665.928   116276153.404        2395.961          26.000  
G22  20907718.488   109870570.459        1062.192          37.000  
J02  38002195.927   199702756.957         616.374          36.000  
J03  38914313.281   204496047.965        -401.147          42.000  
> 2025 03 12 06 43 14.0002136  0 22                     
C07  35821120.205   186529889.449         206.231          38.000  
C09  38856689.723   202336935.0961      -1834.478          18.000  
C26  24662748.085   128425375.058        1916.940          23.000  
C29  21612511.220   112541959.291          -2.535          23.000  
C35  24502023.352   127588234.307        2231.848          37.000  
C40  36075224.292   187853071.623         144.898          42.000  
C45  22579120.350   117575152.068       -1134.238          30.000  
E10  23906616.644   125630081.784       -1150.590          38.000  
E11  23702207.353   124555862.781         299.766          35.000  
E12  25321853.196   133067104.389       -2117.826          29.000  
E16  23394044.390   122936284.978        -787.790          37.000  
E24  24976380.761   131251748.3041      -1975.194          19.000  
E25  23398061.609   122957895.310         497.184          32.000  
G01  21726117.272   114171480.936       -2471.548          39.000  
G02  23781868.205   124974353.527       -3056.859          20.000  
G03  21398850.034   112451713.676        1237.389          41.000  
G14  20023350.073   105223390.930        -369.434          40.000  
G17  20891374.253   109784793.795         771.473          47.000  
G19  22126213.991   116274039.293        2397.773          29.000  
G22  20907515.078   109869495.757        1059.617          37.000  
J02  38002076.160   199702127.263         615.869          37.000  
J03  38914387.480   204496433.254        -402.104          42.000  
> 2025 03 12 06 43 15.0001525  0 21                     
C07  35821080.107   186529669.840         205.288          37.000  
C09  38857049.849   202338756.6061      -1835.587          18.000  
C26  24662383.612   128423444.752        1916.898          20.000  
C29  21612519.389   112541948.610          -4.500          22.000  
C35  24501593.525   127585987.106        2233.821          36.000  
C40  36075195.587   187852914.053         143.142          42.000  
C45  22579337.175   117576533.346       -1121.834          31.000  
E10  23906833.469   125631217.599       -1151.579          37.000  
E11  23702148.369   124555550.539         298.201          35.000  
E12  25322267.284   133069215.568       -2138.696          29.000  
E16  23394195.860   122937328.948        -788.417          37.000  
E24  24976751.380   131253706.2791      -1976.640          19.000  
E25  23397951.061   122957062.617         495.978          32.000  
G01  21726586.222   114173938.874       -2474.286          39.000  
G02  23782451.377   124977396.7291      -3014.029          17.000  
G03  21398612.973   112450461.734        1239.554          41.000  
G14  20023418.501   105223745.980        -368.033          40.000  
G17  20891225.331   109784006.822         774.440          46.000  
G22  20907311.894   109868421.274        1061.746          37.000  
J02  38001958.716   199701496.296         617.958          37.000  
J03  38914462.803   204496819.908        -399.381          42.000  
> 2025 03 12 06 43 16.0000914  0 22                     
C07  35821039.148   186529449.333         205.839          37.000  
C09  38857404.016   202340577.5881      -1836.590          18.000  
C26  24662016.479   128421513.5161       1916.408          19.000  
C29  21612529.095   112541939.188          -7.558          22.000  
C35  24501161.336   127583737.511        2236.350          36.000  
C40  36075166.320   187852756.006         143.236          42.000  
C45  22579552.539   117577632.504       -1113.145          33.000  
E10  23907052.429   125632355.185       -1152.425          37.000  
E11  23702093.020   124555236.377         299.709          35.000  
E12  25322675.114   133071341.556       -2139.927          28.000  
E16  23394340.772   122938100.656        -787.758          37.000  
E24  24977126.533   131255664.605       -1978.359          20.000  
E25  23397842.948   122956551.026         496.510          32.000  
G01  21727055.510   114176401.030       -2478.208          36.000  
G02  23782881.391   124979885.058       -3019.224          28.000  
G03  21398376.550   112449207.638        1237.627          36.000  
G14  20023486.666   105224097.902        -367.574          40.000  
G17  20891076.146   109783217.962         772.828          46.000  
G19  22125302.210   116269246.2581       2383.978          36.000  
G22  20907106.949   109867344.347        1061.182          37.000  
J02  38001841.610   199700863.220         618.613          37.000  
J03  38914536.664   204497201.957        -400.945          41.000  
> 2025 03 12 06 43 17.0000304  0 22                     
C07  35821028.468   186529385.017         206.338          37.000  
C09  38857792.960   202342554.3801      -1835.786          18.000  
C26  24661670.930   128419736.809        1922.792          25.000  
C29  21612568.480   112542089.547          -9.214          22.000  
C35  24500760.926   127581641.877        2237.735          35.000  
C40  36075167.331   187852754.566         143.133          42.000  
C45  22579800.280   117578889.454       -1129.297          31.000  
E10  23907298.971   125633649.854       -1154.039          38.000  
E11  23702063.153   124555079.433         299.183          35.000  
E12  25323109.626   133073628.008       -2145.473          28.000  
E16  23394520.460   122939029.034        -787.220          38.000  
E24  24977538.260   131257784.3171      -1980.453          19.000  
E25  23397761.817   122956196.226         498.040          33.000  
G01  21727553.877   114179017.815       -2476.211          37.000  
G02  23783486.785   124983047.596       -2976.792          27.000  
G03  21398174.902   112448118.507        1219.493          30.000  
G14  20023584.811   105224606.488        -366.499          39.000  
G17  20890957.241   109782587.970         773.971          47.000  
G19  22124886.210   116266989.522        2418.836          30.000  
G22  20906933.781   109866426.443        1062.771          37.000  
J02  38001753.583   199700389.721         615.684          37.000  
J03  38914641.404   204497745.486        -400.288          41.000  
> 2025 03 12 06 43 17.9999693  0 21                     
C07  35820987.621   186529166.039         205.328          37.000  
C09  38858150.237   202344371.0761      -1830.084          18.000  
C26  24661289.520   128417800.785        1923.516          30.000  
C29  21612576.799   112542358.840          -9.708          22.000  
C35  24500332.448   127579659.857        2247.831          31.000  
C40  36075138.776   187852599.852         140.499          42.000  
C45  22580014.256   117580005.916       -1131.231          30.000  
E10  23907516.246   125634792.720       -1155.381          38.000  
E11  23702005.518   124554766.933         299.282          34.000  
E12  25323499.581   133075756.725       -2126.096          28.000  
E16  23394670.881   122939803.265        -787.758          37.000  
E24  24977907.529   131259750.3961      -1982.698          20.000  
E25  23397652.317   122955684.194         498.768          32.000  
G01  21728023.877   114181482.921       -2479.713          37.000  
G03  21397948.783   112446892.064        1216.174          26.000  
G14  20023653.688   105224961.172        -368.361          39.000  
G17  20890809.069   109781802.243         772.708          46.000  
G19  22124442.442   116264545.107        2441.356          28.000  
G22  20906730.447   109865352.263        1060.774          36.000  
J02  38001633.891   199699760.585         617.575          35.000  
J03  38914716.877   204498133.579        -401.999          41.000  
> 2025 03 12 06 43 18.9999082  0 22                     
C07  35820947.374   186528944.608         205.943          37.000  
C09  38858505.416   202346184.0371      -1827.561          18.000  
C26  24660915.004   128415861.999        1923.139          31.000  
C29  21612582.421   112542350.891         -10.215          22.000  
C35  24499898.573   127577391.713        2251.663          31.000  
C40  36075109.321   187852443.339         139.333          42.000  
C45  22580228.233   117581118.831       -1124.401          30.000  
E10  23907734.720   125635932.199       -1156.890          38.000  
E11  23701946.084   124554450.886         300.522          34.000  
E12  25323893.433   133077865.004       -2129.894          28.000  
E16  23394819.503   122940573.147        -786.801          37.000  
E24  24978284.294   131261714.8551      -1985.236          16.000  
E25  23397542.818   122955169.526         499.038          32.000  
G01  21728493.277   114183949.433       -2483.614          37.000  
G02  23784555.095   124988680.6021      -2988.972          32.000  
G03  21397720.566   112445662.815        1212.563          23.000  
G14  20023721.666   105225310.537        -366.275          39.000  
G17  20890659.697   109781012.812         773.683          45.000  
G19  22123994.477   116262375.096        2415.739          26.000  
G22  20906526.813   109864539.518        1063.371          36.000  
J02  38001513.899   199699125.705         620.368          36.000  
J03  38914791.151   204498517.246        -399.636          39.000  
> 2025 03 12 06 43 19.9998471  0 22                     
C07  35820905.666   186528728.312         203.560          38.000  
C09  38858859.734   202348279.0871      -1824.282          14.000  
C26  24660543.224   128413929.349        1919.280          33.000  
C29  21612592.876   112542351.179         -11.084          23.000  
C35  24499466.835   127575133.926        2242.775          30.000  
C40  36075082.602   187852293.307         138.077          42.000  
C45  22580441.048   117582229.094       -1126.000          36.000  
E10  23907955.329   125637080.377       -1159.440          39.000  
E11  23701885.788   124554139.828         299.796          35.000  
E12  25324297.216   133079984.799       -2131.968          26.000  
E16  23394966.964   122941346.642        -786.298          37.000  
E24  24978670.988   131263689.3331      -1988.034          15.000  
E25  23397430.359   122954326.148         498.206          34.000  
G01  21728964.813   114186419.513       -2484.502          38.000  
G02  23785127.661   124991658.426       -2991.659          32.000  
G03  21397497.483   112444440.047        1210.510          20.000  
G14  20023789.981   105225664.089        -366.921          41.000  
G17  20890511.862   109780229.472         769.116          47.000  
G19  22123538.156   116259962.304        2389.627          38.000  
G22  20906323.216   109863467.401        1059.575          40.000  
J02  38001393.645   199698494.043         621.553          34.000  
J03  38914866.361   204498906.885        -400.871          40.000  
> 2025 03 12 06 43 20.9997861  0 22                     
C07  35820895.660   186528665.804         201.368          37.000  
C09  38859243.655   202350238.7841      -1818.986          12.000  
C26  24660206.145   128412153.174        1910.899          34.000  
C29  21612639.831   112542502.972         -13.702          26.000  
C35  24499067.698   127573034.201        2238.996          26.000  
C40  36075084.289   187852296.636         137.772          41.000  
C45  22580681.969   117583494.470       -1126.412          41.000  
E10  23908203.745   125638381.164       -1161.038          40.000  
E11  23701858.095   124553982.007         299.539          36.000  
E12  25324729.105   133082258.668       -2134.887          31.000  
E16  23395146.427   122942271.837        -784.701          38.000  
E24  24979080.692   131265816.0361      -1986.974          18.000  
E25  23397347.503   122953969.535         494.694          36.000  
G01  21729466.254   114189045.210       -2489.644          40.000  
G02  23785726.534   124994790.926       -2991.796          35.000  
G03  21397301.007   112443371.6511       1208.490          16.000  
G14  20023887.901   105226171.553        -365.726          42.000  
G17  20890393.931   109779603.642         765.087          45.000  
G19  22123104.543   116257730.693        2367.038          36.000  
G22  20906150.723   109862551.252        1054.960          43.000  
J02  38001304.794   199698011.818         625.830          30.000  
J03  38914970.876   204499447.247        -399.388          39.000  
> 2025 03 12 06 43 21.9997250  0 22                     
C07  35820855.825   186528451.313         200.957          38.000  
C09  38859594.150   202352043.2911      -1816.301          13.000  
C26  24659841.335   128410230.717        1905.802          33.000  
C29  21612658.455   112542783.505         -17.652          28.000  
C35  24498642.031   127570781.535        2239.015          24.000  
C40  36075057.345   187852146.672         134.672          37.000  
C45  22580896.658   117584604.012       -1124.584          37.000  
E10  23908423.530   125639530.307       -1164.141          41.000  
E11  23701799.373   124553668.801         299.040          37.000  
E12  25325129.665   133084380.689       -2137.309          31.000  
E16  23395293.363   122943040.918        -784.173          38.000  
E24  24979453.971   131267789.3491      -1999.862          16.000  
E25  23397239.016   122953461.393         493.827          34.000  
G01  21729938.764   114191522.235       -2494.028          35.000  
G02  23786295.878   124997770.084       -2997.639          33.000  
G03  21397060.011   112442124.309        1235.257          22.000  
G14  20023955.991   105226522.925        -366.600          41.000  
G17  20890247.370   109778826.257         761.268          43.000  
G19  22122653.093   116255345.189        2381.221          34.000  
G22  20905947.501   109861482.811        1053.494          43.000  
J02  38001184.915   199697369.884         629.382          31.000  
J03  38915045.862   204499831.145        -399.611          38.000  
> 2025 03 12 06 43 22.9996639  0 22                     
C07  35820814.753   186528236.986         199.238          40.000  
C09  38859940.710   202353844.4451      -1813.218          12.000  
C26  24659473.189   128408314.491        1899.618          33.000  
C29  21612673.145   112542788.153         -20.398          31.000  
C35  24498206.732   127568528.357        2239.741          22.000  
C40  36075030.663   187852000.737         130.190          33.000  
C45  22581111.909   117585714.334       -1122.814          34.000  
E10  23908642.379   125640681.722       -1167.083          42.000  
E11  23701740.614   124553356.552         298.316          38.000  
E12  25325534.385   133086508.790       -2142.677          38.000  
E16  23395442.660   122943809.300        -782.233          37.000  
E24  24979822.116   131269772.127       -1995.690          35.000  
E25  23397131.091   122952954.475         491.121          32.000  
G01  21730410.038   114194003.622       -2497.317          43.000  
G02  23786865.483   125000755.618       -3004.088          38.000  
G03  21396814.781   112440875.932        1235.331          21.000  
G14  20024024.044   105226873.796        -365.419          43.000  
G17  20890101.071   109778052.004         759.256          41.000  
G19  22122209.101   116252939.090        2394.425          37.000  
G22  20905745.141   109860415.549        1052.603          42.000  
J02  38001057.803   199696725.604         631.346          39.000  
J03  38915119.911   204500216.153        -399.878          38.000  
> 2025 03 12 06 43 23.9996028  0 21                     
C07  35820775.855   186528026.425         197.864          40.000  
C26  24659110.516   128406402.259        1902.616          31.000  
C29  21612685.212   112542796.832         -22.731          34.000  
C35  24497773.607   127566276.1171       2241.603          20.000  
C40  36075001.359   187851859.492         128.330          36.000  
C45  22581326.935   117586822.032       -1120.897          36.000  
E10  23908864.300   125641840.242       -1170.069          42.000  
E11  23701685.527   124553045.408         299.070          38.000  
E12  25325941.278   133088644.064       -2147.455          40.000  
E16  23395584.536   122944576.662        -781.298          40.000  
E24  24980188.238   131271752.616       -1994.400          40.000  
E25  23397022.041   122952180.816         491.974          31.000  
G01  21730882.885   114196489.404       -2502.644          43.000  
G02  23787436.363   125003748.696       -3007.621          32.000  
G03  21396504.870   112439623.9241       1239.283          19.000  
G14  20024092.772   105227225.509        -366.831          43.000  
G17  20889955.147   109777281.464         756.306          42.000  
G19  22121759.487   116250536.513        2378.382          36.000  
G22  20905542.856   109859350.919        1051.255          38.000  
J02  38000934.663   199696080.934         632.640          41.000  
J03  38915193.734   204500601.442        -401.420          42.000  
> 2025 03 12 06 43 24.9995418  0 22                     
C07  35820765.363   186527968.382         200.375          41.000  
C09  38860912.712   202358970.1191      -1822.986          19.000  
C26  24658778.645   128404639.027        1903.860          33.000  
C29  21612729.281   112542958.669         -10.735          36.000  
C35  24497369.786   127564165.8111       2253.730          18.000  
C40  36075007.355   187851870.557         131.884          37.000  
C45  22581570.666   117588083.645       -1116.880          35.000  
E10  23909115.526   125643151.359       -1169.017          43.000  
E11  23701655.248   124552888.412         300.734          39.000  
E12  25326379.575   133090932.662       -2147.262          39.000  
E16  23395762.913   122945496.941        -778.117          41.000  
E24  24980597.755   131273882.672       -1988.424          41.000  
E25  23396942.296   122951829.641         494.779          31.000  
G01  21731388.036   114199136.096       -2503.177          38.000  
G02  23788039.545   125006899.690       -3010.586          26.000  
G03  21396306.708   112438533.3571       1233.726          17.000  
G14  20024190.804   105227731.825        -360.975          42.000  
G17  20889838.828   109776669.667         757.181          38.000  
G19  22121330.784   116248307.187        2373.212          37.000  
G22  20905370.476   109858443.467        1052.553          37.000  
J02  38000841.427   199695588.002         640.103          41.000  
J03  38915296.863   204501143.253        -395.720          44.000  
> 2025 03 12 06 43 25.9994807  0 22                     
C07  35820725.640   186527755.575         197.065          41.000  
C09  38861259.123   202360778.8201      -1822.296          17.000  
C26  24658432.235   128402713.867        1925.563          35.000  
C29  21612741.423   112543215.841         -14.720          37.000  
C35  24496936.736   127561897.9741       2252.197          20.000  
C40  36074981.423   187851726.263         127.509          38.000  
C45  22581795.960   117589184.082       -1116.817          35.000  
E10  23909337.523   125644306.879       -1173.053          37.000  
E11  23701597.538   124552574.225         299.206          38.000  
E12  25326786.243   133093065.916       -2150.250          33.000  
E16  23395910.261   122946260.002        -778.592          41.000  
E24  24980975.343   131275854.172       -1986.808          40.000  
E25  23396835.720   122951321.514         492.510          31.000  
G01  21731863.057   114201623.123       -2502.495          31.000  
G02  23788617.395   125009893.871       -3008.465          21.000  
G03  21396074.818   112437284.576        1233.841          23.000  
G14  20024258.707   105228078.846        -365.026          41.000  
G17  20889693.579   109775894.309         767.618          34.000  
G19  22120878.847   116245915.248        2384.935          36.000  
G22  20905169.465   109857377.828        1052.162          38.000  
J02  38000718.363   199694933.612         638.487          39.000  
J03  38915370.462   204501523.312        -397.477          44.000  
> 2025 03 12 06 43 27.0004196  0 22                     
C07  35820705.592   186527638.351         199.272          41.000  
C09  38861625.806   202362682.4061      -1821.758          18.000  
C26  24658099.203   128401193.165        1927.943          35.000  
C29  21612773.538   112543311.281         -15.781          36.000  
C35  24496525.458   127559725.8301       2250.398          19.000  
C40  36074973.066   187851679.917         129.014          37.000  
C45  22582036.132   117590378.436       -1112.166          33.000  
E10  23909579.792   125645564.906       -1172.983          31.000  
E11  23701557.403   124552356.025         300.084          38.000  
E12  25327211.087   133095300.990       -2152.419          26.000  
E16  23396075.784   122947119.516        -777.039          41.000  
E24  24981367.809   131277922.473       -1984.817          39.000  
E25  23396744.621   122950912.416         488.493          31.000  
G01  21732358.052   114204206.501       -2489.661          26.000  
G02  23789216.118   125012985.4091      -3007.801          20.000  
G03  21395865.301   112436132.563        1232.855          29.000  
G14  20024345.984   105228524.530        -364.931          41.000  
G17  20889567.403   109775203.151         776.948          35.000  
G19  22120451.980   116243604.930        2389.413          38.000  
G22  20904988.727   109856405.435        1053.552          37.000  
J02  38000613.773   199694375.007         640.217          38.000  
J03  38915463.435   204502001.693        -395.388          44.000  
> 2025 03 12 06 43 28.0003585  0 21                     
C07  35820665.494   186527426.645         195.676          41.000  
C09  38861980.236   202364490.8241      -1822.317          18.000  
C26  24657737.728   128399255.103        1919.976          33.000  
C29  21612788.903   112543312.970         -13.851          37.000  
C35  24496095.031   127557477.193        2233.455          23.000  
C40  36074945.860   187851537.291         128.220          37.000  
C45  22582256.254   117591480.245       -1117.781          34.000  
E10  23909801.714   125646726.925       -1176.897          25.000  
E11  23701499.318   124552043.038         298.864          38.000  
E12  25327404.228   133096407.343       -2145.791          20.000  
E16  23396221.858   122947881.323        -777.343          40.000  
E24  24981746.222   131279890.801       -1983.506          38.000  
E25  23396640.967   122950409.484         487.443          31.000  
G01  21732833.298   114206679.633       -2488.460          24.000  
G02  23789792.095   125015978.1891      -3005.189          19.000  
G03  21395631.837   112434886.700        1230.313          27.000  
G14  20024413.812   105228873.833        -364.192          40.000  
G17  20889425.677   109774416.630         769.322          39.000  
G19  22120005.064   116241201.613        2387.166          35.000  
J02  38000490.033   199693718.670         644.083          37.000  
J03  38915536.959   204502382.201        -394.304          44.000  
> 2025 03 12 06 43 29.0002974  0 22                     
C07  35820626.784   186527215.947         197.687          41.000  
C09  38862330.356   202366306.8221      -1827.033          17.000  
C26  24657311.686   128397333.520        1885.275          31.000  
C29  21612800.857   112543316.243         -17.365          37.000  
C35  24495662.693   127555229.991        2234.236          21.000  
C40  36074919.141   187851394.917         130.325          37.000  
C45  22582477.164   117592884.543       -1114.376          33.000  
E10  23910024.422   125647889.976       -1176.340          20.000  
E11  23701441.421   124551731.167         299.661          38.000  
E12  25327811.009   133098539.9291      -2145.227          14.000  
E16  23396369.318   122948644.091        -775.160          40.000  
E24  24982122.124   131281857.790       -1980.939          38.000  
E25  23396532.405   122949608.099         486.825          31.000  
G01  21733309.331   114209152.996       -2489.495          23.000  
G02  23790370.657   125019240.8681      -3001.704          19.000  
G03  21395398.561   112433644.609        1226.615          34.000  
G14  20024482.427   105229225.535        -365.461          40.000  
G17  20889284.137   109773928.726         766.375          40.000  
G19  22119552.940   116238803.322        2385.623          35.000  
G22  20904589.741   109854278.9921       1049.723          37.000  
J02  38000365.882   199693060.691         645.654          36.000  
J03  38915610.371   204502761.514        -393.511          44.000  
> 2025 03 12 06 43 30.0002363  0 22                     
C07  35820587.623   186527006.642         194.609          41.000  
C09  38862671.932   202368111.4151      -1819.716          17.000  
C26  24656962.540   128395445.610        1878.761          32.000  
C29  21612815.359   112543600.464         -18.413          37.000  
C35  24495230.505   127552981.6151       2233.121          19.000  
C40  36074893.171   187851250.577         128.845          31.000  
C45  22582693.127   117593986.342       -1119.369          35.000  
E10  23910240.385   125649048.7971      -1173.301          18.000  
E11  23701381.875   124551419.623         296.361          38.000  
E12  25328216.141   133100668.8421      -2144.855          13.000  
E16  23396515.130   122949406.286        -779.097          39.000  
E24  24982497.577   131283823.273       -1982.437          38.000  
E25  23396427.590   122949106.935         485.600          30.000  
G01  21733788.811   114211628.139       -2495.635          26.000  
G02  23790943.373   125022226.444       -2998.224          22.000  
G03  21395167.234   112432402.992        1232.387          33.000  
G14  20024551.491   105229575.625        -368.577          39.000  
G17  20889140.049   109773151.530         759.569          38.000  
G19  22119098.567   116236410.474        2361.496          33.000  
G22  20904388.393   109853217.882        1041.926          37.000  
J02  38000241.880   199692402.326         643.390          36.000  
J03  38915684.232   204503139.584        -395.436          44.000  
> 2025 03 12 06 43 31.0001753  0 21                     
C07  35820578.142   186526950.891         199.007          41.000  
C09  38863049.183   202370073.6801      -1820.497          17.000  
C26  24656638.877   128393713.928        1872.576          32.000  
C29  21612855.644   112543761.034         -17.656          37.000  
C35  24494834.591   127550891.8211       2231.753          20.000  
C40  36074898.080   187851262.678         131.640          26.000  
C45  22582936.971   117595248.030       -1119.582          35.000  
E10  23910499.218   125650360.796       -1168.539          24.000  
E11  23701354.706   124551265.222         299.430          38.000  
E12  25328667.741   133102955.0351      -2143.666          12.000  
E16  23396692.419   122950325.088        -775.996          40.000  
E24  24982900.910   131285945.847       -1978.372          39.000  
E25  23396344.660   122948765.402         485.253          31.000  
G02  23791548.466   125025365.607       -2998.592          26.000  
G03  21394964.687   112431315.942        1219.070          35.000  
G14  20024649.636   105230086.271        -365.135          40.000  
G17  20889025.341   109772536.198         760.306          35.000  
G19  22118671.775   116234199.712        2352.157          35.000  
G22  20904217.924   109852319.708        1043.482          37.000  
J02  38000147.858   199691899.508         649.019          37.000  
J03  38915787.473   204503676.990        -390.430          44.000  
> 2025 03 12 06 43 32.0001142  0 22                     
C07  35820538.082   186526740.068         195.829          41.000  
C09  38863396.156   202371881.7161      -1820.874          16.000  
C26  24656281.636   128391827.814        1873.618          31.000  
C29  21612872.245   112543765.476         -18.131          37.000  
C35  24494403.302   127548648.4901       2228.601          19.000  
C40  36074872.710   187851118.638         127.909          34.000  
C45  22583163.726   117596352.132       -1121.309          35.000  
E10  23910718.179   125651515.955       -1171.454          34.000  
E11  23701293.661   124550953.767         297.593          38.000  
E12  25329082.166   133105085.0561      -2146.067          12.000  
E16  23396837.631   122951087.682        -776.905          40.000  
E24  24983278.761   131287907.693       -1977.679          40.000  
E25  23396235.049   122948266.573         484.847          31.000  
G01  21734766.959   114216750.0281      -2501.359          43.000  
G02  23792054.329   125028088.886       -3009.010          30.000  
G03  21394736.057   112430092.068        1205.861          31.000  
G14  20024718.101   105230437.567        -367.368          40.000  
G17  20888880.354   109771763.507         757.497          33.000  
G19  22118216.203   116231833.243        2354.790          35.000  
G22  20904016.875   109851264.507        1039.801          37.000  
J02  38000022.357   199691236.616         648.680          37.000  
J03  38915860.435   204504053.191        -392.296          44.000  
> 2025 03 12 06 43 33.0000531  0 22                     
C07  35820499.372   186526529.535         194.287          41.000  
C09  38863744.777   202373679.4401      -1814.140          17.000  
C26  24655920.949   128389941.825        1867.154          31.000  
C29  21612884.499   112543769.790         -23.815          37.000  
C35  24493979.358   127546405.5171       2226.900          20.000  
C40  36074845.092   187850975.147         126.718          38.000  
C45  22583400.525   117597460.083       -1122.532          37.000  
E10  23910934.592   125652671.941       -1173.362          44.000  
E11  23701238.162   124550642.377         295.695          38.000  
E12  25329503.037   133107214.756       -2150.016          26.000  
E16  23396983.893   122951848.483        -778.007          40.000  
E24  24983649.567   131289870.310       -1978.370          39.000  
E25  23396135.780   122947767.027         483.030          30.000  
G01  21735238.195   114219236.934       -2503.038          45.000  
G02  23792581.926   125031076.938       -3006.649          33.000  
G03  21394506.979   112428872.564        1201.083          26.000  
G14  20024785.817   105230790.151        -368.939          40.000  
G17  20888734.917   109770989.681         757.610          30.000  
G19  22117764.378   116229463.823        2352.755          35.000  
G22  20903817.176   109850210.748        1037.434          36.000  
J02  37999896.706   199690572.624         648.238          37.000  
J03  38915933.547   204504428.164        -392.707          42.000  
> 2025 03 12 06 43 33.9999921  0 22                     
C07  35820489.891   186526476.820         196.993          41.000  
C09  38864121.728   202375638.5141      -1864.993          18.000  
C26  24655589.790   128388217.962        1868.677          32.000  
C29  21612931.079   112544202.860         -24.061          38.000  
C35  24493591.240   127544321.4741       2227.180          20.000  
C40  36074849.102   187850990.514         128.753          39.000  
C45  22583666.853   117599079.594       -1125.880          37.000  
E10  23911185.930   125653989.338       -1173.314          45.000  
E11  23701209.794   124550490.941         296.101          38.000  
E12  25329950.740   133109789.098       -2149.987          30.000  
E16  23397159.384   122952769.935        -777.220          40.000  
E24  24984054.399   131291991.379       -1978.128          38.000  
E25  23396058.246   122947115.437         607.601          30.000  
G01  21735741.659   114221881.151       -2503.025          46.000  
G02  23793195.713   125034227.689       -3008.272          32.000  
G03  21394307.429   112427815.585        1201.522          23.000  
G14  20024884.861   105231300.458        -367.591          40.000  
G17  20888619.909   109770378.941         753.152          29.000  
G19  22117348.678   116227254.819        2354.059          35.000  
G22  20903647.906   109849315.256        1043.448          35.000  
J02  37999801.785   199690068.564         648.565          38.000  
J03  38916037.988   204504966.726        -395.518          35.000  
> 2025 03 12 06 43 34.9999310  0 22                     
C07  35820450.730   186526263.798         198.502          40.000  
C09  38864482.191   202377487.943       -1865.713          23.000  
C26  24655229.552   128386330.178        1876.976          32.000  
C29  21612942.584   112544210.718         -21.481          38.000  
C35  24493178.538   127542408.0781       2228.403          20.000  
C40  36074821.633   187850845.818         130.764          38.000  
C45  22583872.923   117600186.925       -1119.508          33.000  
E10  23911407.889   125655144.567       -1172.371          45.000  
E11  23701153.845   124550178.875         297.332          38.000  
E12  25330357.971   133111922.416       -2150.766          30.000  
E16  23397306.394   122953530.621        -776.980          40.000  
E24  24984430.751   131293953.000       -1978.483          38.000  
E25  23395939.041   122946493.908         605.954          30.000  
G01  21736214.844   114224369.658       -2504.560          44.000  
G02  23793775.624   125037220.845       -3016.466          29.000  
G03  21394076.402   112426599.3681       1201.388          19.000  
G14  20024952.426   105231652.791        -367.567          40.000  
G17  20888478.220   109769606.607         766.450          28.000  
G19  22116897.903   116224883.662        2357.117          35.000  
G22  20903449.256   109848253.897        1049.091          36.000  
J02  37999676.884   199689405.698         648.769          38.000  
J03  38916111.549   204505346.038        -397.214          29.000  
> 2025 03 12 06 43 35.9998699  0 22                     
C07  35820411.383   186526051.929         198.984          40.000  
C09  38864764.521   202379026.8071      -1803.347          20.000  
C26  24654867.328   128384437.973        1878.596          33.000  
C29  21612954.800   112544218.994         -18.988          38.000  
C35  24492765.349   127540166.259        2229.941          23.000  
C40  36074795.176   187850702.027         130.718          38.000  
C45  22584022.144   117600929.175       -1116.398          32.000  
E10  23911629.661   125656302.567       -1172.081          46.000  
E11  23701095.910   124549867.785         298.005          38.000  
E12  25330765.314   133114059.866       -2149.680          28.000  
E16  23397453.517   122954293.429        -776.960          40.000  
E24  24984803.918   131295917.767       -1978.904          38.000  
E25  23395824.145   122945876.885         602.606          31.000  
G01  21736690.840   114226859.213       -2503.916          37.000  
G02  23794350.851   125040229.253       -3023.668          23.000  
G03  21393851.482   112425385.7591       1200.018          17.000  
G14  20025021.004   105232005.649        -367.136          39.000  
G17  20888335.744   109768817.743         779.339          29.000  
G19  22116443.342   116222511.770        2361.868          35.000  
G22  20903255.215   109847185.270        1063.053          38.000  
J02  37999551.196   199688743.744         647.834          37.000  
J03  38916187.322   204505730.493        -397.044          26.000  
> 2025 03 12 06 43 36.9998089  0 21                     
C07  35820401.565   186525994.690         198.813          40.000  
C09  38865138.737   202380971.6931      -1805.102          20.000  
C26  24654536.132   128382702.206        1876.120          32.000  
C29  21612998.945   112544377.952         -21.120          38.000  
C35  24492371.197   127538077.797        2228.813          27.000  
C40  36074798.549   187850712.101         131.040          38.000  
C45  22584273.445   117602185.600       -1114.485          32.000  
E10  23911880.962   125657616.482       -1173.116          45.000  
E11  23701064.507   124549712.778         297.247          38.000  
E12  25331215.377   133116351.060       -2149.213          22.000  
E16  23397631.070   122955214.218        -778.317          40.000  
E24  24985210.211   131298040.043       -1980.447          38.000  
E25  23395754.069   122945419.823         595.066          33.000  
G01  21737197.864   114229504.396       -2504.673          32.000  
G02  23794957.406   125043393.0831      -3023.755          18.000  
G03  21393576.048   112424000.618        1241.162          32.000  
G14  20025119.411   105232515.921        -369.461          40.000  
G19  22116021.010   116220292.755        2363.068          34.000  
G22  20903091.304   109846264.893        1061.601          39.000  
J02  37999458.035   199688239.977         646.782          35.000  
J03  38916291.125   204506266.313        -392.360          31.000  
> 2025 03 12 06 43 37.9997478  0 20                     
C07  35820362.442   186525785.412         197.666          40.000  
C09  38865484.547   202382766.002       -1807.386          21.000  
C26  24654172.334   128380815.666        1874.561          32.000  
C29  21613010.786   112544388.401         -21.986          37.000  
C35  24491928.553   127535835.692        2233.354          28.000  
C40  36074773.516   187850570.376         129.767          38.000  
C45  22584493.943   117603284.278       -1105.454          34.000  
E10  23912103.558   125658777.849       -1173.558          45.000  
E11  23701007.097   124549405.065         296.343          37.000  
E12  25331635.236   133118487.1831      -2146.115          19.000  
E16  23397776.319   122955980.035        -779.123          38.000  
E24  24985584.802   131300009.443       -1981.566          38.000  
E25  23395653.189   122944817.048         587.409          33.000  
G01  21737677.082   114232263.515       -2504.972          28.000  
G02  23795535.856   125046406.0741      -3024.338          13.000  
G03  21393339.961   112422748.370        1243.731          34.000  
G14  20025188.513   105232872.699        -370.061          40.000  
G17  20888074.250   109767380.3871        771.658          31.000  
G19  22115567.873   116217919.355        2361.113          33.000  
J02  37999333.172   199687582.450         646.883          36.000  
> 2025 03 12 06 43 38.9996867  0 22                     
C07  35820324.256   186525575.790         196.395          41.000  
C09  38865825.899   202384560.1381      -1810.925          20.000  
C26  24653809.173   128378929.549        1872.932          31.000  
C29  21613028.362   112544709.784         -19.707          38.000  
C35  24491482.649   127533588.745        2234.225          27.000  
C40  36074747.322   187850428.861         129.531          38.000  
C45  22584717.775   117604371.292       -1098.070          35.000  
E10  23912325.292   125659939.054       -1174.982          42.000  
E11  23700952.122   124549096.184         295.674          38.000  
E12  25332057.531   133120620.0601      -2150.075          19.000  
E16  23397922.206   122956745.936        -779.819          40.000  
E24  24985964.826   131301975.875       -1981.497          38.000  
E25  23395540.055   122944221.418         577.471          32.000  
G01  21738156.038   114234755.729       -2506.268          26.000  
G02  23796119.739   125049426.5971      -3036.100          13.000  
G03  21393104.812   112421492.964        1239.058          35.000  
G14  20025257.952   105233227.375        -369.533          41.000  
G17  20887934.434   109766596.228         771.949          37.000  
G19  22115117.173   116215548.136        2357.574          34.000  
G22  20902692.917   109844391.6951       1044.193          38.000  
J02  37999208.945   199687189.912         644.886          37.000  
J03  38916432.364   204507023.5541       -393.327          43.000  
> 2025 03 12 06 43 39.9996256  0 22                     
C07  35820284.083   186525363.746         197.605          41.000  
C09  38866096.611   202385963.825       -1838.316          22.000  
C26  24653450.321   128377039.862        1875.276          33.000  
C29  21613037.955   112544717.126         -23.918          38.000  
C35  24491040.755   127531338.675        2235.745          28.000  
C40  36074721.540   187850284.828         127.499          37.000  
C45  22584935.425   117605460.880       -1117.772          35.000  
E10  23912548.637   125661098.715       -1181.489          35.000  
E11  23700893.063   124548786.172         294.358          38.000  
E12  25332469.147   133123023.8171      -2150.825          14.000  
E16  23398070.603   122957509.883        -781.181          40.000  
E24  24986340.167   131303943.697       -1984.918          38.000  
E25  23395432.729   122943634.770         563.625          34.000  
G01  21738634.506   114237244.506       -2502.588          29.000  
G02  23796709.431   125052445.9541      -3036.216          13.000  
G03  21392871.273   112420243.890        1229.770          37.000  
G14  20025327.204   105233582.741        -371.683          41.000  
G17  20887793.831   109766097.297         766.370          40.000  
G19  22114665.686   116213173.376        2362.186          35.000  
G22  20902489.957   109843330.602        1046.625          37.000  
J02  37999085.431   199686530.634         643.914          38.000  
J03  38916505.514   204507400.699        -393.125          43.000  
> 2025 03 12 06 43 40.9995645  0 22                     
C07  35820244.885   186525414.303         198.780          41.000  
C09  38866466.630   202387793.379       -1844.079          26.000  
C26  24653088.547   128375152.114        1877.704          34.000  
C29  21613055.118   112544726.859         -20.884          38.000  
C35  24490609.429   127529088.581        2240.368          28.000  
C40  36074695.833   187850406.887         127.679          30.000  
C45  22585150.151   117606566.385       -1116.038          36.000  
E10  23912773.856   125662270.365       -1167.599          28.000  
E11  23700836.178   124548479.351         295.059          38.000  
E12  25332878.438   133125161.6511      -2150.986          14.000  
E16  23398217.276   122958277.738        -780.890          40.000  
E24  24986716.781   131305917.997       -1986.593          39.000  
E25  23395329.675   122943065.892         550.154          33.000  
G01  21739114.549   114239734.001       -2502.590          26.000  
G02  23797295.000   125055468.1701      -3036.294          13.000  
G03  21392636.011   112419000.805        1232.821          37.000  
G14  20025397.131   105233941.903        -371.401          41.000  
G17  20887650.306   109765320.071         766.374          38.000  
G19  22114215.472   116210797.462        2364.648          35.000  
G22  20902288.572   109842268.253        1051.225          37.000  
J02  37998961.391   199685875.542         641.168          38.000  
J03  38916579.038   204507781.601        -393.593          44.000  
> 2025 03 12 06 43 41.9995035  0 22                     
C07  35820234.655   186525356.397         197.990          40.000  
C09  38866870.713   202389778.685       -1845.214          27.000  
C26  24652756.939   128373412.688        1881.812          34.000  
C29  21613095.853   112544887.826         -21.294          38.000  
C35  24490210.368   127526985.811        2245.131          30.000  
C40  36074701.491   187850420.356         126.678          23.000  
C45  22585389.648   117607824.450       -1123.500          36.000  
E10  23913027.143   125663578.612       -1169.345          22.000  
E11  23700808.259   124548327.013         293.828          38.000  
E12  25333319.096   133127453.1581      -2151.294           6.000  
E16  23398394.416   122959201.115        -783.455          40.000  
E24  24987124.761   131308048.579       -1989.741          39.000  
E25  23395247.495   122942662.728         540.190          32.000  
G01  21739624.758   114242376.973       -2501.763          24.000  
G02  23797900.544   125058646.4001      -3036.294          13.000  
G03  21392431.815   112417912.676        1228.171          37.000  
G14  20025495.725   105234453.886        -373.243          40.000  
G17  20887534.548   109764697.690         761.932          39.000  
G19  22113793.327   116208572.619        2366.573          35.000  
G22  20902116.154   109841366.517        1038.867          36.000  
J02  37998868.718   199685378.552         634.567          38.000  
J03  38916682.429   204508316.746        -396.675          44.000  
> 2025 03 12 06 43 42.9994424  0 22                     
C07  35820195.794   186525143.142         198.163          41.000  
C09  38867226.679   202391607.966       -1846.722          30.000  
C26  24652394.003   128371515.004        1883.901          34.000  
C29  21613110.955   112544893.697         -20.587          38.000  
C35  24489784.775   127524724.582        2248.976          30.000  
C40  36074677.920   187850279.144         125.874          22.000  
C45  22585600.514   117608932.535       -1124.994          36.000  
E10  23913246.104   125664731.9651      -1171.801          18.000  
E11  23700750.812   124548286.305         292.545          38.000  
E12  25333730.823   133129654.4791      -2151.641           5.000  
E16  23398541.727   122959971.714        -785.136          40.000  
E24  24987514.004   131310029.901       -1998.859          40.000  
E25  23395140.281   122942110.442         535.054          32.000  
G01  21740107.237   114244862.8151      -2500.637          20.000  
G02  23798487.650   125061667.3701      -3038.274          13.000  
G03  21392195.691   112416671.850        1222.569          37.000  
G14  20025565.989   105234813.351        -375.473          42.000  
G17  20887388.362   109763923.542         757.259          34.000  
G19  22113341.652   116206190.800        2367.836          36.000  
G22  20901914.805   109840311.950        1040.919          36.000  
J02  37998748.914   199684732.502         628.360          39.000  
J03  38916755.990   204508699.320        -398.893          43.000  
> 2025 03 12 06 43 44.0003812  0 22                     
C07  35820145.542   186524872.631         197.753          41.000  
C09  38867568.854   202393383.610       -1846.388          29.000  
C26  24652019.974   128369554.005        1889.353          34.000  
C29  21613111.966   112545144.725         -20.989          38.000  
C35  24489353.486   127522398.048        2253.677          31.000  
C40  36074642.957   187850080.9481        125.079          14.000  
C45  22585802.687   117609985.649       -1124.836          35.000  
E10  23913456.071   125665831.9331      -1173.063          13.000  
E11  23700679.573   124547921.364         292.012          38.000  
E12  25334127.561   133131739.0691      -2151.883           4.000  
E16  23398681.542   122960686.133        -788.005          41.000  
E24  24987878.364   131311966.768       -2006.468          40.000  
E25  23395022.575   122941501.720         535.950          31.000  
G01  21740578.024   114247283.687       -2493.310          22.000  
G02  23799053.770   125064633.3081      -3038.646          13.000  
G03  21391949.374   112415376.652        1219.164          36.000  
G14  20025625.161   105235115.742        -377.958          40.000  
G17  20887232.882   109763092.796         757.789          29.000  
G19  22112878.285   116203746.456        2370.418          37.000  
G22  20901700.866   109839195.192        1043.532          35.000  
J02  37998613.820   199684026.643         630.838          38.000  
J03  38916819.359   204509025.633        -402.109          44.000  
> 2025 03 12 06 43 45.0003201  0 21                     
C07  35820105.032   186524655.644         202.485          41.000  
C09  38867922.272   202395211.620       -1843.757          29.000  
C26  24651655.089   128367645.630        1897.307          35.000  
C29  21613122.422   112545144.526         -12.412          37.000  
C35  24488925.045   127520127.857        2255.733          31.000  
C40  36074618.037   187849940.1841        125.498          13.000  
C45  22586019.699   117611092.693       -1124.056          36.000  
E10  23913675.182   125666989.2891      -1175.277          13.000  
E11  23700622.875   124547611.805         293.655          38.000  
E16  23398835.298   122961459.156        -789.745          44.000  
E24  24988244.973   131313949.135       -2000.555          39.000  
E25  23394915.812   122940945.931         544.754          31.000  
G01  21741062.750   114250055.336       -2499.936          22.000  
G02  23799637.729   125067939.6961      -3038.423          13.000  
G03  21391717.597   112414143.010        1215.808          36.000  
G14  20025696.174   105235742.847        -375.341          43.000  
G17  20887087.145   109762317.470         760.962          26.000  
G19  22112424.062   116201355.465        2378.063          38.000  
G22  20901497.869   109838133.410        1048.389          33.000  
J02  37998490.867   199683379.602         629.608          38.000  
J03  38916894.270   204509408.477        -400.295          43.000  
> 2025 03 12 06 43 46.0002591  0 22                     
C07  35820094.390   186524597.763         198.889          41.000  
C09  38868303.159   202397196.020       -1844.378          31.000  
C26  24651317.973   128365889.891        1898.042          36.000  
C29  21613166.941   112545299.680         -13.753          37.000  
C35  24488517.177   127518015.040        2254.563          30.000  
C40  36074623.583   187849957.2351        126.200          13.000  
C45  22586266.578   117612357.803       -1123.273          35.000  
E10  23913923.260   125668308.699       -1179.818          22.000  
E11  23700596.044   124547463.492         292.323          38.000  
E12  25335301.061   133137905.4531      -2154.842           7.000  
E16  23399010.827   122962394.088        -792.299          42.000  
E24  24988661.834   131316097.090       -2005.074          39.000  
E25  23394833.819   122940539.568         557.415          32.000  
G01  21741573.147   114252702.367       -2507.598          25.000  
G02  23800245.858   125071087.6351      -3004.124          19.000  
G03  21391515.687   112413075.196        1209.426          35.000  
G14  20025797.054   105236262.956        -379.942          42.000  
G17  20886970.976   109761699.714         762.214          23.000  
G19  22111999.406   116199120.377        2379.104          38.000  
G22  20901325.638   109837228.471        1047.383          33.000  
J02  37998399.880   199682896.709         623.322          38.000  
J03  38916999.647   204509953.467        -404.495          44.000  
> 2025 03 12 06 43 47.0001980  0 21                     
C07  35820054.255   186524384.597         201.761          42.000  
C09  38868658.450   202399304.248       -1844.561          31.000  
C26  24650951.064   128363977.282        1902.353          36.000  
C29  21613176.572   112545301.070         -14.024          36.000  
C35  24488078.019   127515749.361        2253.229          29.000  
C40  36074603.834   187849818.3061        127.269          12.000  
C45  22586480.368   117613729.439       -1126.103          34.000  
E10  23914155.637   125669475.605       -1179.809          29.000  
E11  23700540.020   124547158.693         293.054          38.000  
E16  23399156.863   122963171.397        -790.494          40.000  
E24  24989039.011   131318092.109       -2006.815          38.000  
E25  23394726.830   122939964.198         567.185          32.000  
G01  21741990.496   114254930.394       -2512.812          43.000  
G02  23800825.094   125074079.815       -3009.494          21.000  
G03  21391283.385   112411853.437        1208.847          35.000  
G14  20025866.943   105236627.281        -376.058          39.000  
G17  20886825.014   109760925.473         761.348          25.000  
G19  22111546.457   116196726.562        2384.592          38.000  
G22  20901125.414   109836168.837        1047.743          35.000  
J02  37998279.401   199682259.303         624.578          38.000  
J03  38917075.532   204510611.933        -402.310          44.000  
> 2025 03 12 06 43 48.0001369  0 22                     
C07  35820014.233   186524165.862         203.257          41.000  
C09  38869010.257   202401130.291       -1845.256          32.000  
C26  24650583.369   128362057.007        1905.815          36.000  
C29  21613194.409   112545574.365         -12.700          38.000  
C35  24487635.975   127513478.079        2257.300          32.000  
C40  36074583.298   187849674.3311        127.947          12.000  
C45  22586693.670   117614835.770       -1122.149          33.000  
E10  23914373.136   125670636.787       -1180.487          33.000  
E11  23700483.209   124546849.420         292.879          39.000  
E12  25335919.720   133141156.6761      -2160.369          32.000  
E16  23399304.511   122963944.678        -791.260          40.000  
E24  24989417.199   131320083.458       -2009.216          37.000  
E25  23394615.457   122939379.368         569.426          31.000  
G01  21742470.613   114257425.580       -2514.264          47.000  
G02  23801321.401   125076787.616       -3017.522          26.000  
G03  21391052.095   112410629.193        1206.918          34.000  
G14  20025935.446   105236987.156        -378.631          43.000  
G17  20886679.465   109760147.791         761.263          28.000  
G19  22111089.424   116194324.085        2388.003          37.000  
G22  20900922.605   109835103.244        1049.262          33.000  
J02  37998159.334   199681618.868         622.819          36.000  
J03  38917150.030   204510999.064        -405.835          43.000  
> 2025 03 12 06 43 49.0000758  0 22                     
C07  35819974.173   186523948.154         204.261          41.000  
C09  38869369.820   202402962.645       -1844.660          29.000  
C26  24650216.535   128360134.512        1911.296          36.000  
C29  21613202.616   112545572.604          -6.844          38.000  
C35  24487205.585   127511205.466        2261.357          32.000  
C40  36074562.125   187849526.8571        134.920          12.000  
C45  22586904.836   117615942.216       -1119.502          32.000  
E10  23914598.693   125672064.249       -1179.075          37.000  
E11  23700424.263   124546541.625         294.451          38.000  
E12  25336331.448   133143301.916       -2157.512          34.000  
E16  23399455.719   122964722.844        -791.129          39.000  
E24  24989798.348   131322078.610       -2010.207          36.000  
E25  23394504.946   122938795.705         570.005          30.000  
G01  21742947.396   114259923.927       -2511.890          47.000  
G02  23801898.613   125079790.804       -3018.597          26.000  
G03  21390822.866   112409410.496        1205.053          34.000  
G14  20026006.609   105237348.385        -375.524          42.000  
G17  20886535.078   109759371.075         764.843          25.000  
G19  22110633.552   116191921.079        2391.932          36.000  
G22  20900722.756   109834039.064        1052.915          36.000  
J02  37998040.429   199680982.619         621.311          38.000  
J03  38917225.091   204511388.240        -403.249          43.000  
> 2025 03 12 06 43 50.0000148  0 22                     
C07  35819963.006   186523887.265         204.874          41.000  
C09  38869762.174   202404948.715       -1843.642          29.000  
C26  24649880.693   128358366.132        1911.955          35.000  
C29  21613242.414   112545725.957         -11.101          38.000  
C35  24486807.386   127509086.484        2263.438          29.000  
C40  36074567.746   187849530.5201        139.933          12.000  
C45  22587144.595   117617205.999       -1122.099          35.000  
E10  23914853.142   125673388.164       -1179.336          37.000  
E11  23700396.307   124546392.353         294.007          37.000  
E12  25336768.770   133145603.143       -2158.330          35.000  
E16  23399634.920   122965659.290        -792.701          41.000  
E24  24990214.684   131324236.009       -2013.298          37.000  
E25  23394430.223   122938372.307         565.012          30.000  
G01  21743456.668   114262581.467       -2515.661          47.000  
G02  23802509.516   125082952.123       -3016.487          28.000  
G03  21390621.331   112408352.573        1200.931          33.000  
G14  20026106.065   105237869.087        -378.297          37.000  
G17  20886426.478   109758751.028         762.949          23.000  
G19  22110206.572   116189672.772        2392.323          34.000  
G22  20900550.600   109833131.557        1050.442          37.000  
J02  37997956.412   199680507.213         619.932          39.000  
J03  38917330.243   204511936.379        -406.826          43.000  
> 2025 03 12 06 43 50.9999537  0 22                     
C07  35819922.121   186523668.250         205.522          41.000  
C09  38870116.416   202406776.296       -1842.615          28.000  
C26  24649510.037   128356440.528        1911.542          33.000  
C29  21613256.691   112545720.504          -8.372          38.000  
C35  24486375.572   127506809.452        2263.365          29.000  
C40  36074545.749   187849382.7401        133.374          11.000  
C45  22587361.532   117618312.073       -1122.092          35.000  
E10  23915075.175   125674551.031       -1178.936          38.000  
E11  23700338.335   124546084.654         293.289          37.000  
E12  25337179.373   133147745.202       -2157.529          35.000  
E16  23399785.003   122966700.066        -792.449          41.000  
E24  24990594.109   131326234.586       -2013.506          36.000  
E25  23394319.487   122937794.730         562.341          30.000  
G01  21743933.825   114265079.806       -2512.951          46.000  
G02  23803086.504   125085953.276       -3016.718          28.000  
G03  21390384.083   112407135.891        1203.770          33.000  
G14  20026174.905   105238235.614        -384.603          31.000  
G17  20886277.968   109757974.473         763.507          22.000  
G19  22109747.778   116187265.720        2392.982          32.000  
G22  20900349.327   109832066.411        1052.267          38.000  
J02  37997840.880   199679872.529         622.424          39.000  
J03  38917405.378   204512327.145        -403.039          43.000  
> 2025 03 12 06 43 51.9998926  0 22                     
C07  35819880.975   186523452.443         204.753          41.000  
C09  38870465.599   202408606.192       -1842.831          27.000  
C26  24649143.316   128354519.020        1910.370          33.000  
C29  21613269.208   112545719.447         -11.234          39.000  
C35  24485925.809   127504535.530        2262.416          29.000  
C40  36074518.393   187849238.4381        133.020          11.000  
C45  22587577.608   117619422.302       -1123.752          37.000  
E10  23915300.245   125675717.707       -1179.378          38.000  
E11  23700283.098   124545780.218         293.186          37.000  
E12  25337589.414   133149892.397       -2158.896          35.000  
E16  23399933.925   122967480.826        -792.756          41.000  
E24  24990975.970   131328234.573       -2013.977          36.000  
E25  23394209.089   122937222.109         562.386          31.000  
G01  21744410.121   114267582.276       -2515.842          46.000  
G02  23803663.529   125088956.539       -3016.179          29.000  
G03  21390144.474   112405922.332        1200.912          31.000  
G14  20026245.281   105238610.366        -374.299          28.000  
G17  20886136.091   109757199.719         763.620          21.000  
G19  22109288.421   116184862.391        2391.290          30.000  
G22  20900145.993   109831004.032        1050.697          37.000  
J02  37997721.787   199679240.907         620.580          40.000  
J03  38917480.851   204512719.541        -405.033          43.000  
> 2025 03 12 06 43 52.9998315  0 22                     
C07  35819840.540   186523234.197         202.007          41.000  
C09  38870821.490   202410433.160       -1842.617          26.000  
C26  24648771.311   128352595.243        1906.351          32.000  
C29  21613282.736   112546034.270         -13.285          39.000  
C35  24485489.948   127502260.041        2259.285          31.000  
C40  36074492.948   187849095.7811        127.484          11.000  
C45  22587789.599   117620532.580       -1126.555          37.000  
E10  23915523.328   125676883.130       -1182.069          38.000  
E11  23700225.875   124545473.490         290.893          38.000  
E12  25337998.669   133152034.569       -2159.675          35.000  
E16  23400080.561   122968260.865        -795.428          41.000  
E24  24991360.641   131330234.640       -2015.636          36.000  
E25  23394104.498   122936643.218         563.414          31.000  
G01  21744885.929   114270081.752       -2516.585          46.000  
G02  23804235.571   125091957.361       -3018.320          29.000  
G03  21389912.772   112404707.309        1198.366          30.000  
G14  20026314.871   105238971.502        -381.666          32.000  
G17  20885995.526   109756421.042         762.943          24.000  
G19  22108827.977   116182456.003        2389.956          32.000  
G22  20899945.469   109829939.268        1048.422          37.000  
J02  37997602.507   199678606.574         617.294          39.000  
J03  38917555.237   204513109.289        -406.462          43.000  
> 2025 03 12 06 43 53.9997705  0 22                     
C07  35819829.448   186523174.534         201.744          41.000  
C09  38871201.927   202412418.332       -1844.896          26.000  
C26  24648436.443   128350831.068        1905.726          32.000  
C29  21613324.107   112546190.115         -14.531          39.000  
C35  24485085.528   127500144.289        2257.351          31.000  
C40  36074498.944   187849382.0421        128.102          11.000  
C45  22588033.030   117621799.294       -1126.128          37.000  
E10  23915774.854   125678208.549       -1182.690          39.000  
E11  23700200.393   124545327.359         289.952          38.000  
E12  25338440.563   133154337.961       -2161.182          36.000  
E16  23400261.936   122969198.712        -796.077          41.000  
E24  24991770.158   131332393.615       -2017.161          36.000  
E25  23394022.655   122936225.054         559.841          31.000  
G01  21745393.178   114272742.699       -2518.331          46.000  
G02  23804835.755   125095120.168       -3020.241          29.000  
G03  21389716.407   112403653.231        1196.777          31.000  
G14  20026416.500   105239497.030        -383.375          35.000  
G17  20885884.003   109755801.393         763.488          23.000  
G19  22108398.674   116180210.405        2388.845          31.000  
G22  20899775.487   109829035.714        1046.097          37.000  
J02  37997513.169   199678132.340         617.104          39.000  
J03  38917660.764   204513658.587        -407.662          43.000  
> 2025 03 12 06 43 54.9997094  0 22                     
C07  35819789.126   186522960.502         203.072          41.000  
C09  38871553.134   202414250.399       -1845.819          26.000  
C26  24648066.049   128348912.589        1907.122          34.000  
C29  21613337.148   112546189.963         -10.554          38.000  
C35  24484653.077   127497874.286        2256.989          30.000  
C40  36074474.211   187849240.5291        128.847          11.000  
C45  22588245.133   117622912.304       -1125.560          36.000  
E10  23916001.946   125679378.124       -1183.309          39.000  
E11  23700143.882   124545025.748         288.952          38.000  
E12  25338847.531   133156483.920       -2160.984          37.000  
E16  23400414.680   122969981.308        -796.811          42.000  
E24  24992149.545   131334397.479       -2017.370          37.000  
E25  23393916.379   122935652.895         558.611          31.000  
G01  21745871.496   114275243.565       -2515.430          47.000  
G02  23805412.406   125098126.400       -3021.602          28.000  
G03  21389497.409   112402442.953        1198.328          33.000  
G14  20026490.099   105239864.231        -381.767          37.000  
G17  20885734.557   109755025.1331        763.124          18.000  
G19  22107937.743   116177808.412        2389.785          32.000  
G22  20899575.675   109827974.414        1050.009          37.000  
J02  37997392.802   199677500.285         620.412          39.000  
J03  38917736.462   204514048.679        -403.781          43.000  
> 2025 03 12 06 43 55.9996483  0 22                     
C07  35819748.542   186522741.806         204.208          41.000  
C09  38871901.080   202416079.187       -1845.064          27.000  
C26  24647701.389   128346990.150        1908.674          34.000  
C29  21613350.226   112546187.688         -13.363          38.000  
C35  24484227.559   127495601.608        2260.095          29.000  
C40  36074453.713   187849097.1661        128.772          11.000  
C45  22588460.871   117624022.739       -1126.459          38.000  
E10  23916223.980   125680544.618       -1182.158          39.000  
E11  23700086.509   124544720.819         290.282          38.000  
E12  25339259.333   133158628.714       -2159.565          37.000  
E16  23400562.665   122970761.725        -795.967          42.000  
E24  24992528.670   131336396.655       -2015.612          36.000  
E25  23393809.840   122935078.530         561.052          31.000  
G01  21746350.153   114277745.835       -2517.126          47.000  
G02  23805988.495   125101130.228       -3019.121          30.000  
G03  21389280.247   112401229.600        1198.248          34.000  
G14  20026560.738   105240230.864        -381.939          40.000  
G17  20885586.047   109754247.5701        762.661          17.000  
G19  22107482.846   116175403.637        2390.501          33.000  
G22  20899374.402   109826910.658        1048.214          38.000  
J02  37997270.974   199676866.122         620.511          40.000  
J03  38917811.597   204514437.585        -405.844          43.000  
> 2025 03 12 06 43 56.9995872  0 22                     
C07  35819708.107   186522522.962         204.044          42.000  
C09  38872250.676   202417907.816       -1844.757          28.000  
C26  24647336.279   128345067.783        1907.694          34.000  
C29  21613360.157   112546184.704         -12.494          38.000  
C35  24483797.695   127493325.697        2261.561          28.000  
C40  36074427.369   187848952.4611        129.818          11.000  
C45  22588672.562   117625133.052       -1127.681          37.000  
E10  23916449.162   125681710.157       -1181.667          39.000  
E11  23700029.886   124544414.628         290.560          39.000  
E12  25339665.889   133160772.185       -2160.178          37.000  
E16  23400713.198   122971541.336        -795.561          42.000  
E24  24992913.641   131338396.450       -2015.587          36.000  
E25  23393700.753   122934499.865         564.940          31.000  
G01  21746828.359   114280246.078       -2517.082          47.000  
G02  23806563.834   125104133.178       -3017.692          32.000  
G03  21389061.436   112400016.737        1197.644          34.000  
G14  20026631.526   105240596.009        -381.927          42.000  
G17  20885437.088   109753469.5491        762.740          18.000  
G19  22107028.398   116172997.503        2391.620          33.000  
G22  20899173.878   109825847.526        1047.778          38.000  
J02  37997149.596   199676230.838         620.000          39.000  
J03  38917887.182   204514827.324        -405.128          43.000  
> 2025 03 12 06 43 57.9995262  0 22                     
C07  35819697.015   186522460.679         204.196          42.000  
C09  38872632.611   202419892.698       -1843.884          28.000  
C26  24646996.614   128343302.598        1907.506          34.000  
C29  21613405.126   112546671.514         -12.056          38.000  
C35  24483391.776   127491207.041        2260.882          30.000  
C40  36074434.564   187848964.1261        131.011          11.000  
C45  22588912.996   117626399.457       -1126.400          36.000  
E10  23916700.987   125683034.590       -1182.072          38.000  
E11  23700001.705   124544267.680         290.160          39.000  
E12  25340103.287   133163074.706       -2159.805          37.000  
E16  23400892.774   122972477.950        -795.738          41.000  
E24  24993325.856   131340554.636       -2016.080          37.000  
E25  23393622.207   122934079.082         562.438          30.000  
G01  21747336.807   114282904.191       -2515.981          47.000  
G02  23807170.014   125107291.977       -3017.305          32.000  
G03  21388865.671   112399247.609        1197.379          32.000  
G14  20026733.756   105241120.374        -382.042          43.000  
G17  20885318.070   109752850.6711        762.296          18.000  
G19  22106608.388   116170750.005        2390.724          35.000  
G22  20899003.296   109824942.848        1048.208          38.000  
J02  37997057.559   199675753.691         621.336          39.000  
J03  38917992.409   204515375.255        -404.345          43.000  
> 2025 03 12 06 43 58.9994651  0 22                     
C07  35819655.943   186522241.827         204.735          42.000  
C09  38872987.865   202421721.683       -1843.629          28.000  
C26  24646629.069   128341380.423        1907.662          34.000  
C29  21613414.719   112546673.076         -13.483          38.000  
C35  24482964.272   127489219.493        2259.036          28.000  
C40  36074412.679   187848819.0311        131.219          11.000  
C45  22589129.146   117627512.149       -1125.394          36.000  
E10  23916925.832   125684200.252       -1181.365          38.000  
E11  23699945.644   124543962.910         290.800          39.000  
E12  25340515.501   133165218.303       -2159.142          37.000  
E16  23401044.169   122973259.133        -795.683          40.000  
E24  24993711.089   131342837.829       -2015.600          36.000  
E25  23393516.980   122933504.279         559.427          30.000  
G01  21747813.177   114285404.839       -2515.680          47.000  
G02  23807745.316   125110294.296       -3015.959          32.000  
G03  21388636.930   112398036.444        1197.825          30.000  
G14  20026805.406   105241488.615        -381.279          44.000  
G17  20885166.075   109752074.2111        763.003          18.000  
G19  22106157.201   116168639.834        2391.624          36.000  
G22  20898801.536   109823881.489        1048.288          38.000  
J02  37996934.645   199675118.632         621.165          38.000  
J03  38918067.957   204515763.553        -402.786          43.000  
> 2025 03 12 06 44 00.0004040  0 22                     
C07  35819633.459   186522120.960         201.578          42.000  
C09  38873360.508   202423649.622       -1844.818          28.000  
C26  24646279.811   128339556.158        1903.730          34.000  
C29  21613446.497   112546768.881         -14.521          38.000  
C35  24482542.763   127487041.397        2256.962          29.000  
C40  36074400.987   187848770.6401        131.008          11.000  
C45  22589363.884   117628721.886       -1130.057          35.000  
E10  23917166.565   125685466.277       -1183.810          38.000  
E11  23699908.170   124543756.980         288.654          38.000  
E12  25340943.005   133167462.826       -2160.632          37.000  
E16  23401210.854   122974139.317        -797.711          40.000  
E24  24994109.813   131344941.203       -2017.470          37.000  
E25  23393424.944   122933028.159         558.293          29.000  
G01  21748309.034   114288007.755       -2520.169          47.000  
G02  23808337.406   125113396.646       -3019.898          32.000  
G03  21388427.675   112396922.633        1194.137          31.000  
G14  20026896.843   105241954.916        -387.518          45.000  
G17  20884961.017   109751394.101         763.025          21.000  
G19  22105725.799   116166330.708        2388.468          37.000  
G22  20898617.163   109822915.993        1046.160          37.000  
J02  37996831.516   199674582.028         616.972          37.000  
J03  38918161.492   204516251.090        -407.870          43.000  
> 2025 03 12 06 44 01.0003429  0 22                     
C07  35819592.425   186521904.048         202.595          42.000  
C09  38873711.902   202425478.272       -1845.241          28.000  
C26  24645910.803   128337636.002        1904.706          34.000  
C29  21613460.325   112546768.489         -15.764          38.000  
C35  24482096.110   127484769.721        2255.791          28.000  
C40  36074373.144   187848623.8301        132.075          11.000  
C45  22589573.176   117629836.209       -1131.738          34.000  
E10  23917389.348   125686634.754       -1184.169          38.000  
E11  23699851.247   124543454.550         287.640          39.000  
E12  25341355.857   133169607.396       -2160.233          38.000  
E16  23401355.991   122974921.830        -798.395          39.000  
E24  24994495.683   131346942.629       -2017.372          37.000  
E25  23393321.253   122932733.343         558.467          30.000  
G01  21748786.641   114290511.032       -2519.015          47.000  
G02  23808911.246   125116672.816       -3021.428          32.000  
G03  21388204.667   112395714.461        1193.634          32.000  
G14  20026968.531   105242322.709        -385.512          46.000  
G17  20884815.655   109750615.8601        762.877          19.000  
G19  22105277.048   116163928.419        2387.692          35.000  
G22  20898416.340   109821855.761        1044.443          38.000  
J02  37996709.238   199673948.155         619.141          37.000  
J03  38918237.078   204516642.057        -405.347          43.000  
> 2025 03 12 06 44 02.0002818  0 22                     
C07  35819552.740   186521687.153         205.631          42.000  
C09  38874065.844   202427309.376       -1844.395          28.000  
C26  24645539.848   128335718.290        1905.339          33.000  
C29  21613472.205   112546767.975         -12.654          38.000  
C35  24481655.602   127482500.636        2257.900          27.000  
C40  36074349.348   187848478.7101        132.404          11.000  
C45  22589786.816   117630952.479       -1126.452          34.000  
E10  23917613.481   125687804.855       -1182.787          39.000  
E11  23699795.973   124543152.898         288.997          39.000  
E12  25341766.160   133171753.426       -2159.633          38.000  
E16  23401505.775   122975705.732        -797.274          38.000  
E24  24994873.609   131348943.511       -2017.006          36.000  
E25  23393211.117   122932159.555         561.706          30.000  
G01  21749264.398   114293013.478       -2516.621          47.000  
G02  23809483.737   125119678.918       -3017.734          33.000  
G03  21387982.408   112394507.008        1196.331          33.000  
G14  20027040.668   105242693.990        -384.789          46.000  
G17  20884669.544   109749839.4161        763.431          18.000  
G19  22104829.645   116161525.765        2391.757          33.000  
G22  20898216.266   109820796.614        1046.455          37.000  
J02  37996586.810   199673314.740         620.745          36.000  
J03  38918312.813   204517031.845        -403.990          44.000  
> 2025 03 12 06 44 03.0002207  0 21                     
C07  35819513.392   186521470.562         203.289          42.000  
C09  38874417.726   202429139.117       -1844.052          27.000  
C26  24645170.429   128333800.895        1904.845          33.000  
C29  21613486.220   112547094.296         -15.204          38.000  
C35  24481216.332   127480230.946        2255.935          27.000  
C45  22590002.592   117632065.701       -1128.773          32.000  
E10  23917836.451   125688973.510       -1183.424          39.000  
E11  23699739.837   124542851.826         287.881          39.000  
E12  25342172.604   133173899.001       -2160.363          37.000  
E16  23401656.495   122976491.417        -798.726          38.000  
E24  24995259.967   131350947.742       -2017.641          36.000  
E25  23393098.320   122931585.007         561.973          30.000  
G01  21749742.791   114295516.188       -2519.337          47.000  
G02  23810057.165   125122681.829       -3018.086          32.000  
G03  21387753.591   112393298.656        1193.966          33.000  
G14  20027112.843   105243064.581        -385.346          46.000  
G17  20884522.271   109749063.2551        762.903          19.000  
G19  22104377.483   116159122.421        2388.356          34.000  
G22  20898017.129   109819737.211        1045.744          37.000  
J02  37996463.820   199672681.686         619.678          36.000  
J03  38918388.285   204517421.433        -405.364          43.000  
> 2025 03 12 06 44 04.0001597  0 21                     
C07  35819502.562   186521408.274         201.797          41.000  
C09  38874798.724   202431124.000       -1843.944          28.000  
C26  24644832.825   128332038.340        1901.204          35.000  
C29  21613526.654   112547252.987         -18.599          39.000  
C35  24480802.581   127478114.756        2256.780          27.000  
C45  22590243.587   117633335.963       -1132.062          27.000  
E10  23918090.338   125690300.982       -1185.331          38.000  
E11  23699712.218   124542707.306         286.192          38.000  
E12  25342613.861   133176201.809       -2162.272          37.000  
E16  23401836.333   122977431.738        -800.165          38.000  
E24  24995669.146   131353107.171       -2019.838          36.000  
E25  23393023.035   122931165.048         560.628          30.000  
G01  21750251.802   114298177.369       -2518.271          47.000  
G02  23810654.914   125125841.167       -3020.853          33.000  
G03  21387551.793   112392246.738        1193.773          32.000  
G14  20027214.735   105243592.293        -388.216          47.000  
G17  20884414.009   109748442.771         761.535          22.000  
G19  22103949.941   116156875.920        2389.213          32.000  
G22  20897846.809   109818834.459        1043.961          38.000  
J02  37996372.946   199672204.847         617.615          36.000  
J03  38918493.775   204517966.624        -404.570          43.000  
> 2025 03 12 06 44 05.0000986  0 21                     
C07  35819461.940   186521189.578         204.166          41.000  
C09  38875154.128   202432952.396       -1846.101          28.000  
C26  24644462.731   128330120.755        1903.553          33.000  
C29  21613543.293   112547257.164         -17.610          39.000  
C35  24480373.128   127475843.012        2257.904          26.000  
C45  22590461.387   117634449.260       -1129.415          26.000  
E10  23918316.232   125691468.952       -1184.142          38.000  
E11  23699660.204   124542405.063         287.740          38.000  
E12  25343020.829   133178346.154       -2160.971          37.000  
E16  23401987.279   122978213.158        -798.385          37.000  
E24  24996044.636   131355110.425       -2018.127          35.000  
E25  23392914.959   122930590.221         558.610          30.000  
G01  21750730.720   114300680.558       -2519.146          47.000  
G02  23811224.969   125128845.057       -3016.952          34.000  
G03  21387257.847   112391039.859        1190.172          31.000  
G14  20027287.135   105243964.577        -386.464          47.000  
G17  20884281.650   109747666.461         761.392          26.000  
G19  22103487.212   116154471.911        2388.460          32.000  
G22  20897646.698   109817776.654        1043.665          37.000  
J02  37996251.680   199671572.815         618.655          33.000  
J03  38918569.472   204518357.264        -404.657          43.000  
> 2025 03 12 06 44 06.0000375  0 21                     
C07  35819422.667   186520975.937         204.680          41.000  
C09  38875501.588   202434786.572       -1845.346          28.000  
C26  24644096.385   128328207.159        1903.445          34.000  
C29  21613553.486   112547261.575         -15.966          39.000  
C35  24479940.827   127473573.995        2259.628          26.000  
C45  22590681.734   117635566.347       -1129.285          23.000  
E10  23918539.877   125692642.436       -1185.760          37.000  
E11  23699604.143   124542108.264         286.173          38.000  
E12  25343432.444   133180496.985       -2161.049          37.000  
E16  23402136.276   122979002.840        -799.670          37.000  
E24  24996431.668   131357117.708       -2018.190          35.000  
E25  23392809.133   122930020.244         557.859          30.000  
G01  21751209.788   114303187.442       -2517.383          47.000  
G02  23811797.273   125131850.841       -3018.147          34.000  
G03  21387029.105   112389839.163        1191.437          31.000  
G14  20027359.385   105244339.609        -387.011          46.000  
G17  20884143.446   109746894.418         761.329          27.000  
G19  22103021.934   116152072.764        2390.177          34.000  
G22  20897447.036   109816720.805        1045.826          37.000  
J02  37996131.763   199670942.453         620.138          32.000  
J03  38918645.620   204518749.006        -403.112          43.000  
> 2025 03 12 06 44 06.9999764  0 21                     
C07  35819381.221   186520755.737         205.570          41.000  
C09  38875855.568   202436615.033       -1843.604          30.000  
C26  24643729.663   128326288.864        1904.053          35.000  
C29  21613568.400   112547265.563         -18.506          39.000  
C35  24479502.755   127471300.436        2258.864          27.000  
C45  22590925.690   117636679.200       -1125.743          23.000  
E10  23918766.445   125693811.448       -1183.772          37.000  
E11  23699544.409   124541805.516         287.789          37.000  
E12  25343842.485   133182641.123       -2160.554          37.000  
E16  23402289.095   122979785.190        -798.574          37.000  
E24  24996806.933   131359118.615       -2017.384          35.000  
E25  23392700.533   122929448.652         556.809          30.000  
G01  21751688.182   114305689.791       -2519.253          46.000  
G02  23812370.102   125134852.261       -3016.421          34.000  
G03  21386797.291   112388632.710        1192.493          31.000  
G14  20027431.260   105244710.947        -387.730          47.000  
G17  20884001.269   109746117.996         762.280          27.000  
G19  22102556.281   116149667.152        2391.530          35.000  
G22  20897245.500   109815660.834        1044.841          37.000  
J02  37996012.071   199670308.007         620.254          31.000  
J03  38918720.493   204519136.062        -403.434          43.000  
> 2025 03 12 06 44 07.9999154  0 21                     
C07  35819370.391   186520695.052         202.622          41.000  
C09  38876239.864   202438600.469       -1842.846          31.000  
C26  24643393.259   128324528.517        1903.610          35.000  
C29  21613610.634   112547741.847         -16.610          39.000  
C35  24479094.101   127469184.210        2260.568          29.000  
C45  22591191.868   117638263.430       -1133.779          28.000  
E10  23919018.533   125695138.323       -1184.748          38.000  
E11  23699516.491   124541663.694         286.711          37.000  
E12  25344280.445   133184944.854       -2159.988          37.000  
E16  23402474.929   122980727.550        -799.603          37.000  
E24  24997219.710   131361280.811       -2017.832          35.000  
E25  23392624.948   122929037.312         555.475          29.000  
G01  21752196.293   114308352.441       -2519.784          46.000  
G02  23812971.448   125138012.472       -3019.300          34.000  
G03  21386597.292   112387586.480        1190.406          33.000  
G14  20027533.752   105245242.848        -387.455          47.000  
G17  20883887.910   109745500.488         762.162          25.000  
G19  22102123.643   116147421.808        2388.885          35.000  
G22  20897074.581   109814761.368        1043.339          37.000  
J02  37995920.896   199669832.112         621.424          30.000  
J03  38918826.882   204519684.519        -403.859          43.000  
> 2025 03 12 06 44 08.9998543  0 21                     
C07  35819329.994   186520475.085         206.542          41.000  
C09  38876593.694   202440427.810       -1841.527          30.000  
C26  24643029.686   128322610.072        1906.086          35.000  
C29  21613620.302   112547740.425         -13.588          39.000  
C35  24478656.479   127466910.054        2260.253          28.000  
C45  22591422.783   117639381.899       -1133.188          27.000  
E10  23919239.555   125696306.307       -1183.788          38.000  
E11  23699460.205   124541360.986         287.494          37.000  
E12  25344687.638   133187088.785       -2159.016          37.000  
E16  23402625.799   122981510.054        -798.728          37.000  
E24  24997602.020   131363282.521       -2017.388          35.000  
E25  23392511.102   122928465.107         558.587          29.000  
G01  21752672.438   114310853.826       -2518.003          46.000  
G02  23813544.726   125141014.127       -3016.567          33.000  
G03  21386377.619   112386379.277        1192.459          35.000  
G14  20027606.077   105245613.055        -385.460          46.000  
G17  20883739.588   109744722.531         763.490          25.000  
G19  22101664.736   116145016.443        2391.245          36.000  
G22  20896872.896   109813702.163        1044.727          37.000  
J02  37995798.956   199669195.148         622.175          29.000  
J03  38918902.205   204520071.772        -401.193          43.000  
> 2025 03 12 06 44 09.9997932  0 21                     
C07  35819289.222   186520254.227         203.259          41.000  
C09  38876948.349   202442253.274       -1842.554          30.000  
C26  24642664.838   128320689.503        1902.256          35.000  
C29  21613636.491   112547741.629         -17.812          39.000  
C35  24478223.578   127464635.093        2259.198          32.000  
C45  22591653.324   117640497.864       -1132.721          24.000  
E10  23919462.601   125697474.322       -1185.140          39.000  
E11  23699405.343   124541058.955         286.196          38.000  
E12  25345096.255   133189230.494       -2160.392          37.000  
E16  23402775.995   122982293.631        -799.921          38.000  
E24  24997990.851   131365282.727       -2017.563          35.000  
E25  23392401.378   122927889.834         559.555          29.000  
G01  21753147.309   114313356.071       -2519.880          47.000  
G02  23814116.430   125144013.387       -3016.737          32.000  
G03  21386166.265   112385173.375        1189.059          37.000  
G14  20027678.327   105245984.904        -389.586          46.000  
G17  20883590.891   109743943.713         763.056          23.000  
G19  22101209.051   116142609.883        2390.345          35.000  
G22  20896671.735   109812641.925        1043.934          37.000  
J02  37995674.242   199668557.217         621.485          28.000  
J03  38918977.153   204520456.132        -403.480          43.000  
> 2025 03 12 06 44 10.9997321  0 21                     
C07  35819248.563   186520035.672         205.482          41.000  
C09  38877303.116   202444081.274       -1843.543          30.000  
C26  24642301.003   128318774.674        1900.897          35.000  
C29  21613644.698   112547746.192         -16.250          39.000  
C35  24477796.786   127462361.898        2259.085          31.000  
C45  22591882.778   117641615.147       -1131.366          21.000  
E10  23919685.459   125698645.174       -1183.970          38.000  
E11  23699346.996   124540759.025         286.991          37.000  
E12  25345502.286   133191375.613       -2159.498          36.000  
E16  23402929.901   122983079.080        -799.519          38.000  
E24  24998371.400   131367287.444       -2018.041          36.000  
E25  23392296.563   122927319.162         541.713          29.000  
G01  21753622.593   114315860.109       -2517.296          46.000  
G02  23814690.945   125147015.812       -3017.232          31.000  
G03  21385953.825   112383970.903        1190.854          38.000  
G14  20027750.989   105246358.899        -388.462          45.000  
G17  20883445.904   109743167.928         762.002          25.000  
G19  22100757.976   116140206.205        2391.351          34.000  
G22  20896471.886   109811585.766        1043.789          36.000  
J02  37995553.238   199667922.469         621.815          28.000  
J03  38919052.513   204520845.896        -401.498          43.000  
> 2025 03 12 06 44 11.9996711  0 21                     
C07  35819237.320   186519973.698         205.715          41.000  
C09  38877693.895   202446354.293       -1842.907          29.000  
C26  24641960.588   128317016.296        1903.483          35.000  
C29  21613690.416   112547908.169         -16.757          40.000  
C35  24477397.613   127460247.857        2258.003          31.000  
C45  22592131.455   117643156.9781      -1130.069          19.000  
E10  23919942.531   125699972.701       -1184.060          39.000  
E11  23699322.863   124540617.500         286.985          37.000  
E12  25345941.033   133193679.499       -2159.627          36.000  
E16  23403108.128   122984022.665        -799.229          40.000  
E24  24998789.461   131369449.018       -2017.658          36.000  
E25  23392215.469   122926922.158         544.398          28.000  
G01  21754128.793   114318522.788       -2518.632          46.000  
G02  23815299.973   125150177.554       -3016.842          29.000  
G03  21385766.305   112382925.598        1190.744          39.000  
G14  20027853.068   105246891.706        -388.759          44.000  
G17  20883336.330   109742551.637         762.353          24.000  
G19  22100340.515   116137960.511        2391.052          36.000  
G22  20896301.754   109810687.569        1043.181          36.000  
J02  37995461.052   199667446.501         622.243          26.000  
J03  38919157.890   204521391.516        -401.595          43.000  
> 2025 03 12 06 44 12.9996100  0 21                     
C07  35819197.073   186519754.280         207.112          41.000  
C09  38878049.074   202448180.383       -1842.343          28.000  
C26  24641594.467   128315100.267        1902.088          34.000  
C29  21613701.433   112548214.586         -18.018          40.000  
C35  24476970.034   127457976.479        2258.921          30.000  
C45  22592346.631   117644269.9901      -1129.038          18.000  
E10  23920169.998   125701141.828       -1184.656          38.000  
E11  23699267.326   124540317.292         286.263          37.000  
E12  25346349.875   133195826.195       -2161.245          35.000  
E16  23403256.150   122984807.178        -799.590          40.000  
E24  24999173.420   131371453.570       -2019.406          36.000  
E25  23392108.967   122926361.399         549.390          27.000  
G01  21754605.687   114321026.510       -2518.653          45.000  
G02  23815880.596   125153177.468       -3015.828          27.000  
G03  21385543.484   112381721.484        1188.794          39.000  
G14  20027925.543   105247265.853        -390.777          43.000  
G17  20883197.151   109741774.686         762.391          23.000  
G19  22099891.951   116135554.850        2392.029          37.000  
G22  20896102.317   109809630.610        1042.514          36.000  
J02  37995339.261   199666810.180         621.481          26.000  
J03  38919232.763   204521779.378        -402.765          43.000  
> 2025 03 12 06 44 13.9995489  0 21                     
C07  35819155.777   186519535.000         203.645          41.000  
C09  38878405.303   202450007.369       -1842.465          28.000  
C26  24641226.097   128313185.503        1900.056          34.000  
C29  21613713.500   112548219.900         -19.003          40.000  
C35  24476543.204   127455703.595        2258.801          31.000  
C45  22592545.769   117645384.8761      -1127.850          18.000  
E10  23920396.417   125702313.590       -1185.739          38.000  
E11  23699213.738   124540018.332         284.868          37.000  
E12  25346762.764   133197972.369       -2161.861          36.000  
E16  23403409.419   122985593.628        -800.941          40.000  
E24  24999559.028   131373458.629       -2020.145          37.000  
E25  23392003.815   122925796.827         549.970          25.000  
G01  21755083.631   114323532.061       -2521.515          46.000  
G02  23816459.271   125156177.491       -3016.950          27.000  
G03  21385313.618   112380519.519        1187.371          38.000  
G14  20027998.468   105247643.586        -391.949          41.000  
G17  20883061.420   109740999.290         761.198          24.000  
G19  22099437.540   116133150.779        2387.933          37.000  
G22  20895902.130   109808575.119        1040.956          36.000  
J02  37995221.518   199666175.300         620.925          25.000  
J03  38919308.086   204522167.016        -403.443          43.000  
> 2025 03 12 06 44 14.9994878  0 21                     
C07  35819115.567   186519316.210         203.868          41.000  
C09  38878761.119   202451837.424       -1844.559          28.000  
C26  24640862.411   128311272.881        1898.982          34.000  
C29  21613727.253   112548221.119         -16.156          39.000  
C35  24476112.665   127453431.830        2257.614          31.000  
C45  22592750.190   117646498.9741      -1130.008          18.000  
E10  23920617.326   125703484.482       -1186.332          38.000  
E11  23699157.340   124539719.464         284.599          37.000  
E12  25347173.142   133200118.898       -2162.301          36.000  
E16  23403562.276   122986378.750        -801.364          40.000  
E24  24999942.425   131375461.536       -2020.438          37.000  
E25  23391897.052   122925233.539         547.967          23.000  
G01  21755561.763   114326037.937       -2522.475          46.000  
G02  23817036.334   125159179.460       -3016.655          27.000  
G03  21385077.344   112379317.630        1186.652          36.000  
G14  20028070.980   105248021.466        -393.725          39.000  
G17  20882926.176   109740517.360         760.167          25.000  
G19  22098980.619   116130747.755        2387.872          38.000  
G22  20895703.930   109807519.929        1039.585          36.000  
J02  37995101.863   199665540.702         619.936          22.000  
J03  38919383.297   204522555.960        -404.823          43.000  
> 2025 03 12 06 44 16.0004267  0 21                     
C07  35819093.757   186519192.973         204.709          41.000  
C09  38879134.435   202453762.557       -1845.104          28.000  
C26  24640516.825   128309452.143        1900.438          34.000  
C29  21613757.007   112548318.098         -16.450          39.000  
C35  24475692.131   127451253.572        2256.635          30.000  
C45  22592898.362   117647149.804       -1135.242          26.000  
E10  23920861.132   125704752.630       -1187.715          38.000  
E11  23699120.840   124539517.688         283.219          37.000  
E12  25347600.721   133202362.656       -2161.350          36.000  
E16  23403732.033   122987263.263        -803.473          40.000  
E24  25000340.624   131377566.233       -2020.604          36.000  
E25  23391805.990   122924767.238         545.945          22.000  
G01  21756059.194   114328643.490       -2521.219          46.000  
G02  23817630.298   125162281.216       -3018.534          28.000  
G03  21384855.872   112378213.253        1183.401          33.000  
G14  20028161.592   105248494.701        -392.503          36.000  
G17  20882806.934   109739837.965         759.369          25.000  
G19  22098537.601   116128439.912        2387.673          38.000  
G22  20895522.930   109806561.335        1039.753          36.000  
J02  37994996.411   199665001.7691        619.204          20.000  
J03  38919477.207   204523040.025        -402.428          43.000  
> 2025 03 12 06 44 17.0003656  0 21                     
C07  35819052.049   186518974.881         204.387          41.000  
C09  38879483.656   202455592.708       -1843.871          28.000  
C26  24640150.142   128307537.658        1899.258          35.000  
C29  21613771.360   112548320.151         -11.947          38.000  
C35  24475254.396   127448981.854        2259.310          29.000  
C45  22593121.670   117648270.309       -1136.529          28.000  
E10  23921084.440   125705926.783       -1188.085          39.000  
E11  23699065.041   124539220.181         283.305          38.000  
E12  25348014.697   133204509.980       -2162.909          36.000  
E16  23403884.890   122988052.556        -803.109          41.000  
E24  25000720.724   131379571.251       -2021.559          37.000  
E25  23391693.830   122924207.648         545.394          23.000  
G01  21756538.225   114331150.869       -2519.754          46.000  
G02  23818202.564   125165284.494       -3019.352          29.000  
G03  21384615.701   112377014.743        1185.697          32.000  
G14  20028232.306   105248871.018        -392.517          32.000  
G17  20882664.195   109739064.457         759.380          25.000  
G19  22098071.686   116126037.700        2389.727          37.000  
G22  20895323.531   109805507.884        1040.178          35.000  
J02  37994868.962   199664367.870         620.414          22.000  
J03  38919553.017   204523427.630        -401.530          43.000  
> 2025 03 12 06 44 18.0003046  0 22                     
C07  35819041.069   186518911.621         206.256          41.000  
C09  38879859.109   202457576.994       -1843.395          29.000  
C26  24639815.985   128305781.507        1899.490          36.000  
C29  21613813.144   112548796.556         -15.850          38.000  
C35  24474803.621   127446865.026        2260.433          29.000  
C40  36075037.446   187852186.3901        134.550           9.000  
C45  22593379.904   117649548.185       -1135.328          30.000  
E10  23921336.079   125707254.518       -1185.733          39.000  
E11  23699037.573   124539078.647         285.211          38.000  
E12  25348453.406   133206814.042       -2161.017          37.000  
E16  23404064.878   122988995.035        -801.103          41.000  
E24  25001135.449   131381732.865       -2019.146          37.000  
E25  23391618.095   122923805.870         546.099          22.000  
G01  21757047.684   114333812.718       -2520.529          47.000  
G02  23818746.200   125168444.410       -3015.891          31.000  
G03  21384413.154   112375971.573        1187.197          31.000  
G14  20028332.249   105249407.177        -393.708          28.000  
G17  20882470.941   109738124.969         761.408          26.000  
G19  22097637.699   116123790.743        2391.879          37.000  
G22  20895152.762   109804609.766        1043.157          35.000  
J02  37994774.940   199663889.945         622.291          27.000  
J03  38919658.656   204523971.510        -402.487          44.000  
> 2025 03 12 06 44 19.0002435  0 21                     
C07  35819000.147   186518691.858         207.554          41.000  
C09  38880211.814   202459405.852       -1842.730          30.000  
C26  24639448.290   128303867.490        1902.038          36.000  
C29  21613825.585   112548800.890         -15.831          38.000  
C35  24474379.565   127444591.095        2260.636          30.000  
C45  22593606.996   117650668.573       -1134.697          31.000  
E10  23921558.675   125708426.193       -1185.560          39.000  
E11  23698984.060   124538780.704         284.927          38.000  
E12  25348864.271   133208960.713       -2161.070          37.000  
E16  23404215.524   122989782.572        -801.615          41.000  
E24  25001516.935   131383737.484       -2019.186          37.000  
E25  23391514.516   122923246.221         547.121          23.000  
G01  21757528.701   114336584.697       -2521.898          47.000  
G02  23819321.052   125171447.746       -3015.620          31.000  
G03  21384188.459   112374772.684        1184.970          32.000  
G14  20028404.949   105249787.857        -395.575          30.000  
G17  20882328.090   109737350.680         760.956          25.000  
G19  22097176.168   116121387.200        2389.289          38.000  
G22  20894953.250   109803555.484        1039.115          36.000  
J02  37994656.372   199663255.155         621.268          29.000  
J03  38919734.953   204524360.109        -402.645          44.000  
> 2025 03 12 06 44 20.0001824  0 21                     
C07  35818959.001   186518470.398         207.407          41.000  
C09  38880558.899   202461234.265       -1844.784          30.000  
C26  24639081.869   128301952.927        1899.527          36.000  
C29  21613838.101   112548802.481         -14.314          38.000  
C35  24473949.287   127442318.378        2257.831          30.000  
C45  22593828.768   117651787.970       -1135.077          33.000  
E10  23921783.144   125709594.878       -1185.733          39.000  
E11  23698927.324   124538481.368         284.950          38.000  
E12  25349275.212   133211106.732       -2160.332          37.000  
E16  23404365.645   122990570.832        -801.989          41.000  
E24  25001901.194   131385741.888       -2020.179          37.000  
E25  23391404.418   122922684.765         547.405          24.000  
G01  21758008.594   114339091.058       -2520.930          47.000  
G02  23819893.881   125174447.135       -3014.536          32.000  
G03  21383974.033   112373574.281        1184.042          34.000  
G14  20028481.321   105250166.799        -394.386          35.000  
G17  20882189.211   109736575.135         761.026          27.000  
G19  22096721.008   116118983.334        2390.046          38.000  
G22  20894755.012   109802502.673        1038.636          36.000  
J02  37994537.579   199662619.019         621.485          30.000  
J03  38919810.126   204524748.670        -401.341          44.000  
> 2025 03 12 06 44 21.0001213  0 21                     
C07  35818916.917   186518250.624         207.213          41.000  
C09  38880910.743   202463064.834       -1843.101          30.000  
C26  24638717.209   128300040.818        1900.756          36.000  
C29  21613848.781   112548804.321         -13.178          38.000  
C35  24473525.568   127440048.417        2258.121          28.000  
C45  22594051.401   117652910.922       -1136.706          35.000  
E10  23922008.176   125710767.652       -1185.264          38.000  
E11  23698872.350   124538183.414         284.651          38.000  
E12  25349684.316   133213251.924       -2160.860          37.000  
E16  23404516.928   122991357.179        -801.811          40.000  
E24  25002286.315   131387749.661       -2019.722          38.000  
E25  23391299.977   122922124.582         547.063          22.000  
G01  21758487.850   114341596.578       -2520.381          47.000  
G02  23820465.772   125177445.761       -3013.293          30.000  
G03  21383761.368   112372376.040        1185.212          35.000  
G14  20028556.756   105250546.740        -392.155          38.000  
G17  20882057.490   109735800.625         761.834          28.000  
G19  22096267.910   116116578.910        2391.744          38.000  
G22  20894556.137   109801450.294        1040.828          36.000  
J02  37994420.248   199661984.712         622.659          31.000  
J03  38919886.161   204525135.072        -400.621          44.000  
> 2025 03 12 06 44 22.0000603  0 21                     
C07  35818905.750   186518185.869         206.123          40.000  
C09  38881287.807   202465048.284       -1842.480          30.000  
C26  24638382.265   128298282.491        1899.266          36.000  
C29  21613894.275   112548960.764         -14.559          38.000  
C35  24473122.872   127437930.116        2259.857          28.000  
C45  22594300.454   117654451.289       -1136.818          36.000  
E10  23922264.723   125712094.873       -1186.758          39.000  
E11  23698844.994   124538042.676         283.806          38.000  
E12  25350123.737   133215555.401       -2160.641          37.000  
E16  23404696.428   122992300.988        -802.166          39.000  
E24  25002696.656   131389909.658       -2020.446          39.000  
E25  23391219.858   122921721.072         546.659          20.000  
G01  21758997.122   114344259.320       -2520.796          47.000  
G02  23821069.179   125180602.881       -3017.038          30.000  
G03  21383571.824   112371335.256        1184.467          36.000  
G14  20028661.609   105251082.967        -394.752          41.000  
G17  20881941.695   109735181.720         761.861          22.000  
G19  22095848.425   116114331.836        2389.587          39.000  
G22  20894386.979   109800554.023        1039.014          35.000  
J02  37994333.833   199661505.496         622.228          33.000  
J03  38919990.414   204525677.814        -400.248          44.000  
