     3.04           OBSERVATION DATA    M: Mixed            RINEX VERSION / TYPE
RTKCONV demo5 b34k                      20250422 061247 UTC PGM / RUN BY / DATE 
format: RINEX                                               COMMENT             
log: E:\Proj-ES\GNSS-SPP\RTKLIB-py\data\unisoc\20250317\DATACOMMENT             
  04-C\rover.obs                                            COMMENT             
Geo++                                                       MARKER NAME         
                                                            MARKER NUMBER       
                                                            MARKER TYPE         
                                                            OBSERVER / AGENCY   
unknown             UNISOC              uis7865_6h10_go_a32bREC # / TYPE / VERS 
unknown             uis7865_6h10_go_a32b                    ANT # / TYPE        
 -2181996.4924  4380826.0845  4076294.3985                  APPROX POSITION XYZ 
        0.0000        0.0000        0.0000                  ANTENNA: DELTA H/E/N
G    4 C1C L1C D1C S1C                                      SYS / # / OBS TYPES 
E    4 C1C L1C D1C S1C                                      SYS / # / OBS TYPES 
J    4 C1C L1C D1C S1C                                      SYS / # / OBS TYPES 
C    4 C2I L2I D2I S2I                                      SYS / # / OBS TYPES 
  2025    03    17    02    59   13.9944992     GPS         TIME OF FIRST OBS   
  2025    03    17    03    29   11.0003388     GPS         TIME OF LAST OBS    
G L1C                                                       SYS / PHASE SHIFT   
E L1C  0.00000                                              SYS / PHASE SHIFT   
J L1C                                                       SYS / PHASE SHIFT   
C L2I                                                       SYS / PHASE SHIFT   
 24 R01  1 R02 -4 R03  5 R04  6 R05  1 R06 -4 R07  5 R08  6 GLONASS SLOT / FRQ #
    R09 -2 R10 -5 R11  0 R12 -1 R13 -2 R14 -7 R15  0 R16 -1 GLONASS SLOT / FRQ #
    R17  4 R18 -3 R19  3 R20  2 R21  4 R22 -3 R23  3 R24  2 GLONASS SLOT / FRQ #
 C1C    0.000 C1P    0.000 C2C    0.000 C2P    0.000        GLONASS COD/PHS/BIS 
                                                            END OF HEADER       
> 2025 03 17 02 59 13.9944992  0 24                     
C01  38323191.404   199558913.7091         42.405          36.000  
C02  38361450.917   199758141.6691         -7.530          30.000  
C06  36181165.597   188404823.4971       -742.759          29.000  
C07  36169224.564   188342642.8541        231.770          28.000  
C09  36185289.842   188426299.3121       -146.595          26.000  
C10  37243753.283   193937996.6601        334.648          37.000  
C16  36548427.247   190317251.0621       -841.372          39.000  
C26  21889749.439   113985668.8021        975.098          40.000  
C35  21736050.043   113185316.1791       1131.049          33.000  
C40  36045162.950   187696622.3741         56.016          32.000  
C45  23022007.992   119881636.9811      -1979.247          37.000  
E15  25091326.633   131855811.1011       2484.640          40.000  
E27  24098612.475   126639062.8791       1019.596          42.000  
E30  24617841.920   129367632.5081      -1016.165          28.000  
E34  24974237.592   131240504.5191       -122.312          28.000  
G01  23179911.678   121811257.5281       3538.787          44.000  
G02  21429001.708   112610163.1831       2259.122          44.000  
G07  20852102.387   109578536.9151        979.887          32.000  
G08  20038106.804   105300961.1621      -1056.074          42.000  
G16  24053166.636   126400243.0001      -2872.229          30.000  
G27  22095608.825   116113207.2401      -2971.395          39.000  
G30  22647996.515   119016024.3171       2706.888          40.000  
J02  39252539.329   206273486.2541        298.057          36.000  
J03  38060850.518   200011118.7111        -64.728          39.000  
> 2025 03 17 02 59 14.9944381  0 24                     
C01  38323182.391   199558855.725          45.326          36.000  
C02  38361449.100   199758135.093         -13.176          31.000  
C06  36181306.181   188405549.253        -744.264          27.000  
C07  36169177.777   188342395.567         231.494          28.000  
C09  36185317.704   188426428.367        -143.916          25.000  
C10  37243687.910   193937645.855         334.509          37.000  
C16  36548587.018   190318077.203        -841.764          39.000  
C26  21889556.953   113984679.106         972.813          40.000  
C35  21735826.379   113184169.042        1131.401          33.000  
C40  36045154.837   187696550.320          57.221          31.000  
C45  23022383.014   119883602.226       -1981.606          37.000  
E15  25090854.141   131853311.825        2483.641          38.000  
E27  24098415.792   126638028.287        1018.790          41.000  
E30  24618038.265   129368631.349       -1016.152          28.000  
E34  24974251.364   131240610.082        -123.200          27.000  
G01  23179237.726   121807703.846        3537.249          42.000  
G02  21428571.487   112607889.663        2256.139          43.000  
G07  20851914.398   109577541.848         979.399          35.000  
G08  20038305.548   105302001.455       -1058.098          42.000  
G16  24053710.441   126403096.956       -2869.398          31.000  
G27  22096169.119   116116162.199       -2973.552          38.000  
G30  22647479.055   119013302.199        2706.275          40.000  
J02  39252481.151   206273172.716         296.909          35.000  
J03  38060861.292   200011165.406         -65.424          38.000  
> 2025 03 17 02 59 15.9943770  0 24                     
C01  38323172.376   199558801.303          41.433          36.000  
C02  38361440.284   199758137.369         -17.572          33.000  
C06  36181444.264   188406284.488        -748.203          28.000  
C07  36169127.890   188342154.832         228.231          28.000  
C09  36185344.863   188426562.165        -151.504          25.000  
C10  37243620.934   193937302.803         330.214          37.000  
C16  36548747.885   190318909.195        -846.437          39.000  
C26  21889369.761   113983698.080         967.935          37.000  
C35  21735614.004   113183030.395        1125.498          35.000  
C40  36045142.124   187696483.943          51.897          33.000  
C45  23022761.830   119885573.118       -1986.441          38.000  
E15  25090394.138   131850821.155        2478.506          34.000  
E27  24098217.208   126637002.115        1015.036          40.000  
E30  24618223.715   129369636.884       -1020.119          26.000  
E34  24974282.420   131240723.561        -127.617          26.000  
G01  23178563.671   121804157.641        3533.209          39.000  
G02  21428143.261   112605624.993        2250.937          42.000  
G07  20851727.206   109576555.106         972.034          35.000  
G08  20038504.788   105303050.631       -1063.616          43.000  
G16  24054255.642   126405955.931       -2874.667          32.000  
G27  22096730.808   116119125.344       -2978.143          38.000  
G30  22646964.789   119010588.131        2699.754          40.000  
J02  39252421.370   206272866.544         292.517          36.000  
J03  38060871.064   200011223.055         -72.210          36.000  
> 2025 03 17 02 59 16.9943160  0 24                     
C01  38323193.989   199558905.387          37.425          36.000  
C02  38361466.094   199758299.183         -24.732          32.000  
C06  36181610.077   188407173.758        -751.536          29.000  
C07  36169109.031   188342070.417         224.344          27.000  
C09  36185403.051   188426855.365        -152.319          26.000  
C10  37243587.086   193937116.519         328.333          37.000  
C16  36548939.180   190319899.927        -849.621          39.000  
C26  21889212.098   113982874.340         964.672          35.000  
C35  21735426.062   113182048.747        1122.395          37.000  
C40  36045165.536   187696576.788          47.192          33.000  
C45  23023171.374   119887703.691       -1990.461          38.000  
E15  25089952.871   131848489.743        2473.599          31.000  
E27  24098053.249   126636134.112        1011.255          41.000  
E30  24618453.983   129370801.299       -1024.647          26.000  
E34  24974350.801   131240995.806        -132.758          25.000  
G01  23177920.344   121800770.861        3527.683          38.000  
G02  21427746.064   112603518.857        2249.862          42.000  
G07  20851571.342   109575728.462         970.477          35.000  
G08  20038736.856   105304258.120       -1064.887          42.000  
G16  24054833.969   126408976.613       -2880.791          33.000  
G27  22097325.025   116122247.648       -2981.729          38.000  
G30  22646480.352   119008033.595        2696.137          40.000  
J02  39252393.518   206272719.002         290.396          35.000  
J03  38060913.662   200011438.725         -71.198          35.000  
> 2025 03 17 02 59 17.9942549  0 24                     
C01  38323185.408   199558855.331          39.186          35.000  
C02  38361469.804   199758309.931         -24.958          32.000  
C06  36181748.394   188407913.255        -752.239          29.000  
C07  36169064.175   188341834.124         222.067          27.000  
C09  36185430.744   188426994.237        -152.632          27.000  
C10  37243522.443   193936775.628         328.011          37.000  
C16  36549100.581   190320734.631        -848.903          39.000  
C26  21889026.039   113981895.600         965.160          35.000  
C35  21735207.326   113180912.739        1122.605          37.000  
C40  36045151.857   187696515.622          48.089          32.000  
C45  23023548.626   119889678.008       -1989.459          38.000  
E15  25089476.314   131846002.002        2475.699          32.000  
E27  24097858.497   126635109.780        1011.384          41.000  
E30  24618646.563   129371811.305       -1025.945          24.000  
E34  24974390.186   131241116.660        -130.980          23.000  
G01  23177246.223   121797228.339        3529.535          38.000  
G02  21427318.673   112601255.918        2248.747          42.000  
G07  20851384.983   109574744.830         969.886          34.000  
G08  20038938.728   105305309.646       -1065.318          42.000  
G16  24055382.402   126411841.304       -2877.948          33.000  
G27  22097889.946   116125214.407       -2981.056          38.000  
G30  22645966.021   119005322.627        2696.812          39.000  
J02  39252334.571   206272415.685         290.682          35.000  
J03  38060926.666   200011494.321         -71.623          35.000  
> 2025 03 17 02 59 40.5224899  0 25                     
C01  38323145.264   199558674.086          43.843          31.000  
C02  38361703.970   199759459.364         -11.585          31.000  
C06  36185125.284   188425442.764        -749.289          31.000  
C07  36168229.880   188337463.388         226.703          33.000  
C09  36186203.937   188431059.601        -150.833          28.000  
C10  37242229.766   193930063.354         329.832          34.000  
C16  36552901.678   190340551.072        -849.063          42.000  
C26  21884999.555   113960935.361         962.290          34.000  
C29  23282674.565   121238996.2351      -2239.147          39.000  
C35  21730502.111   113156426.087        1116.212          30.000  
C40  36045052.954   187696049.535          53.551          30.000  
C45  23032307.091   119935267.003       -1992.237          40.000  
E15  25078989.602   131790979.961        2473.913          39.000  
E27  24093657.833   126613026.325        1013.831          40.000  
E30  24623176.754   129395667.605       -1021.815          33.000  
E34  24975096.226   131245016.445        -137.983          34.000  
G01  23162232.345   121718352.008        3530.307          46.000  
G02  21417825.473   112551431.686        2241.056          45.000  
G07  20847375.887   109553699.164         962.128          31.000  
G08  20043643.100   105330055.250       -1072.769          37.000  
G16  24067861.291   126477464.276       -2874.819          32.000  
G27  22110811.629   116193098.352       -2980.582          41.000  
G30  22634527.468   118945244.063        2695.138          29.000  
J02  39251204.981   206266473.574         297.555          30.000  
J03  38061364.990   200013822.057         -70.129          38.000  
> 2025 03 17 02 59 41.5224288  0 25                     
C01  38323131.707   199558616.526          43.478          33.000  
C02  38361696.709   199759458.105         -17.185          33.000  
C06  36185268.819   188426177.895        -749.331          34.000  
C07  36168185.446   188337221.667         229.171          33.000  
C09  36186232.052   188431196.450        -151.927          27.000  
C10  37242160.748   193929717.621         332.411          33.000  
C16  36553062.001   190341383.966        -846.949          42.000  
C26  21884814.817   113959958.583         962.902          32.000  
C29  23283103.502   121241219.942       -2238.542          38.000  
C35  21730286.795   113155296.021        1116.181          28.000  
C40  36045042.096   187695983.001          51.935          29.000  
C45  23032684.164   119937242.540       -1990.269          39.000  
E15  25078525.757   131788492.302        2473.567          38.000  
E27  24093458.105   126611999.310        1013.214          38.000  
E30  24623375.151   129396673.548       -1021.806          31.000  
E34  24975124.341   131245141.006        -138.727          34.000  
G01  23161558.346   121714806.318        3532.092          46.000  
G02  21417397.004   112549174.858        2243.240          43.000  
G07  20847191.149   109552722.700         962.449          30.000  
G08  20043843.895   105331109.899       -1070.494          36.000  
G16  24068406.848   126480323.593       -2873.864          32.000  
G27  22111376.972   116196062.796       -2979.073          40.000  
G30  22634012.359   118942535.827        2694.437          32.000  
J02  39251145.857   206266161.093         297.508          29.000  
J03  38061375.417   200013875.033         -67.930          36.000  
> 2025 03 17 02 59 42.5223678  0 25                     
C01  38323182.691   199558717.061          42.908          31.000  
C02  38361732.703   199759619.862         -22.546          34.000  
C06  36185442.717   188427069.174        -750.349          34.000  
C07  36168166.877   188337136.740         227.281          32.000  
C09  36186296.227   188431490.939        -152.510          28.000  
C10  37242124.192   193929528.988         331.486          35.000  
C16  36553255.086   190342373.032        -850.056          42.000  
C26  21884659.244   113959140.208         959.867          35.000  
C29  23283558.606   121243600.648       -2239.964          39.000  
C35  21730090.450   113154324.126        1113.822          32.000  
C40  36045064.299   187696074.278          53.899          28.000  
C45  23033090.102   119939376.330       -1992.441          38.000  
E15  25078084.482   131786165.030        2472.846          35.000  
E27  24093298.035   126611131.370        1012.865          36.000  
E30  24623592.520   129397839.418       -1022.848          28.000  
E34  24975178.622   131245424.423        -140.804          31.000  
G01  23160916.809   121711420.265        3528.504          47.000  
G02  21416997.699   112547078.388        2239.250          43.000  
G07  20847035.276   109551906.633         959.457          32.000  
G08  20044075.354   105332324.967       -1072.723          36.000  
G16  24068980.969   126483342.288       -2873.558          31.000  
G27  22111972.678   116199187.239       -2982.400          41.000  
G30  22633529.112   118939986.341        2693.027          31.000  
J02  39251117.395   206266008.709         296.907          30.000  
J03  38061416.508   200014088.060         -70.529          36.000  
> 2025 03 17 02 59 43.5223067  0 25                     
C01  38323196.050   199558938.185          41.711          29.000  
C02  38361737.369   199759624.680         -23.703          34.000  
C06  36185586.786   188427804.367        -752.420          33.000  
C07  36168120.878   188336894.478         224.506          30.000  
C09  36186329.372   188431627.977        -154.038          30.000  
C10  37242058.706   193929183.903         328.899          37.000  
C16  36553416.843   190343206.641        -850.578          40.000  
C26  21884468.145   113958166.131         957.898          36.000  
C29  23283977.285   121245825.096       -2243.089          37.000  
C35  21729875.667   113153196.367        1111.042          33.000  
C40  36045050.078   187696006.356          50.014          29.000  
C45  23033473.705   119941354.107       -1995.345          39.000  
E15  25077611.578   131783679.053        2469.793          34.000  
E27  24093102.139   126610104.942        1010.493          36.000  
E30  24623793.549   129398847.498       -1023.648          28.000  
E34  24975204.273   131245552.433        -143.534          28.000  
G01  23160245.443   121707876.581        3528.495          47.000  
G02  21416569.464   112544824.423        2237.876          43.000  
G07  20846846.875   109550931.646         958.157          37.000  
G08  20044277.882   105333384.902       -1075.774          38.000  
G16  24069523.163   126486200.886       -2876.563          30.000  
G27  22112538.555   116202152.365       -2983.067          41.000  
G30  22633018.734   118937279.853        2689.351          32.000  
J02  39251056.706   206265697.500         293.916          32.000  
J03  38061427.169   200014144.756         -72.717          35.000  
> 2025 03 17 02 59 44.5222456  0 25                     
C01  38323171.730   199558881.681          44.057          30.000  
C02  38361741.828   199759630.602         -19.905          42.000  
C06  36185730.649   188428539.372        -750.212          33.000  
C07  36168075.871   188336653.628         228.464          31.000  
C09  36186357.815   188431765.674        -151.660          29.000  
C10  37241994.813   193928837.807         333.238          37.000  
C16  36553577.494   190344039.912        -846.349          40.000  
C26  21884279.538   113957191.906         961.667          36.000  
C29  23284408.049   121248048.329       -2238.129          40.000  
C35  21729659.479   113152068.880        1115.594          32.000  
C40  36045039.548   187695941.531          51.016          26.000  
C45  23033851.106   119943331.243       -1991.003          39.000  
E15  25077135.470   131781193.370        2473.008          33.000  
E27  24092910.834   126609079.120        1012.736          35.000  
E30  24623991.375   129399856.005       -1021.941          26.000  
E34  24975234.814   131245679.351        -139.100          28.000  
G01  23159573.570   121704330.864        3531.551          47.000  
G02  21416140.124   112542570.116        2241.437          42.000  
G07  20846660.966   109549957.422         961.134          38.000  
G08  20044481.404   105334442.436       -1071.182          40.000  
G16  24070069.047   126489060.171       -2874.838          31.000  
G27  22113103.626   116205117.112       -2978.991          42.000  
G30  22632508.450   118934574.382        2692.547          31.000  
J02  39250999.108   206265389.766         295.766          30.000  
J03  38061440.622   200014198.667         -68.816          36.000  
> 2025 03 17 02 59 45.5221845  0 25                     
C01  38323151.503   199558824.705          44.634          30.000  
C02  38361744.086   199759637.429         -17.323          38.000  
C06  36185873.810   188429275.625        -748.302          36.000  
C07  36168029.563   188336411.686         229.939          28.000  
C09  36186384.056   188431902.411        -150.027          30.000  
C10  37241929.318   193928492.257         332.914          37.000  
C16  36553740.441   190344873.866        -847.757          41.000  
C26  21884095.025   113956218.043         960.734          37.000  
C29  23284840.209   121250273.144       -2238.459          41.000  
C35  21729438.092   113150940.237        1115.819          33.000  
C40  36045017.223   187695876.611          53.749          33.000  
C45  23034235.599   119945308.940       -1991.609          42.000  
E15  25076651.764   131778707.797        2472.278          35.000  
E27  24092717.028   126608052.908        1012.814          37.000  
E30  24624182.202   129400863.864       -1021.771          29.000  
E34  24975252.361   131245803.339        -140.659          29.000  
G01  23158900.695   121700787.415        3531.399          47.000  
G02  21415712.180   112540316.395        2240.555          42.000  
G07  20846475.854   109548983.261         960.648          36.000  
G08  20044683.923   105335499.779       -1072.428          43.000  
G16  24070608.233   126491921.011       -2873.719          34.000  
G27  22113666.496   116208082.596       -2980.643          40.000  
G30  22631994.465   118931869.091        2692.112          32.000  
J02  39250939.908   206265078.345         299.518          34.000  
J03  38061453.373   200014253.700         -68.425          35.000  
> 2025 03 17 02 59 46.5221235  0 25                     
C01  38323162.783   199558923.004          44.400          29.000  
C02  38361777.550   199759793.525         -13.191          36.000  
C06  36186046.378   188430165.670        -747.176          36.000  
C07  36168015.960   188336324.433         230.564          27.000  
C09  36186443.902   188432193.382        -148.201          30.000  
C10  37241893.830   193928301.605         333.773          36.000  
C16  36553931.596   190345862.834        -845.869          41.000  
C26  21883936.322   113955399.043         962.786          35.000  
C29  23285297.280   121252653.425       -2237.075          42.000  
C35  21729254.506   113149966.334        1117.791          33.000  
C40  36045028.802   187695964.247          56.489          32.000  
C45  23034645.303   119947440.333       -1989.661          42.000  
E15  25076219.651   131776378.764        2473.648          38.000  
E27  24092547.832   126607182.977        1014.803          37.000  
E30  24624403.936   129402026.814       -1019.675          24.000  
E34  24975301.715   131246086.865        -138.065          28.000  
G01  23158256.929   121697399.369        3533.914          47.000  
G02  21415314.542   112538218.707        2242.425          45.000  
G07  20846320.749   109548166.260         962.136          36.000  
G08  20044918.848   105336714.525       -1070.528          42.000  
G16  24071178.926   126494937.077       -2871.637          35.000  
G27  22114262.971   116211205.389       -2978.133          42.000  
G30  22631513.186   118929320.417        2693.658          28.000  
J02  39250909.217   206264920.862         301.433          36.000  
J03  38061494.032   200014464.354         -66.331          39.000  
> 2025 03 17 02 59 47.5220624  0 25                     
C01  38323141.947   199558865.435          43.735          31.000  
C02  38361779.499   199759792.043         -16.713          34.000  
C06  36186192.227   188430897.093        -746.635          36.000  
C07  36167971.141   188336080.346         231.166          26.000  
C09  36186467.736   188432327.418        -147.946          30.000  
C10  37241825.027   193927952.955         335.454          35.000  
C16  36554093.034   190346691.956        -845.678          41.000  
C26  21883751.500   113954423.444         961.843          34.000  
C29  23285725.234   121254875.982       -2238.418          41.000  
C35  21729038.506   113148836.432        1114.661          36.000  
C40  36045018.459   187695894.458          55.489          33.000  
C45  23035027.089   119949417.652       -1991.538          44.000  
E15  25075742.231   131773890.913        2474.405          38.000  
E27  24092353.417   126606153.225        1016.164          37.000  
E30  24624604.048   129403032.443       -1019.963          22.000  
E34  24975327.946   131246209.316        -137.246          24.000  
G01  23157582.545   121693852.825        3532.584          46.000  
G02  21414886.289   112535963.785        2240.437          45.000  
G07  20846136.526   109547190.788         960.556          35.000  
G08  20045123.156   105337769.783       -1071.650          43.000  
G16  24071719.901   126497793.699       -2870.834          35.000  
G27  22114827.929   116214168.532       -2979.143          41.000  
G30  22631001.590   118926613.140        2694.311          30.000  
J02  39250848.509   206264606.467         300.357          34.000  
J03  38061503.775   200014516.157         -66.754          42.000  
> 2025 03 17 02 59 48.5220013  0 25                     
C01  38323140.045   199558805.752          44.099          32.000  
C02  38361779.696   199759794.069         -16.254          34.000  
C06  36186336.324   188431628.877        -750.398          36.000  
C07  36167923.970   188335834.218         229.291          26.000  
C09  36186498.212   188432459.059        -150.507          31.000  
C10  37241759.569   193927603.963         331.900          35.000  
C16  36554252.721   190347524.355        -848.870          41.000  
C26  21883566.725   113953446.853         959.834          32.000  
C29  23286152.635   121257099.468       -2240.297          41.000  
C35  21728819.255   113147706.643        1113.168          34.000  
C40  36045005.465   187695823.448          54.136          33.000  
C45  23035406.523   119951392.585       -1993.093          43.000  
E15  25075264.858   131771403.321        2471.760          39.000  
E27  24092159.648   126605124.055        1012.048          37.000  
E30  24624810.801   129404036.8291      -1020.838          20.000  
E34  24975341.934   131246331.184        -140.522          27.000  
G01  23156908.809   121690305.472        3530.231          46.000  
G02  21414456.583   112533707.608        2238.545          45.000  
G07  20845952.950   109546214.992         958.433          36.000  
G08  20045327.512   105338824.909       -1074.684          43.000  
G16  24072262.722   126500649.151       -2875.669          31.000  
G27  22115394.134   116217131.856       -2980.431          41.000  
G30  22630490.940   118923904.350        2692.372          30.000  
J02  39250789.647   206264290.308         298.937          31.000  
J03  38061513.566   200014566.082         -69.144          45.000  
> 2025 03 17 02 59 49.5219402  0 25                     
C01  38323134.405   199558751.041          44.815          33.000  
C02  38361783.349   199759799.682         -16.997          34.000  
C06  36186479.081   188432366.914        -747.001          35.000  
C07  36167880.257   188335594.096         230.032          25.000  
C09  36186526.149   188432598.966        -149.594          32.000  
C10  37241692.472   193927260.145         335.464          36.000  
C16  36554415.264   190348358.351        -844.628          41.000  
C26  21883385.407   113952476.255         961.277          33.000  
C29  23286585.292   121259325.554       -2237.870          42.000  
C35  21728605.559   113146581.998        1115.909          35.000  
C40  36044998.026   187695757.609          57.478          34.000  
C45  23035787.615   119953371.451       -1990.679          44.000  
E15  25074789.744   131768919.950        2473.092          37.000  
E27  24091969.936   126604099.139        1015.121          37.000  
E30  24625013.217   129405317.445       -1020.752          25.000  
E34  24975371.669   131246460.226        -141.353          25.000  
G01  23156235.531   121686762.992        3533.575          45.000  
G02  21414027.936   112531457.736        2241.205          45.000  
G07  20845768.634   109545246.178         959.863          36.000  
G08  20045531.427   105339886.288       -1071.206          42.000  
G16  24072807.202   126503512.049       -2872.717          31.000  
G27  22115959.899   116220098.660       -2977.735          40.000  
G30  22629974.154   118921201.320        2692.934          28.000  
J02  39250730.644   206263980.116         301.439          32.000  
J03  38061523.815   200014622.910         -66.154          44.000  
> 2025 03 17 02 59 51.3218303  0 25                     
C01  38323152.374   199558773.447          42.235          32.000  
C02  38361811.811   199759929.024         -19.316          33.000  
C06  36186756.970   188433810.668        -751.488          35.000  
C07  36167822.978   188335279.283         229.531          22.000  
C09  36186597.480   188432964.994        -150.760          31.000  
C10  37241597.119   193926758.863         331.866          34.000  
C16  36554731.227   190349981.389        -849.791          41.000  
C26  21883075.403   113950843.848         960.775          31.000  
C29  23287377.625   121263455.295       -2241.073          41.000  
C35  21728243.691   113144674.259        1113.883          36.000  
C40  36044995.010   187695759.870          51.111          33.000  
C45  23036496.006   119957055.388       -1993.646          44.000  
E15  25073958.400   131764570.475        2470.628          38.000  
E27  24091639.246   126602374.653        1012.311          38.000  
E30  24625389.738   129407249.6351      -1019.946          20.000  
E34  24975437.305   131246812.403        -143.332          26.000  
G01  23155047.135   121680507.423        3529.552          45.000  
G02  21413280.835   112527527.153        2238.173          45.000  
G07  20845464.026   109543620.096         958.184          37.000  
G08  20045919.339   105341915.475       -1075.174          42.000  
G16  24073812.087   126508778.877       -2874.979          29.000  
G27  22117001.959   116225559.947       -2980.992          41.000  
G30  22629068.163   118916453.273        2690.679          28.000  
J02  39250647.283   206263537.167         300.911          32.000  
J03  38061567.566   200014841.767         -68.854          44.000  
> 2025 03 17 02 59 52.2217754  0 25                     
C01  38323157.490   199558864.950          40.625          32.000  
C02  38361841.809   199760073.660         -21.048          31.000  
C06  36186911.982   188434614.388        -749.358          34.000  
C07  36167809.206   188335200.448         230.206          26.000  
C09  36186647.265   188433226.608        -149.989          30.000  
C10  37241566.859   193926587.161         333.364          35.000  
C16  36554902.727   190350871.919        -847.237          41.000  
C26  21882930.322   113950108.107         959.076          30.000  
C29  23287790.158   121265597.429       -2238.767          41.000  
C35  21728077.025   113143799.378        1114.782          35.000  
C40  36045009.718   187695839.599          56.863          30.000  
C45  23036865.669   119958976.324       -1991.906          43.000  
E15  25073566.890   131762476.764        2470.880          39.000  
E27  24091498.362   126601591.876        1013.736          38.000  
E30  24625590.018   129408299.564       -1022.696          21.000  
E34  24975496.083   131247071.396        -143.866          27.000  
G01  23154467.955   121677457.956        3532.536          45.000  
G02  21412922.602   112525640.580        2239.652          45.000  
G07  20845326.740   109542886.590         958.603          38.000  
G08  20046127.714   105343011.487       -1073.838          43.000  
G16  24074328.948   126511494.391       -2875.034          28.000  
G27  22117536.208   116228369.444       -2978.209          40.000  
G30  22628637.979   118914160.782        2691.931          26.000  
J02  39250619.721   206263395.079         301.319          30.000  
J03  38061605.058   200015029.636         -67.560          45.000  
> 2025 03 17 02 59 53.1217204  0 25                     
C01  38323142.725   199558801.090          41.069          29.000  
C02  38361842.034   199760065.136         -18.859          33.000  
C06  36187038.119   188435259.543        -751.014          35.000  
C07  36167765.361   188334966.874         228.672          27.000  
C09  36186668.475   188433335.123        -151.521          31.000  
C10  37241510.723   193926261.587         330.078          35.000  
C16  36555046.552   190351608.044        -850.894          41.000  
C26  21882759.665   113949218.875         958.312          31.000  
C29  23288173.817   121267584.552       -2243.686          41.000  
C35  21727881.185   113142771.332        1110.495          35.000  
C40  36044992.855   187695760.922          56.714          30.000  
C45  23037207.358   119960741.861       -1994.886          44.000  
E15  25073140.211   131760226.957        2469.643          40.000  
E27  24091314.215   126600653.442        1012.570          38.000  
E30  24625760.225   129409190.748       -1023.046          23.000  
E34  24975512.197   131247172.257        -144.342          25.000  
G01  23153859.601   121674253.641        3529.009          45.000  
G02  21412536.094   112523600.491        2234.675          46.000  
G07  20845157.582   109541999.028         953.412          38.000  
G08  20046307.215   105343951.363       -1078.206          42.000  
G16  24074812.738   126514054.113       -2876.040          29.000  
G27  22118041.883   116231022.565       -2982.592          41.000  
G30  22628169.329   118911711.255        2690.889          27.000  
J02  39250563.884   206263097.854         299.009          33.000  
J03  38061612.778   200015065.010         -71.992          46.000  
> 2025 03 17 02 59 54.0216654  0 25                     
C01  38323134.190   199558740.077          33.307          26.000  
C02  38361838.296   199760053.065         -19.202          34.000  
C06  36187163.592   188435906.809        -752.620          35.000  
C07  36167722.950   188334733.079         227.492          30.000  
C09  36186687.521   188433442.286        -152.211          31.000  
C10  37241451.523   193925935.668         331.208          36.000  
C16  36555189.413   190352342.721        -850.517          42.000  
C26  21882588.343   113948327.912         957.723          30.000  
C29  23288558.610   121269575.566       -2243.139          43.000  
C35  21727683.182   113141743.912        1109.085          37.000  
C40  36044983.721   187695683.471          51.855          33.000  
C45  23037547.481   119962508.081       -1995.921          45.000  
E15  25072708.969   131757976.991        2468.641          39.000  
E27  24091136.597   126599714.027        1011.748          40.000  
E30  24625855.119   129409742.113       -1024.205          24.000  
E34  24975544.134   131247273.252        -146.086          22.000  
G01  23153250.282   121671049.053        3528.632          45.000  
G02  21412150.420   112521560.157        2234.345          47.000  
G07  20844990.757   109541112.682         952.315          38.000  
G08  20046487.849   105344891.053       -1077.722          41.000  
G16  24075292.865   126516611.887       -2877.115          28.000  
G27  22118546.892   116233677.705       -2983.356          41.000  
G30  22627702.112   118909261.569        2689.246          31.000  
J02  39250507.083   206262800.584         297.790          32.000  
J03  38061621.332   200015099.171         -70.662          47.000  
> 2025 03 17 02 59 54.9996057  0 25                     
C01  38323151.203   199558783.085          31.160          24.000  
C02  38361856.208   199760144.002         -19.560          35.000  
C06  36187319.109   188436715.275        -750.435          34.000  
C07  36167696.793   188334584.700         227.378          30.000  
C09  36186732.715   188433664.238        -152.422          31.000  
C10  37241405.280   193925684.208         332.169          37.000  
C16  36555365.616   190353247.318        -849.615          42.000  
C26  21882430.277   113947466.071         956.597          30.000  
C29  23288992.934   121271841.480       -2242.552          43.000  
C35  21727485.843   113140732.583        1110.137          35.000  
C40  36044991.141   187695706.544          52.840          35.000  
C45  23037938.036   119964533.254       -1995.631          47.000  
E15  25072266.400   131755636.304        2469.395          40.000  
E27  24090965.041   126598798.715        1012.314          41.000  
E30  24626068.796   129410815.991       -1024.203          25.000  
E34  24975585.131   131247488.382        -146.572          26.000  
G01  23152608.052   121667672.597        3528.859          45.000  
G02  21411750.722   112519449.011        2235.499          46.000  
G07  20844829.993   109540254.557         954.929          37.000  
G08  20046701.826   105346016.598       -1076.285          40.000  
G16  24075836.314   126519498.684       -2876.298          29.000  
G27  22119116.423   116236668.383       -2982.360          41.000  
G30  22627213.675   118906705.828        2690.129          31.000  
J02  39250468.635   206262583.710         298.819          28.000  
J03  38061649.737   200015239.687         -69.311          47.000  
> 2025 03 17 02 59 55.9995446  0 25                     
C01  38323138.040   199558737.074          32.276          27.000  
C02  38361858.635   199760147.392         -18.820          34.000  
C06  36187457.042   188437451.172        -751.993          34.000  
C07  36167650.054   188334343.874         227.540          31.000  
C09  36186757.926   188433802.239        -153.106          32.000  
C10  37241340.553   193925339.527         330.703          37.000  
C16  36555526.932   190354081.902        -851.016          41.000  
C26  21882246.533   113946495.658         956.069          31.000  
C29  23289428.261   121274069.350       -2244.288          43.000  
C35  21727276.316   113139609.495        1108.959          35.000  
C40  36044977.978   187695640.304          51.725          35.000  
C45  23038322.398   119966514.301       -1997.043          45.000  
E15  25071799.951   131753154.413        2468.326          41.000  
E27  24090772.302   126597773.732        1011.308          41.000  
E30  24626273.582   129411826.084       -1025.028          23.000  
E34  24975601.947   131247620.154        -146.582          28.000  
G01  23151935.645   121664129.781        3527.208          46.000  
G02  21411324.745   112517200.836        2233.638          45.000  
G07  20844648.947   109539287.581         952.793          38.000  
G08  20046905.713   105347079.589       -1078.436          41.000  
G16  24076381.964   126522360.456       -2877.175          27.000  
G27  22119683.359   116239636.001       -2983.189          42.000  
G30  22626701.657   118904003.206        2688.728          28.000  
J02  39250410.503   206262271.163         299.352          32.000  
J03  38061662.057   200015294.072         -70.725          47.000  
> 2025 03 17 02 59 56.9994836  0 25                     
C01  38323159.138   199558846.279          39.516          26.000  
C02  38361892.324   199760309.038         -18.628          33.000  
C06  36187631.034   188438344.078        -750.330          34.000  
C07  36167637.275   188334258.401         228.647          30.000  
C09  36186817.397   188434096.836        -152.428          32.000  
C10  37241305.590   193925150.242         333.497          37.000  
C16  36555720.711   190355073.715        -849.461          41.000  
C26  21882091.952   113945681.815         957.164          33.000  
C29  23289888.255   121276453.500       -2242.117          42.000  
C35  21727091.457   113138642.641        1109.597          35.000  
C40  36044996.378   187695731.190          53.309          36.000  
C45  23038734.126   119968652.197       -1994.879          46.000  
E15  25071358.169   131750829.480        2468.900          41.000  
E27  24090605.730   126596906.160        1011.295          40.000  
E30  24626511.130   129412994.824       -1022.804          26.000  
E34  24975661.719   131247910.486        -145.505          27.000  
G01  23151293.003   121660745.630        3529.764          46.000  
G02  21410928.532   112515109.940        2235.023          46.000  
G07  20844496.165   109538477.613         954.030          37.000  
G08  20047138.464   105348299.342       -1077.699          42.000  
G16  24076955.880   126525382.374       -2876.349          26.000  
G27  22120279.459   116242760.899       -2982.297          44.000  
G30  22626223.901   118901457.986        2689.917          30.000  
J02  39250381.236   206262114.769         301.186          31.000  
J03  38061704.140   200015505.995         -68.980          47.000  
> 2025 03 17 02 59 58.0004224  0 25                     
C01  38323147.400   199558733.824          38.977          26.000  
C02  38361882.384   199760249.353         -13.877          33.000  
C06  36187762.596   188439021.452        -751.544          35.000  
C07  36167580.567   188333956.354         228.209          30.000  
C09  36186835.937   188434175.375        -152.914          34.000  
C10  37241226.098   193924744.751         330.553          37.000  
C16  36555869.960   190355851.651        -850.364          41.000  
C26  21881889.546   113944650.528         955.840          36.000  
C29  23290307.018   121278623.803       -2243.926          42.000  
C35  21726859.970   113137458.555        1109.521          32.000  
C40  36044975.645   187695604.842          52.815          37.000  
C45  23039104.622   119970575.730       -1996.676          45.000  
E15  25070878.155   131748285.650        2467.560          41.000  
E27  24090401.525   126595820.142        1010.937          40.000  
E30  24626705.949   129414213.284       -1024.433          24.000  
E34  24975669.466   131247982.275        -147.517          27.000  
G01  23150607.630   121657139.104        3528.083          46.000  
G02  21410490.488   112512799.422        2232.874          45.000  
G07  20844301.253   109537449.890         950.824          36.000  
G08  20047330.285   105349303.752       -1078.716          42.000  
G16  24077488.264   126528184.876       -2875.568          27.000  
G27  22120834.927   116245670.468       -2982.838          44.000  
G30  22625707.911   118898692.267        2688.410          28.000  
J02  39250312.836   206261740.069         298.523          31.000  
J03  38061704.992   200015501.948         -70.428          47.000  
> 2025 03 17 02 59 59.0003614  0 25                     
C01  38323176.789   199558830.410          49.955          23.000  
C02  38361915.370   199760404.718         -15.741          33.000  
C06  36187930.789   188439913.307        -750.726          34.000  
C07  36167567.086   188333869.469         227.540          30.000  
C09  36186894.706   188434467.771        -152.920          34.000  
C10  37241193.130   193924555.342         330.719          38.000  
C16  36556061.237   190356840.695        -850.164          42.000  
C26  21881734.262   113943836.057         955.789          36.000  
C29  23290768.408   121281007.391       -2243.241          42.000  
C35  21726675.607   113136491.291        1107.484          32.000  
C40  36044991.543   187695693.186          52.765          36.000  
C45  23039515.347   119972710.393       -1996.319          47.000  
E15  25070434.771   131745960.189        2467.646          41.000  
E27  24090239.046   126594951.079        1011.179          40.000  
E30  24626942.195   129415379.335       -1024.759          26.000  
E34  24975727.036   131248270.747        -148.045          24.000  
G01  23149964.585   121653753.127        3528.773          46.000  
G02  21410092.973   112510709.041        2232.683          46.000  
G07  20844148.068   109536641.490         950.883          37.000  
G08  20047562.933   105350525.068       -1079.286          43.000  
G16  24078062.976   126531200.145       -2875.585          26.000  
G27  22121430.324   116248794.007       -2983.219          44.000  
G30  22625222.856   118896146.933        2688.091          31.000  
J02  39250282.267   206261583.367         299.207          28.000  
J03  38061746.973   200015714.231         -69.997          48.000  
> 2025 03 17 03 00 00.0003003  0 25                     
C01  38323171.327   199558766.288          52.994          24.000  
C02  38361918.902   199760408.166         -19.188          33.000  
C06  36188073.424   188440650.450        -750.825          33.000  
C07  36167518.754   188333629.246         227.877          30.000  
C09  36186921.022   188434606.754        -151.399          34.000  
C10  37241129.509   193924210.585         332.630          38.000  
C16  36556223.060   190357677.391        -849.170          42.000  
C26  21881547.126   113942867.862         955.110          34.000  
C29  23291203.941   121283237.976       -2243.830          39.000  
C35  21726466.287   113135371.454        1107.402          35.000  
C40  36044980.086   187695626.853          54.197          35.000  
C45  23039896.918   119974693.811       -1997.259          48.000  
E15  25069962.832   131743479.184        2467.911          41.000  
E27  24090045.914   126593926.533        1011.714          40.000  
E30  24627134.896   129416390.423       -1024.590          28.000  
E34  24975757.849   131248405.966        -149.476          21.000  
G01  23149292.385   121650211.895        3528.598          46.000  
G02  21409666.303   112508464.059        2232.353          46.000  
G07  20843966.628   109535677.982         950.822          38.000  
G08  20047765.827   105351590.065       -1078.553          43.000  
G16  24078608.532   126534062.290       -2875.846          25.000  
G27  22121997.166   116251764.251       -2983.961          42.000  
G30  22624711.345   118893447.072        2686.544          31.000  
J02  39250224.941   206261270.841         299.476          28.000  
J03  38061758.299   200015770.432         -69.706          47.000  
> 2025 03 17 03 00 01.0002392  0 25                     
C01  38323151.522   199558698.309          56.209          25.000  
C02  38361920.982   199760410.744         -18.946          34.000  
C06  36188218.805   188441386.416        -752.241          33.000  
C07  36167470.768   188333386.813         229.125          30.000  
C09  36186947.685   188434743.855        -152.813          33.000  
C10  37241062.037   193923863.125         332.990          37.000  
C16  36556385.528   190358510.837        -850.035          42.000  
C26  21881354.941   113941899.711         954.047          32.000  
C29  23291632.326   121285466.642       -2244.314          40.000  
C35  21726253.415   113134249.922        1107.040          35.000  
C40  36044972.272   187695558.757          52.556          34.000  
C45  23040277.036   119976675.552       -1997.040          47.000  
E15  25069491.240   131740996.883        2468.410          40.000  
E27  24089851.930   126592900.063        1012.408          39.000  
E30  24627318.949   129417399.103       -1023.524          26.000  
E34  24975778.816   131248539.568        -145.981          25.000  
G01  23148618.732   121646669.363        3528.693          45.000  
G02  21409239.080   112506217.101        2232.618          46.000  
G07  20843784.036   109534712.163         952.067          39.000  
G08  20047969.067   105352652.844       -1078.650          42.000  
G16  24079158.933   126536923.611       -2875.139          28.000  
G27  22122563.456   116254733.670       -2983.189          41.000  
G30  22624196.282   118890746.879        2687.455          33.000  
J02  39250165.563   206260957.356         299.122          30.000  
J03  38061770.272   200015822.636         -68.730          47.000  
> 2025 03 17 03 00 02.0001781  0 25                     
C01  38323141.357   199558626.758          58.360          24.000  
C02  38361923.109   199760414.010         -16.705          35.000  
C06  36188362.733   188442124.366        -752.517          34.000  
C07  36167426.128   188333145.022         227.166          30.000  
C09  36186977.093   188434883.800        -155.765          31.000  
C10  37240999.108   193923519.307         329.230          38.000  
C16  36556545.646   190359347.688        -852.436          42.000  
C26  21881162.202   113940932.127         953.245          34.000  
C29  23292058.659   121287698.204       -2247.817          43.000  
C35  21726042.989   113133129.480        1106.499          37.000  
C40  36044960.309   187695494.174          50.993          34.000  
C45  23040656.001   119978658.497       -1999.580          46.000  
E15  25069019.994   131738517.931        2465.508          40.000  
E27  24089658.892   126591877.001        1009.345          39.000  
E30  24627507.247   129418408.030       -1024.407          24.000  
E34  24975805.825   131248672.831        -149.097          28.000  
G01  23147945.726   121643129.225        3525.324          45.000  
G02  21408812.503   112503972.328        2230.456          46.000  
G07  20843603.289   109533747.883         949.927          36.000  
G08  20048174.753   105353718.440       -1081.034          40.000  
G16  24079703.084   126539785.590       -2878.358          28.000  
G27  22123128.892   116257701.058       -2984.264          41.000  
G30  22623688.162   118888046.180        2686.546          34.000  
J02  39250105.633   206260643.917         299.436          25.000  
J03  38061782.592   200015880.161         -70.973          47.000  
> 2025 03 17 03 00 03.0001171  0 25                     
C01  38323158.042   199558709.831          55.229          26.000  
C02  38361953.585   199760571.812         -17.751          35.000  
C06  36188532.313   188443015.448        -753.880          34.000  
C07  36167411.634   188333058.421         226.364          29.000  
C09  36187034.850   188435177.986        -155.239          33.000  
C10  37240963.030   193923328.675         330.433          37.000  
C16  36556738.009   190360338.861        -851.837          42.000  
C26  21881001.410   113940119.778         951.055          33.000  
C29  23292519.936   121290082.776       -2246.256          43.000  
C35  21725864.210   113132164.070        1103.833          34.000  
C40  36044977.594   187695582.688          52.262          33.000  
C45  23041069.612   119980798.311       -1999.509          46.000  
E15  25068579.796   131736193.454        2465.870          39.000  
E27  24089491.804   126591008.626        1009.465          39.000  
E30  24627725.093   129419573.199       -1025.893          24.000  
E34  24975858.186   131248962.947        -150.219          27.000  
G01  23147302.868   121639744.535        3525.914          46.000  
G02  21408415.475   112501884.206        2228.489          45.000  
G07  20843448.493   109532940.946         946.861          36.000  
G08  20048408.788   105354939.574       -1081.906          41.000  
G16  24080282.180   126542804.362       -2880.096          29.000  
G27  22123725.376   116260826.298       -2985.889          41.000  
G30  22623207.192   118885503.018        2682.805          32.000  
J02  39250074.651   206260486.268         298.319          28.000  
J03  38061824.760   200016091.324         -71.619          46.000  
> 2025 03 17 03 00 04.0000560  0 25                     
C01  38323146.032   199558640.402          56.935          29.000  
C02  38361955.664   199760575.342         -18.237          34.000  
C06  36188678.293   188443757.431        -754.274          34.000  
C07  36167363.949   188332819.646         226.151          29.000  
C09  36187061.812   188435319.288        -155.542          33.000  
C10  37240897.357   193922985.837         329.539          37.000  
C16  36556899.879   190361177.298        -852.718          42.000  
C26  21880824.214   113939154.618         953.182          34.000  
C29  23292947.722   121292316.751       -2247.358          41.000  
C35  21725642.644   113131046.839        1105.011          32.000  
C40  36044963.485   187695519.132          51.291          33.000  
C45  23041451.529   119982783.324       -1999.976          46.000  
E15  25068115.399   131733716.174        2464.673          40.000  
E27  24089297.220   126589987.166        1009.020          39.000  
E30  24627920.539   129420585.379       -1025.619          23.000  
E34  24975895.641   131249099.910        -152.144          24.000  
G01  23146631.614   121636205.912        3525.922          46.000  
G02  21407988.552   112499641.922        2229.411          45.000  
G07  20843265.901   109531980.205         948.987          37.000  
G08  20048612.928   105356008.374       -1081.903          41.000  
G16  24080830.182   126545672.146       -2880.429          28.000  
G27  22124292.265   116263797.640       -2985.077          42.000  
G30  22622695.428   118882807.039        2684.366          34.000  
J02  39250019.770   206260175.275         298.144          29.000  
J03  38061836.732   200016146.884         -70.862          46.000  
> 2025 03 17 03 00 04.9999949  0 25                     
C01  38323146.987   199558571.428          54.460          28.000  
C02  38361956.920   199760580.238         -21.374          34.000  
C06  36188824.348   188444496.950        -755.551          34.000  
C07  36167323.233   188332580.983         225.853          29.000  
C09  36187093.646   188435461.594        -155.235          33.000  
C10  37240833.857   193922643.993         327.664          37.000  
C16  36557062.422   190362017.497        -855.936          42.000  
C26  21880642.297   113938188.624         951.484          36.000  
C29  23293382.777   121294549.171       -2248.150          41.000  
C35  21725432.846   113129929.757        1103.839          35.000  
C40  36044954.847   187695455.566          49.297          34.000  
C45  23041831.422   119984769.000       -2000.552          45.000  
E15  25067642.982   131731240.366        2463.551          40.000  
E27  24089104.810   126588965.387        1009.294          39.000  
E30  24628110.964   129421598.006       -1026.467          25.000  
E34  24975933.771   131249239.517        -154.042          21.000  
G01  23145959.835   121632667.087        3525.446          45.000  
G02  21407562.603   112497400.396        2227.803          45.000  
G07  20843084.883   109531020.288         945.365          37.000  
G08  20048820.440   105357077.784       -1086.838          41.000  
G16  24081375.860   126548536.351       -2879.067          31.000  
G27  22124860.128   116266768.077       -2985.584          42.000  
G30  22622179.541   118880109.621        2684.221          35.000  
J02  39249961.967   206259864.214         297.847          31.000  
J03  38061849.380   200016205.485         -75.457          47.000  
> 2025 03 17 03 00 05.9999338  0 25                     
C01  38323141.928   199558504.931          47.746          28.000  
C02  38361960.555   199760586.727         -21.860          34.000  
C06  36188966.487   188445240.149        -760.269          34.000  
C07  36167279.201   188332341.435         222.366          29.000  
C09  36187125.162   188435602.694        -161.157          33.000  
C10  37240767.641   193922303.411         323.620          37.000  
C16  36557225.847   190362857.738        -858.669          42.000  
C26  21880460.960   113937225.208         946.285          36.000  
C29  23293809.119   121296783.507       -2253.006          41.000  
C35  21725218.532   113128812.829        1098.158          34.000  
C40  36044943.792   187695393.767          44.617          32.000  
C45  23042215.793   119986756.531       -2006.335          45.000  
E15  25067168.448   131728765.579        2460.220          39.000  
E27  24088915.378   126587945.073        1005.475          38.000  
E30  24628299.570   129422610.739       -1030.451          25.000  
E34  24975965.287   131249379.350        -155.917          23.000  
G01  23145288.038   121629129.912        3519.994          46.000  
G02  21407137.535   112495160.558        2222.576          45.000  
G07  20842903.246   109530062.300         940.751          36.000  
G08  20049026.435   105358149.607       -1088.570          41.000  
G16  24081926.317   126551400.914       -2883.895          29.000  
G27  22125428.572   116269742.061       -2991.739          41.000  
G30  22621665.734   118877412.771        2679.947          32.000  
J02  39249904.744   206259552.712         293.902          32.000  
J03  38061862.309   200016266.179         -76.932          46.000  
> 2025 03 17 03 00 06.9998728  0 25                     
C01  38323150.294   199558604.532          38.811          29.000  
C02  38361994.103   199760751.364         -22.125          33.000  
C06  36189140.339   188446142.342        -758.141          35.000  
C07  36167262.984   188332263.904         220.908          29.000  
C09  36187185.392   188436170.379        -160.248          34.000  
C10  37240735.535   193922122.783         325.859          37.000  
C16  36557418.585   190363857.915        -857.083          42.000  
C26  21880310.436   113936423.185         947.432          37.000  
C29  23294272.270   121299179.440       -2251.037          42.000  
C35  21725034.131   113127858.971        1099.111          34.000  
C40  36044960.852   187695492.193          46.117          31.000  
C45  23042628.879   119988905.096       -2003.894          45.000  
E15  25066733.121   131726452.560        2458.739          40.000  
E27  24088753.163   126587086.218        1004.641          37.000  
E30  24628534.879   129423784.734       -1031.751          22.000  
E34  24976023.418   131249681.643        -157.802          24.000  
G01  23144646.754   121625754.507        3522.269          46.000  
G02  21406744.479   112493083.245        2224.318          46.000  
G07  20842753.621   109529266.782         941.470          37.000  
G08  20049262.344   105359382.319       -1087.238          41.000  
G16  24082499.492   126554430.633       -2887.568          25.000  
G27  22126028.728   116272876.702       -2988.959          42.000  
G30  22621186.638   118874880.005        2677.184          29.000  
J02  39249876.535   206259404.923         293.550          31.000  
J03  38061905.451   200016486.821         -75.558          46.000  
> 2025 03 17 03 00 07.9998117  0 25                     
C01  38323136.654   199558551.750          32.456          29.000  
C02  38361996.952   199760755.436         -23.685          33.000  
C06  36189280.492   188446880.460        -753.903          34.000  
C07  36167218.165   188332026.145         223.151          29.000  
C09  36187215.821   188436310.314        -155.688          34.000  
C10  37240670.330   193921779.382         330.116          37.000  
C16  36557580.623   190364697.021        -851.900          42.000  
C26  21880127.712   113935458.570         948.561          37.000  
C29  23294702.922   121301412.016       -2248.682          43.000  
C35  21724822.328   113126742.135        1101.228          35.000  
C40  36044949.910   187695427.752          51.900          34.000  
C45  23043008.566   119990890.850       -2002.015          44.000  
E15  25066267.394   131723974.909        2461.434          39.000  
E27  24088556.948   126586063.284        1006.746          39.000  
E30  24628730.194   129424800.940       -1029.708          23.000  
E34  24976060.143   131249821.3051       -159.822          20.000  
G01  23143974.769   121622214.498        3524.666          46.000  
G02  21406319.523   112490841.898        2224.838          46.000  
G07  20842572.397   109528306.902         944.246          37.000  
G08  20049467.852   105360450.219       -1084.363          41.000  
G16  24083052.459   126557297.727       -2882.133          28.000  
G27  22126594.587   116275847.889       -2988.082          43.000  
G30  22620673.543   118872183.759        2680.700          35.000  
J02  39249817.926   206259093.145         298.567          27.000  
J03  38061918.192   200016543.214         -72.208          46.000  
> 2025 03 17 03 00 08.9997506  0 26                     
C01  38323125.243   199558509.177          30.220          30.000  
C02  38362000.530   199760766.059         -25.027          32.000  
C03  37396707.489   194734468.6901         42.428          37.000  
C06  36189425.872   188447622.496        -755.437          34.000  
C07  36167174.077   188331790.070         224.851          29.000  
C09  36187243.383   188436453.541        -156.319          33.000  
C10  37240606.455   193921435.870         330.945          37.000  
C16  36557743.392   190365537.135        -854.919          42.000  
C26  21879948.717   113934497.118         948.035          38.000  
C29  23295134.605   121303647.596       -2250.910          41.000  
C35  21724612.754   113125628.378        1100.814          34.000  
C40  36044939.099   187695363.326          50.298          33.000  
C45  23043394.381   119992878.753       -2004.572          45.000  
E15  25065797.300   131721499.366        2462.438          39.000  
E27  24088368.360   126585041.904        1007.804          37.000  
E30  24628925.041   129425815.545       -1028.344          20.000  
E34  24976088.604   131250231.0251       -157.215          17.000  
G01  23143302.915   121618677.815        3522.324          46.000  
G02  21405895.597   112488604.782        2224.197          46.000  
G07  20842392.802   109527350.224         944.241          36.000  
G08  20049674.390   105361521.463       -1085.712          40.000  
G16  24083602.859   126560164.298       -2879.456          29.000  
G27  22127162.375   116278822.317       -2988.999          41.000  
G30  22620163.277   118869760.293        2682.228          33.000  
J02  39249760.347   206258781.062         299.469          31.000  
J03  38061930.764   200016603.236         -72.743          46.000  
> 2025 03 17 03 00 09.9996895  0 26                     
C01  38323117.767   199558463.771          27.659          29.000  
C02  38362004.446   199760775.503         -23.358          33.000  
C03  37396695.216   194734407.614          45.820          37.000  
C06  36189568.892   188448361.559        -757.180          33.000  
C07  36167129.127   188331549.278         225.083          30.000  
C09  36187274.281   188436592.273        -156.698          33.000  
C10  37240542.318   193921092.495         326.484          37.000  
C16  36557905.598   190366373.213        -855.725          42.000  
C26  21879764.364   113933531.393         949.803          37.000  
C29  23295564.226   121305879.769       -2249.269          40.000  
C35  21724397.522   113124511.751        1100.090          33.000  
C40  36044923.228   187695298.557          48.493          33.000  
C45  23043778.434   119994865.951       -2003.422          45.000  
E15  25065325.745   131719022.527        2461.437          39.000  
E27  24088171.715   126584019.420        1007.430          38.000  
E30  24629116.027   129426828.485       -1027.825          21.000  
E34  24976107.810   131250370.978        -154.515          22.000  
G01  23142630.799   121615138.531        3523.214          45.000  
G02  21405470.211   112486363.097        2223.900          46.000  
G07  20842209.648   109526390.422         942.781          36.000  
G08  20049879.467   105362591.179       -1087.903          40.000  
G16  24084154.496   126563026.404       -2879.370          31.000  
G27  22127729.001   116281791.539       -2988.018          41.000  
G30  22619652.450   118867062.596        2681.001          35.000  
J02  39249700.407   206258465.615         299.642          28.000  
J03  38061943.074   200016659.370         -74.828          46.000  
> 2025 03 17 03 00 10.9996285  0 26                     
C01  38323146.463   199558577.156          34.083          31.000  
C02  38362036.740   199760937.503         -19.257          34.000  
C03  37396714.618   194734506.028          43.807          37.000  
C06  36189744.486   188449259.569        -755.521          33.000  
C07  36167115.252   188331468.217         224.805          29.000  
C09  36187336.553   188436893.081        -157.485          32.000  
C10  37240508.957   193920908.750         328.257          36.000  
C16  36558098.580   190367372.099        -853.667          42.000  
C26  21879611.985   113932726.642         948.431          38.000  
C29  23296023.424   121308273.346       -2250.347          40.000  
C35  21724216.663   113123556.086        1099.261          35.000  
C40  36044948.027   187695393.504          49.762          33.000  
C45  23044191.763   119997010.427       -2003.336          44.000  
E15  25064887.664   131716706.042        2461.376          39.000  
E27  24088006.745   126583157.024        1007.202          39.000  
E30  24629333.292   129427999.535       -1028.733          24.000  
E34  24976159.889   131250670.849        -156.233          24.000  
G01  23141988.859   121611760.094        3523.767          45.000  
G02  21405076.799   112484284.918        2225.444          46.000  
G07  20842058.768   109525594.188         942.335          37.000  
G08  20050114.719   105363822.683       -1085.518          40.000  
G16  24084734.210   126566050.421       -2879.722          30.000  
G27  22128327.003   116284922.297       -2987.568          41.000  
G30  22619167.901   118864527.304        2680.576          36.000  
J02  39249674.541   206258313.002         296.953          30.000  
J03  38061985.860   200016878.100         -71.707          46.000  
> 2025 03 17 03 00 11.9995674  0 26                     
C01  38323129.187   199558526.965          36.295          30.000  
C02  38362040.749   199761212.151         -22.437          34.000  
C03  37396704.538   194734449.678          40.501          36.000  
C06  36189890.897   188449999.858        -755.707          32.000  
C07  36167068.597   188331228.762         225.266          30.000  
C09  36187361.548   188437033.481        -156.891          35.000  
C10  37240444.314   193920565.093         328.916          37.000  
C16  36558260.281   190368209.661        -855.273          42.000  
C26  21879429.524   113931764.363         949.207          38.000  
C29  23296453.738   121310508.025       -2250.517          40.000  
C35  21723992.231   113122442.759        1100.820          33.000  
C40  36044936.147   187695328.767          49.995          30.000  
C45  23044577.409   119999000.358       -2002.703          45.000  
E15  25064421.899   131714229.814        2461.054          40.000  
E27  24087815.290   126582134.989        1006.678          37.000  
E30  24629523.773   129429013.558       -1030.114          24.000  
E34  24976183.386   131250811.220        -157.447          23.000  
G01  23141316.537   121608222.210        3524.258          46.000  
G02  21404651.506   112482046.387        2225.472          46.000  
G07  20841878.405   109524637.369         942.954          36.000  
G08  20050319.890   105364891.898       -1086.350          42.000  
G16  24085285.042   126568911.679       -2879.585          32.000  
G27  22128894.023   116287895.534       -2986.329          42.000  
G30  22618662.263   118861832.417        2680.578          34.000  
J02  39249614.994   206258001.909         297.609          31.000  
J03  38061997.665   200016933.458         -72.375          46.000  
> 2025 03 17 03 00 12.9995063  0 26                     
C01  38323113.205   199558474.765          45.276          29.000  
C02  38362043.654   199761221.274         -24.049          33.000  
C03  37396695.450   194734394.620          42.839          36.000  
C06  36190033.505   188450742.662        -757.878          32.000  
C07  36167022.635   188330991.531         223.347          30.000  
C09  36187390.535   188437177.693        -159.216          34.000  
C10  37240381.264   193920225.084         325.139          37.000  
C16  36558422.674   190369053.170        -856.649          41.000  
C26  21879244.758   113930803.979         945.230          38.000  
C29  23296885.046   121312744.531       -2252.684          41.000  
C35  21723782.582   113121330.928        1095.576          34.000  
C40  36044923.163   187695265.356          50.395          25.000  
C45  23044961.349   120000989.814       -2006.741          44.000  
E15  25063951.431   131711758.402        2458.943          39.000  
E27  24087619.432   126581115.952        1006.226          36.000  
E30  24629728.138   129430030.737       -1030.924          28.000  
E34  24976211.772   131250956.359        -159.427          25.000  
G01  23140645.208   121604687.004        3520.520          45.000  
G02  21404228.705   112479811.258        2217.888          46.000  
G07  20841699.036   109523684.123         936.582          37.000  
G08  20050525.754   105365968.291       -1092.286          42.000  
G16  24085830.870   126571778.720       -2881.872          34.000  
G27  22129460.837   116290870.590       -2993.092          42.000  
G30  22618154.621   118859140.648        2677.599          33.000  
J02  39249556.741   206257692.011         294.647          31.000  
J03  38062010.762   200016994.018         -78.250          45.000  
> 2025 03 17 03 00 13.9994452  0 26                     
C01  38323101.869   199558415.278          46.323          28.000  
C02  38362046.708   199761230.970         -27.388          33.000  
C03  37396686.213   194734336.904          40.720          36.000  
C06  36190180.459   188451766.224        -763.099          33.000  
C07  36166977.722   188330755.341         216.809          30.000  
C09  36187421.769   188437324.350        -162.783          34.000  
C10  37240315.066   193919885.968         323.929          37.000  
C16  36558585.818   190369895.045        -860.862          43.000  
C26  21879061.941   113929846.532         941.146          37.000  
C29  23297317.103   121314984.684       -2259.374          41.000  
C35  21723570.985   113120223.391        1091.010          34.000  
C40  36044913.026   187695201.931          48.891          26.000  
C45  23045345.739   120002983.215       -2011.675          44.000  
E15  25063479.914   131709286.655        2457.838          38.000  
E27  24087430.319   126580098.363        1003.129          37.000  
E30  24629931.453   129431047.830       -1032.387          28.000  
E34  24976243.007   131251102.924        -160.321          24.000  
G01  23139974.329   121601154.284        3515.245          45.000  
G02  21403804.854   112477579.504        2216.127          46.000  
G07  20841521.615   109522733.836         934.589          36.000  
G08  20050733.866   105367317.453       -1093.081          43.000  
G16  24086375.949   126574647.246       -2886.249          34.000  
G27  22130027.801   116293848.755       -2995.550          42.000  
G30  22617647.728   118856451.295        2672.454          32.000  
J02  39249497.738   206257383.980         292.818          31.000  
J03  38062023.110   200017056.404         -78.262          44.000  
> 2025 03 17 03 00 15.0003841  0 26                     
C01  38323114.600   199558450.622          44.009          28.000  
C02  38362069.632   199761342.161         -31.155          33.000  
C03  37396695.947   194734382.306          33.770          36.000  
C06  36190340.989   188452613.218        -766.899          33.000  
C07  36166950.882   188330620.236         215.864          31.000  
C09  36187471.975   188437570.206        -167.926          34.000  
C10  37240268.739   193919646.560         320.541          37.000  
C16  36558767.632   190370839.568        -864.790          42.000  
C26  21878897.495   113928989.316         938.091          37.000  
C29  23297768.131   121317592.351       -2260.781          41.000  
C35  21723373.562   113119214.987        1089.341          34.000  
C40  36044924.559   187695236.654          45.013          27.000  
C45  23045751.799   120005079.163       -2013.559          43.000  
E15  25063031.265   131706914.490        2453.003          38.000  
E27  24087252.683   126579181.708         998.659          35.000  
E30  24630148.943   129432165.269       -1036.816          30.000  
E34  24976288.716   131251347.103        -165.853          23.000  
G01  23139321.222   121597719.356        3513.696          45.000  
G02  21403399.376   112475445.922        2214.144          46.000  
G07  20841360.767   109521883.073         931.564          35.000  
G08  20050958.851   105368496.038       -1096.814          42.000  
G16  24086944.496   126577620.688       -2889.317          32.000  
G27  22130614.935   116296930.669       -2997.147          41.000  
G30  22617157.408   118853861.609        2668.014          30.000  
J02  39249458.006   206257176.122         289.365          31.000  
J03  38062055.628   200017220.717         -82.056          44.000  
> 2025 03 17 03 00 16.0003230  0 26                     
C01  38323111.968   199558395.336          44.322          28.000  
C02  38362074.495   199761362.770         -33.349          34.000  
C03  37396688.817   194734335.372          36.128          37.000  
C06  36190487.353   188453364.845        -764.418          34.000  
C07  36166905.978   188330391.783         216.994          32.000  
C09  36187505.018   188437724.105        -166.083          35.000  
C10  37240206.148   193919313.090         321.271          38.000  
C16  36558932.584   190371954.854        -863.199          42.000  
C26  21878719.184   113928036.949         941.018          38.000  
C29  23298202.896   121319837.830       -2259.420          41.000  
C35  21723166.471   113118112.114        1092.315          34.000  
C40  36044918.029   187695181.847          40.947          28.000  
C45  23046137.098   120007078.151       -2011.591          42.000  
E15  25062563.654   131704449.574        2452.959          38.000  
E27  24087062.080   126578170.609         999.055          37.000  
E30  24630342.075   129433188.843       -1036.202          30.000  
E34  24976320.859   131251500.5711       -164.864          19.000  
G01  23138650.352   121594191.792        3515.830          45.000  
G02  21402976.434   112473218.112        2216.459          47.000  
G07  20841186.953   109520938.029         933.762          36.000  
G08  20051165.773   105369577.269       -1094.899          42.000  
G16  24087495.880   126580494.825       -2888.673          33.000  
G27  22131183.107   116299912.121       -2994.790          41.000  
G30  22616646.927   118851180.302        2671.446          32.000  
J02  39249402.310   206256873.110         292.189          33.000  
J03  38062069.484   200017287.163         -79.390          44.000  
> 2025 03 17 03 00 17.0002619  0 26                     
C01  38323098.318   199558340.267          37.138          29.000  
C02  38362076.734   199761380.375         -32.327          34.000  
C03  37396677.566   194734282.987          34.994          36.000  
C06  36190636.491   188454111.953        -765.578          34.000  
C07  36166860.850   188330159.526         215.714          31.000  
C09  36187534.238   188437873.100        -165.620          34.000  
C10  37240140.634   193918975.441         321.170          37.000  
C16  36559095.811   190372801.452        -864.365          42.000  
C26  21878537.351   113927081.034         939.926          39.000  
C29  23298634.138   121322081.501       -2260.529          43.000  
C35  21722957.356   113117006.016        1090.389          34.000  
C40  36044910.375   187695125.623          40.324          29.000  
C45  23046520.972   120009072.979       -2013.319          43.000  
E15  25062091.922   131701981.946        2452.447          38.000  
E27  24086869.154   126577156.041         999.726          37.000  
E30  24630536.481   129434210.076       -1036.086          28.000  
E34  24976365.969   131251651.898        -166.802          21.000  
G01  23137978.957   121590660.697        3514.168          46.000  
G02  21402553.268   112470987.818        2212.987          46.000  
G07  20841009.017   109519989.170         932.361          36.000  
G08  20051372.171   105370656.007       -1098.594          42.000  
G16  24088044.041   126583364.729       -2887.985          35.000  
G27  22131750.455   116302891.216       -2996.898          41.000  
G30  22616134.723   118848493.091        2672.321          30.000  
J02  39249343.692   206256565.112         291.787          34.000  
J03  38062082.815   200017351.445         -82.542          44.000  
> 2025 03 17 03 00 18.0002009  0 26                     
C01  38323115.097   199558445.366          33.567          30.000  
C02  38362110.901   199761552.206         -34.486          33.000  
C03  37396699.441   194734391.228          30.226          37.000  
C06  36190812.459   188455020.752        -772.823          34.000  
C07  36166850.348   188330087.039         208.415          32.000  
C09  36187592.688   188438180.221        -172.218          33.000  
C10  37240107.348   193918799.053         313.065          37.000  
C16  36559290.667   190373808.448        -872.498          42.000  
C26  21878384.747   113926286.714         929.888          38.000  
C29  23299094.310   121324483.007       -2269.703          43.000  
C35  21722777.172   113116061.173        1080.089          35.000  
C40  36044926.254   187695227.578          34.942          29.000  
C45  23046936.475   120011229.724       -2022.136          43.000  
E15  25061656.614   131699677.527        2446.751          37.000  
E27  24086710.855   126576302.659         994.642          37.000  
E30  24630763.715   129435389.476       -1041.542          27.000  
E34  24976437.310   131251963.043        -171.722          23.000  
G01  23137339.191   121587292.219        3504.877          45.000  
G02  21402161.729   112468921.707        2203.451          47.000  
G07  20840864.207   109519480.580         921.312          35.000  
G08  20051610.796   105371900.074       -1106.689          42.000  
G16  24088625.029   126586397.903       -2896.694          34.000  
G27  22132349.131   116306032.600       -3006.475          42.000  
G30  22615658.043   118845966.444        2663.216          30.000  
J02  39249319.099   206256420.503         281.767          34.000  
J03  38062127.475   200017577.380         -90.195          44.000  
> 2025 03 17 03 00 19.0001398  0 26                     
C01  38323100.173   199558403.531          25.769          29.000  
C02  38362116.363   199761575.228         -42.162          33.000  
C03  37396693.811   194734352.479          22.219          37.000  
C06  36190960.622   188455782.088        -777.614          33.000  
C07  36166808.143   188329867.753         203.312          32.000  
C09  36187624.232   188438342.868        -179.665          33.000  
C10  37240045.656   193918475.401         307.922          37.000  
C16  36559456.218   190374667.660        -874.895          42.000  
C26  21878204.038   113925346.169         925.297          38.000  
C29  23299533.572   121326741.234       -2272.260          42.000  
C35  21722568.882   113114970.456        1075.502          35.000  
C40  36044918.825   187695181.483          29.588          28.000  
C45  23047324.772   120013238.993       -2025.420          44.000  
E15  25061191.102   131697223.476        2441.143          37.000  
E27  24086519.353   126575301.043         988.599          36.000  
E30  24630960.144   129436420.939       -1047.874          26.000  
E34  24976473.350   131252122.650        -177.784          25.000  
G01  23136670.419   121583775.261        3502.605          45.000  
G02  21401741.486   112466706.577        2200.004          47.000  
G07  20840688.595   109518548.485         916.630          34.000  
G08  20051821.016   105372994.409       -1110.325          42.000  
G16  24089177.912   126589281.802       -2901.549          33.000  
G27  22132922.100   116309289.833       -3009.139          42.000  
G30  22615152.059   118843293.661        2656.563          30.000  
J02  39249266.701   206256127.178         277.981          34.000  
J03  38062143.130   200017656.383         -93.671          44.000  
> 2025 03 17 03 00 20.0000787  0 26                     
C01  38323095.798   199558368.531          18.592          28.000  
C02  38362123.380   199761603.804         -40.918          33.000  
C03  37396689.136   194734318.508          24.757          38.000  
C06  36191106.743   188456542.869        -769.428          34.000  
C07  36166766.893   188329649.013         211.790          32.000  
C09  36187654.933   188438506.671        -173.588          33.000  
C10  37239982.821   193918152.527         316.667          36.000  
C16  36559623.025   190375525.514        -866.726          43.000  
C26  21878026.083   113924405.901         931.671          38.000  
C29  23299972.590   121328995.778       -2265.040          43.000  
C35  21722363.945   113113879.997        1082.465          34.000  
C40  36044911.452   187695140.521          31.312          28.000  
C45  23047713.725   120015246.565       -2018.750          46.000  
E15  25060722.348   131694768.220        2444.643          39.000  
E27  24086332.104   126574299.845         991.303          38.000  
E30  24631157.230   129437458.402       -1045.923          24.000  
E34  24976506.449   131252288.643        -179.383          27.000  
G01  23136001.704   121580257.360        3509.349          45.000  
G02  21401321.299   112464491.227        2206.548          47.000  
G07  20840511.539   109517617.351         923.997          34.000  
G08  20052030.693   105374086.983       -1101.730          42.000  
G16  24089731.751   126592167.892       -2894.453          32.000  
G27  22133492.727   116312281.641       -3002.977          41.000  
G30  22614639.836   118840622.548        2663.930          34.000  
J02  39249214.060   206255835.019         283.723          30.000  
J03  38062157.941   200017731.180         -84.914          44.000  
> 2025 03 17 03 00 21.0000176  0 26                     
C01  38323109.804   199558337.111          18.023          32.000  
C02  38362128.092   199761627.243         -38.717          33.000  
C03  37396682.456   194734275.412          32.223          38.000  
C06  36191252.958   188457296.729        -768.189          34.000  
C07  36166722.440   188329421.168         214.780          32.000  
C09  36187684.528   188438661.264        -167.768          32.000  
C10  37239922.179   193917820.504         319.003          37.000  
C16  36559788.426   190376379.098        -866.850          42.000  
C26  21877843.425   113923459.152         933.259          39.000  
C29  23300406.005   121331245.136       -2265.800          42.000  
C35  21722157.004   113112782.345        1083.641          33.000  
C40  36044901.774   187695090.750          38.860          31.000  
C45  23048099.473   120017250.017       -2019.150          46.000  
E15  25060257.286   131692307.141        2445.758          38.000  
E27  24086132.658   126573291.016         993.843          38.000  
E30  24631358.606   129438489.730       -1042.655          22.000  
E34  24976531.847   131252452.084        -175.874          26.000  
G01  23135331.584   121576733.716        3509.061          45.000  
G02  21400900.306   112462270.449        2207.295          47.000  
G07  20840331.279   109516677.437         926.659          33.000  
G08  20052238.065   105375174.819       -1101.149          42.000  
G16  24090282.685   126595042.490       -2891.224          32.000  
G27  22134061.649   116315269.099       -3002.344          41.000  
G30  22614122.010   118837944.225        2664.152          37.000  
J02  39249157.314   206255534.039         288.502          29.000  
J03  38062173.146   200018069.850         -83.685          45.000  
> 2025 03 17 03 00 21.9999565  0 26                     
C01  38323108.380   199558301.394          27.869          32.000  
C02  38362132.964   199761650.367         -36.270          34.000  
C03  37396673.837   194734227.764          34.435          38.000  
C06  36191399.331   188458050.157        -768.437          36.000  
C07  36166679.045   188329192.462         214.593          31.000  
C09  36187712.484   188438815.634        -169.653          33.000  
C10  37239860.197   193917488.134         317.970          37.000  
C16  36559954.886   190377231.175        -867.669          42.000  
C26  21877662.725   113922511.435         935.850          38.000  
C29  23300841.379   121333495.498       -2264.865          41.000  
C35  21721940.929   113111684.582        1085.709          34.000  
C40  36044880.264   187695037.028          39.807          30.000  
C45  23048485.081   120019254.128       -2016.934          45.000  
E15  25059789.085   131689845.884        2447.357          39.000  
E27  24085937.568   126572281.989         994.931          37.000  
E30  24631552.347   129439516.062       -1041.386          29.000  
E34  24976553.807   131252612.462        -172.071          28.000  
G01  23134661.922   121573209.386        3510.841          45.000  
G02  21400478.273   112460048.140        2209.717          46.000  
G07  20840149.680   109515736.266         928.302          34.000  
G08  20052446.196   105376260.928       -1100.774          42.000  
G16  24090832.279   126597918.796       -2890.838          34.000  
G27  22134630.430   116318254.795       -2998.333          39.000  
G30  22613612.737   118835264.489        2667.303          36.000  
J02  39249101.328   206255228.782         294.003          24.000  
J03  38062187.012   200018137.693         -83.468          45.000  
> 2025 03 17 03 00 22.9998954  0 26                     
C01  38323105.935   199558258.579          28.604          23.000  
C02  38362138.313   199761668.062         -31.281          34.000  
C03  37396666.895   194734180.472          33.290          37.000  
C06  36191544.684   188458803.944        -769.414          34.000  
C07  36166637.027   188328965.314         212.569          31.000  
C09  36187738.818   188438971.914        -171.061          33.000  
C10  37239798.093   193917156.846         314.940          37.000  
C16  36560119.725   190378082.083        -868.974          42.000  
C26  21877482.803   113921562.935         933.161          40.000  
C29  23301273.932   121335745.159       -2265.345          43.000  
C35  21721734.925   113110585.277        1083.489          33.000  
C40  36044881.417   187694985.079          36.143          33.000  
C45  23048870.568   120021516.867       -2018.230          45.000  
E15  25059323.160   131687385.784        2445.727          39.000  
E27  24085747.153   126571273.654         994.095          37.000  
E30  24631747.765   129440544.374       -1042.274          31.000  
E34  24976580.442   131252770.036        -173.492          28.000  
G01  23133992.439   121569950.048        3509.631          45.000  
G02  21400056.718   112457826.663        2205.202          47.000  
G07  20839967.360   109514796.765         922.808          34.000  
G08  20052654.205   105377348.229       -1106.020          41.000  
G16  24091381.752   126601064.650       -2892.349          32.000  
G27  22135199.689   116321238.754       -3001.155          40.000  
G30  22613104.542   118832584.681        2664.510          38.000  
J02  39249041.623   206254919.521         282.560          26.000  
J03  38062202.254   200018208.751         -87.719          45.000  
> 2025 03 17 03 00 23.9998343  0 26                     
C01  38323097.503   199558214.421          28.816          30.000  
C02  38362142.772   199761684.466         -29.789          34.000  
C03  37396658.763   194734132.516          33.412          37.000  
C06  36191690.645   188459556.524        -770.089          34.000  
C07  36166593.520   188328737.049         212.968          31.000  
C09  36187769.959   188439125.627        -171.804          33.000  
C10  37239734.500   193916825.641         316.589          37.000  
C16  36560284.573   190378934.709        -867.290          42.000  
C26  21877301.990   113920615.449         931.452          39.000  
C29  23301707.395   121337994.886       -2263.622          44.000  
C35  21721527.731   113109488.360        1079.710          33.000  
C40  36044876.582   187694933.148          36.943          32.000  
C45  23049255.764   120023517.224       -2017.607          45.000  
E15  25058855.447   131684924.784        2445.754          39.000  
E27  24085549.252   126570264.298         993.929          36.000  
E30  24631948.588   129441570.355       -1042.310          30.000  
E34  24976614.581   131252928.366        -174.451          30.000  
G01  23133322.665   121566424.818        3511.310          45.000  
G02  21399635.172   112455605.805        2205.562          47.000  
G07  20839785.348   109513858.693         923.121          35.000  
G08  20052862.224   105378436.355       -1103.977          40.000  
G16  24091930.635   126603940.543       -2892.705          32.000  
G27  22135768.657   116324223.812       -3001.725          40.000  
G30  22612594.558   118829905.610        2663.968          36.000  
J02  39248984.924   206254618.506         287.538          28.000  
J03  38062217.506   200018279.033         -85.829          45.000  
> 2025 03 17 03 00 24.9997733  0 26                     
C01  38323095.564   199558330.251          29.671          31.000  
C02  38362176.808   199761858.429         -32.343          34.000  
C03  37396681.107   194734244.116          34.014          37.000  
C06  36191866.783   188460466.126        -763.957          34.000  
C07  36166579.888   188328665.984         217.671          32.000  
C09  36187827.379   188439438.463        -166.053          33.000  
C10  37239701.382   193916650.501         321.044          37.000  
C16  36560478.398   190379943.456        -863.191          42.000  
C26  21877151.654   113919824.937         935.837          39.000  
C29  23302173.432   121340399.602       -2262.147          43.000  
C35  21721353.710   113108549.391        1085.049          33.000  
C40  36044899.526   187695037.281          42.576          29.000  
C45  23049669.636   120025676.938       -2014.558          45.000  
E15  25058418.508   131682621.954        2448.885          39.000  
E27  24085398.017   126569413.272         997.325          36.000  
E30  24632171.793   129442755.788       -1039.631          29.000  
E34  24976672.300   131253245.731        -172.059          30.000  
G01  23132683.067   121563057.884        3514.075          45.000  
G02  21399243.503   112453542.980        2209.185          46.000  
G07  20839637.110   109513078.493         926.924          35.000  
G08  20053099.818   105379682.379       -1100.518          41.000  
G16  24092512.092   126606975.188       -2887.106          31.000  
G27  22136366.903   116327368.101       -2997.639          40.000  
G30  22612114.450   118827385.450        2668.262          35.000  
J02  39248956.603   206254474.208         291.530          30.000  
J03  38062261.735   200018505.618         -81.471          45.000  
> 2025 03 17 03 00 25.9997122  0 26                     
C01  38323103.920   199558287.867          30.649          32.000  
C02  38362182.167   199761876.385         -32.409          33.000  
C03  37396673.575   194734199.239          31.998          36.000  
C06  36192011.245   188461217.530        -766.449          34.000  
C07  36166533.083   188328435.646         217.429          30.000  
C09  36187858.520   188439590.431        -167.267          32.000  
C10  37239638.388   193916317.187         319.352          36.000  
C16  36560643.846   190380793.074        -866.063          42.000  
C26  21876966.644   113918879.038         932.411          39.000  
C29  23302605.995   121342649.943       -2264.653          44.000  
C35  21721146.516   113107453.359        1082.160          34.000  
C40  36044890.794   187694983.051          40.642          30.000  
C45  23050056.331   120027680.086       -2018.683          44.000  
E15  25057953.193   131680432.378        2447.967          40.000  
E27  24085201.615   126568403.717         996.155          36.000  
E30  24632369.319   129443781.966       -1040.660          25.000  
E34  24976719.030   131253405.107        -173.003          29.000  
G01  23132013.593   121559534.382        3510.649          45.000  
G02  21398822.557   112451323.917        2205.450          46.000  
G07  20839458.696   109512141.009         924.352          34.000  
G08  20053306.938   105380770.564       -1103.015          42.000  
G16  24093059.475   126609849.532       -2888.804          32.000  
G27  22136936.771   116330355.080       -3001.873          40.000  
G30  22611605.364   118824706.766        2665.112          35.000  
J02  39248899.905   206254169.259         290.802          28.000  
J03  38062276.387   200018575.107         -84.021          44.000  
> 2025 03 17 03 00 26.9996511  0 26                     
C01  38323096.163   199558240.708          33.044          33.000  
C02  38362184.903   199761888.506         -28.160          33.000  
C03  37396664.918   194734150.960          34.819          37.000  
C06  36192153.684   188461968.221        -765.885          33.000  
C07  36166496.846   188328204.280         216.522          33.000  
C09  36187889.436   188439742.215        -167.278          33.000  
C10  37239573.071   193915982.743         321.577          37.000  
C16  36560807.270   190381643.809        -863.549          42.000  
C26  21876786.207   113917929.418         936.622          40.000  
C29  23303041.031   121344898.418       -2261.936          43.000  
C35  21720933.102   113106355.369        1084.451          34.000  
C40  36044883.037   187694927.178          40.897          28.000  
C45  23050439.803   120029681.415       -2014.411          45.000  
E15  25057481.357   131677968.998        2448.403          39.000  
E27  24085014.582   126567391.789         997.247          35.000  
E30  24632574.414   129444805.472       -1038.535          29.000  
E34  24976746.649   131253561.576        -171.789          31.000  
G01  23131343.595   121556006.781        3514.385          46.000  
G02  21398400.486   112449101.265        2210.035          46.000  
G07  20839279.458   109511201.327         925.991          34.000  
G08  20053515.031   105381855.944       -1099.674          40.000  
G16  24093606.034   126612723.225       -2888.497          36.000  
G27  22137506.714   116333336.689       -2997.340          39.000  
G30  22611096.055   118822026.207        2667.019          35.000  
J02  39248842.083   206253863.081         291.541          28.000  
J03  38062289.916   200018641.863         -79.813          44.000  
> 2025 03 17 03 00 27.9995900  0 26                     
C01  38323074.691   199558192.745          31.436          32.000  
C02  38362187.413   199761904.192         -31.655          34.000  
C03  37396655.737   194734098.761          37.092          36.000  
C06  36192299.496   188462716.349        -762.297          32.000  
C07  36166455.887   188327970.902         219.677          32.000  
C09  36187918.029   188439892.831        -164.304          32.000  
C10  37239509.027   193915644.926         324.253          37.000  
C16  36560971.969   190382487.985        -860.940          42.000  
C26  21876603.745   113916977.727         936.498          39.000  
C29  23303472.245   121347142.172       -2260.445          43.000  
C35  21720718.263   113105254.653        1086.475          35.000  
C40  36044878.953   187695143.355          45.042          29.000  
C45  23050823.950   120031679.563       -2014.581          44.000  
E15  25057016.192   131675502.396        2451.321          38.000  
E27  24084824.926   126566375.960        1000.462          36.000  
E30  24632771.490   129445826.176       -1036.425          31.000  
E34  24976766.547   131253716.707        -170.289          33.000  
G01  23130673.071   121552476.539        3515.157          46.000  
G02  21397977.292   112446876.588        2209.707          46.000  
G07  20839101.194   109510259.260         928.045          35.000  
G08  20053721.700   105382938.616       -1098.150          41.000  
G16  24094150.570   126615592.516       -2885.793          35.000  
G27  22138074.933   116336318.156       -2996.884          40.000  
G30  22610587.719   118819342.533        2670.305          33.000  
J02  39248785.235   206253556.406         293.333          31.000  
J03  38062303.219   200018704.052         -78.330          44.000  
> 2025 03 17 03 00 28.9995289  0 26                     
C01  38323073.623   199558149.825          30.880          31.000  
C02  38362190.842   199761921.590         -27.420          34.000  
C03  37396648.074   194734050.079          39.047          37.000  
C06  36192439.930   188463465.757        -765.098          32.000  
C07  36166412.548   188328000.459         217.693          32.000  
C09  36187948.439   188440043.501        -165.514          30.000  
C10  37239446.802   193915571.156         322.258          37.000  
C16  36561135.787   190383339.766        -863.993          43.000  
C26  21876420.404   113916029.426         938.259          39.000  
C29  23303904.077   121349393.069       -2261.526          43.000  
C35  21720512.137   113104157.532        1085.652          35.000  
C40  36044869.490   187695088.835          41.452          30.000  
C45  23051210.214   120033681.433       -2014.318          43.000  
E15  25056541.152   131673041.298        2449.556          38.000  
E27  24084625.395   126565364.805         999.040          35.000  
E30  24632957.493   129446850.380       -1033.988          30.000  
E34  24976802.354   131253874.710        -169.262          34.000  
G01  23130004.066   121548950.839        3514.982          46.000  
G02  21397555.015   112444655.642        2210.982          46.000  
G07  20838925.646   109509319.833         928.371          36.000  
G08  20053929.888   105384025.925       -1099.667          41.000  
G16  24094697.522   126618466.506       -2888.191          35.000  
G27  22138645.569   116339301.968       -2996.063          41.000  
G30  22610077.903   118816660.795        2670.167          30.000  
J02  39248728.405   206253251.181         294.928          34.000  
J03  38062317.740   200018771.337         -78.952          44.000  
> 2025 03 17 03 00 29.9994679  0 26                     
C01  38323093.400   199558263.173          28.601          30.000  
C02  38362222.011   199762088.644         -27.285          34.000  
C03  37396668.750   194734154.470          37.742          36.000  
C06  36192619.796   188464372.910        -764.873          32.000  
C07  36166397.849   188327925.292         218.431          31.000  
C09  36188007.489   188440352.732        -168.725          30.000  
C10  37239412.017   193915391.767         321.909          36.000  
C16  36561329.443   190384344.332        -862.655          42.000  
C26  21876269.599   113915235.278         935.839          40.000  
C29  23304366.348   121351794.771       -2260.440          44.000  
C35  21720331.952   113103214.612        1084.948          35.000  
C40  36044885.970   187695188.738          44.036          33.000  
C45  23051626.316   120035837.984       -2013.559          44.000  
E15  25056101.947   131670735.396        2449.630          36.000  
E27  24084461.399   126564509.880         998.907          35.000  
E30  24633180.229   129448029.213       -1037.395          29.000  
E34  24976859.605   131254187.595        -172.787          35.000  
G01  23129363.999   121545579.761        3515.840          46.000  
G02  21397162.877   112442590.547        2207.169          45.000  
G07  20838779.038   109508537.140         924.207          37.000  
G08  20054168.513   105385269.602       -1102.207          40.000  
G16  24095276.712   126621497.097       -2886.375          36.000  
G27  22139245.145   116342441.230       -2997.753          41.000  
G30  22609599.125   118814134.889        2668.306          29.000  
J02  39248703.513   206253100.920         293.270          35.000  
J03  38062361.500   200018995.143         -81.261          44.000  
> 2025 03 17 03 00 31.0004067  0 26                     
C01  38323066.746   199558155.653          31.493          30.000  
C02  38362212.746   199762038.957         -28.589          34.000  
C03  37396646.893   194734041.117          36.278          36.000  
C06  36192755.030   188465061.096        -764.094          32.000  
C07  36166341.816   188327630.124         217.932          30.000  
C09  36188024.605   188440442.979        -166.369          29.000  
C10  37239336.797   193914992.364         322.058          35.000  
C16  36561482.665   190385129.470        -863.475          42.000  
C26  21876076.860   113914222.449         935.488          40.000  
C29  23304785.786   121353981.372       -2261.909          44.000  
C35  21720110.134   113102312.931        1085.370          35.000  
C40  36044865.012   187695068.477          43.215          32.000  
C45  23051999.886   120037777.772       -2014.792          45.000  
E15  25055622.607   131668205.494        2450.406          36.000  
E27  24084256.669   126563433.022         998.659          35.000  
E30  24633366.129   129448988.883       -1036.883          30.000  
E34  24976873.723   131254282.981        -171.749          36.000  
G01  23128681.700   121541984.638        3514.976          46.000  
G02  21396727.907   112440303.378        2208.086          45.000  
G07  20838591.097   109507534.453         924.889          37.000  
G08  20054365.505   105386292.865       -1101.296          39.000  
G16  24095814.568   126624307.936       -2886.129          35.000  
G27  22139800.388   116345362.992       -2996.778          40.000  
G30  22609076.315   118811387.362        2667.844          29.000  
J02  39248635.788   206252729.556         293.893          35.000  
J03  38062363.028   200018996.948         -81.008          45.000  
> 2025 03 17 03 00 32.0003456  0 26                     
C01  38323056.722   199558110.900          33.117          28.000  
C02  38362217.411   199762055.455         -29.966          34.000  
C03  37396638.368   194733990.789          36.636          36.000  
C06  36192900.598   188465811.200        -766.905          32.000  
C07  36166300.313   188327399.632         216.764          31.000  
C09  36188051.455   188440596.469        -165.679          30.000  
C10  37239273.409   193914658.716         320.844          36.000  
C16  36561647.120   190385980.268        -864.443          42.000  
C26  21875895.055   113913275.246         933.514          40.000  
C29  23305217.655   121356231.157       -2265.085          45.000  
C35  21719896.850   113101215.454        1082.437          35.000  
C40  36044853.489   187695013.833          40.692          29.000  
C45  23052386.487   120039778.763       -2017.961          45.000  
E15  25055151.801   131665743.831        2448.677          36.000  
E27  24084072.765   126562422.758         997.043          35.000  
E30  24633559.963   129450012.836       -1037.935          30.000  
E34  24976905.370   131254441.225        -173.523          36.000  
G01  23128012.132   121538458.818        3511.645          46.000  
G02  21396306.567   112438349.448        2205.547          45.000  
G07  20838417.086   109506597.208         922.444          36.000  
G08  20054573.130   105387380.825       -1102.018          39.000  
G16  24096363.656   126627183.316       -2889.216          34.000  
G27  22140368.963   116348348.584       -2999.613          40.000  
G30  22608564.438   118808707.997        2665.213          27.000  
J02  39248579.895   206252423.553         292.357          35.000  
J03  38062377.286   200019063.265         -81.242          45.000  
> 2025 03 17 03 00 33.0002846  0 26                     
C01  38323066.746   199558222.782          27.977          28.000  
C02  38362252.618   199762228.214         -32.413          34.000  
C03  37396658.285   194734095.676          35.400          35.000  
C06  36193075.209   188466720.705        -764.885          31.000  
C07  36166290.251   188327326.692         217.360          32.000  
C09  36188108.247   188440902.979        -167.791          29.000  
C10  37239241.163   193914480.775         321.987          37.000  
C16  36561842.117   190386988.156        -863.612          42.000  
C26  21875746.489   113912751.582         934.034          40.000  
C29  23305680.067   121358636.009       -2262.686          45.000  
C35  21719719.804   113100275.258        1082.119          35.000  
C40  36044869.509   187695115.248          42.595          28.000  
C45  23052802.130   120041936.436       -2015.648          45.000  
E15  25054713.336   131663440.130        2447.856          35.000  
E27  24083906.512   126561568.903         997.824          35.000  
E30  24633786.737   129451193.810       -1039.103          30.000  
E34  24976966.959   131254759.726        -174.047          35.000  
G01  23127371.907   121535089.594        3514.178          46.000  
G02  21395914.570   112436286.825        2206.687          45.000  
G07  20838273.017   109505817.923         923.557          37.000  
G08  20054811.296   105388625.947       -1102.045          39.000  
G16  24096942.087   126630213.630       -2888.623          33.000  
G27  22140966.581   116351489.362       -2998.003          39.000  
G30  22608083.403   118806186.631        2665.985          26.000  
J02  39248551.546   206252273.499         294.342          35.000  
J03  38062421.487   200019287.542         -80.783          45.000  
> 2025 03 17 03 00 34.0002235  0 26                     
C01  38323053.630   199558174.242          29.254          24.000  
C02  38362255.391   199762238.847         -27.950          34.000  
C03  37396649.067   194734043.022          37.120          36.000  
C06  36193219.484   188467469.412        -766.430          31.000  
C07  36166248.355   188327091.062         218.854          32.000  
C09  36188138.301   188441054.030        -167.516          29.000  
C10  37239179.481   193914141.652         322.486          37.000  
C16  36562005.279   190387832.695        -864.172          42.000  
C26  21875564.590   113911801.012         934.412          39.000  
C29  23306112.142   121360881.196       -2263.105          44.000  
C35  21719505.228   113099176.528        1082.612          35.000  
C40  36044862.689   187695055.252          43.847          29.000  
C45  23053187.439   120043936.223       -2016.406          44.000  
E15  25054252.030   131660975.407        2447.778          36.000  
E27  24083720.415   126560554.073         998.053          36.000  
E30  24633978.080   129452214.967       -1038.190          29.000  
E34  24976995.814   131254915.470        -174.398          35.000  
G01  23126701.346   121531559.255        3513.684          47.000  
G02  21395493.136   112434064.173        2206.430          45.000  
G07  20838096.214   109504877.683         924.051          37.000  
G08  20055018.827   105389711.126       -1103.255          40.000  
G16  24097491.682   126633084.213       -2887.217          34.000  
G27  22141534.763   116354469.393       -2997.500          39.000  
G30  22607571.432   118803504.111        2665.182          27.000  
J02  39248494.661   206252230.563         292.650          34.000  
J03  38062434.753   200019350.627         -80.773          44.000  
> 2025 03 17 03 00 35.0001624  0 26                     
C01  38323049.939   199558132.457          33.216          23.000  
C02  38362260.094   199762255.764         -28.552          35.000  
C03  37396641.778   194733996.790          36.162          36.000  
C06  36193362.991   188468224.051        -765.182          31.000  
C07  36166205.092   188326862.627         218.774          31.000  
C09  36188172.084   188441210.096        -164.862          30.000  
C10  37239117.330   193913809.245         322.109          37.000  
C16  36562170.670   190388685.285        -863.433          42.000  
C26  21875384.921   113910856.836         934.913          39.000  
C29  23306544.349   121363132.791       -2263.043          45.000  
C35  21719296.778   113098084.229        1082.256          36.000  
C40  36044848.805   187695003.343          41.360          30.000  
C45  23053574.677   120045940.951       -2016.141          44.000  
E15  25053783.061   131658517.918        2448.325          37.000  
E27  24083523.958   126559545.493         998.807          35.000  
E30  24634182.745   129453503.706       -1036.342          28.000  
E34  24977020.603   131255079.502        -174.032          33.000  
G01  23126031.816   121528036.313        3513.947          46.000  
G02  21395071.834   112431848.533        2206.275          45.000  
G07  20837919.843   109503944.307         922.923          37.000  
G08  20055226.790   105390803.265       -1102.031          39.000  
G16  24098039.009   126635959.727       -2887.007          34.000  
G27  22142104.275   116357456.764       -2998.003          38.000  
G30  22607062.291   118800829.547        2664.273          27.000  
J02  39248436.407   206251927.163         294.977          33.000  
J03  38062449.349   200019421.131         -80.192          44.000  
> 2025 03 17 03 00 36.0001013  0 26                     
C01  38323799.785   199562081.622          40.537          21.000  
C02  38362264.057   199762269.879         -30.435          35.000  
C03  37396631.651   194733942.947          39.251          36.000  
C06  36193502.759   188468971.116        -765.403          32.000  
C07  36166163.486   188326629.427         217.350          31.000  
C09  36188203.328   188441358.091        -166.455          29.000  
C10  37239051.741   193913471.785         322.279          37.000  
C16  36562333.823   190389533.383        -864.428          41.000  
C26  21875204.211   113909907.400         933.142          39.000  
C29  23306977.315   121365379.969       -2263.292          44.000  
C35  21719085.790   113096987.428        1081.274          35.000  
C40  36044838.078   187694946.424          41.909          27.000  
C45  23053959.976   120047940.783       -2016.597          44.000  
E15  25053320.547   131656054.750        2447.805          38.000  
E27  24083335.154   126558531.398         998.453          35.000  
E30  24634375.277   129454524.070       -1038.228          28.000  
E34  24977046.451   131255235.881        -173.870          32.000  
G01  23125361.545   121524507.047        3513.212          46.000  
G02  21394650.392   112429627.885        2205.395          45.000  
G07  20837743.930   109503006.601         922.094          37.000  
G08  20055433.412   105391889.614       -1103.929          39.000  
G16  24098584.997   126638828.594       -2884.010          31.000  
G27  22142673.946   116360438.186       -2998.489          38.000  
G30  22606553.609   118798150.129        2664.607          28.000  
J02  39248378.313   206251617.499         293.794          33.000  
J03  38062463.805   200019484.139         -80.535          45.000  
> 2025 03 17 03 00 37.0000402  0 26                     
C01  38323785.152   199562005.4441         40.777           5.000  
C02  38362267.411   199762283.443         -30.410          33.000  
C03  37396620.015   194733890.595          38.336          35.000  
C06  36193650.014   188469721.361        -764.140          33.000  
C07  36166119.173   188326398.911         217.084          30.000  
C09  36188235.462   188441511.862        -166.735          32.000  
C10  37238986.742   193913135.439         322.378          35.000  
C16  36562498.765   190390382.871        -864.109          42.000  
C26  21875024.392   113908960.533         934.059          39.000  
C29  23307410.871   121367628.080       -2263.024          42.000  
C35  21718878.689   113095892.852        1082.090          32.000  
C40  36044833.038   187694889.953          43.102          27.000  
C45  23054347.064   120049943.183       -2016.239          43.000  
E15  25052848.730   131653594.042        2447.595          36.000  
E27  24083137.047   126557518.840         999.288          33.000  
E30  24634562.104   129455546.979       -1037.847          27.000  
E34  24977072.888   131255396.450        -174.777          31.000  
G01  23124690.666   121520979.916        3514.374          45.000  
G02  21394228.940   112427409.767        2204.778          45.000  
G07  20837566.209   109502071.408         921.442          38.000  
G08  20055641.525   105392978.496       -1103.872          39.000  
G16  24099131.874   126641700.010       -2887.611          32.000  
G27  22143241.509   116363420.869       -2997.650          39.000  
G30  22606044.018   118795471.630        2666.017          29.000  
J02  39248319.910   206251310.732         293.049          31.000  
J03  38062476.752   200019550.244         -81.109          44.000  
> 2025 03 17 03 00 37.9999792  0 26                     
C01  38323806.212   199562105.9391         41.456          12.000  
C02  38362302.562   199762454.028         -31.449          33.000  
C03  37396640.476   194733993.067          35.781          35.000  
C06  36193823.369   188470627.782        -765.618          33.000  
C07  36166108.455   188326321.705         219.069          29.000  
C09  36188294.596   188441818.889        -165.996          32.000  
C10  37238954.440   193912954.842         323.306          35.000  
C16  36562693.405   190391386.258        -863.824          42.000  
C26  21874870.074   113908167.218         933.964          39.000  
C29  23307875.325   121370031.941       -2264.891          41.000  
C35  21718700.987   113094951.372        1082.433          31.000  
C40  36044852.899   187694986.928          43.590          28.000  
C45  23054762.651   120052100.585       -2018.028          43.000  
E15  25052414.106   131651289.007        2447.728          36.000  
E27  24082985.128   126556940.760         998.476          33.000  
E30  24634788.522   129456727.961       -1038.077          29.000  
E34  24977138.618   131255713.464        -175.358          30.000  
G01  23124050.084   121517608.356        3512.522          45.000  
G02  21393837.786   112425346.978        2205.768          44.000  
G07  20837418.487   109501292.499         923.378          38.000  
G08  20055881.134   105394223.662       -1101.784          40.000  
G16  24099708.450   126644729.748       -2890.195          31.000  
G27  22143841.169   116366561.256       -2998.914          40.000  
G30  22605568.022   118792947.903        2666.299          28.000  
J02  39248291.205   206251159.895         295.057          31.000  
J03  38062519.997   200019772.748         -78.437          43.000  
> 2025 03 17 03 00 38.9999181  0 26                     
C01  38323080.686   199558337.481          39.443          34.000  
C02  38362307.330   199762469.144         -32.188          32.000  
C03  37396633.552   194733945.847          34.253          35.000  
C06  36193965.742   188471378.438        -765.782          32.000  
C07  36166069.754   188326088.599         219.668          28.000  
C09  36188326.646   188441969.932        -166.527          32.000  
C10  37238886.059   193912616.954         323.885          35.000  
C16  36562856.165   190392235.438        -863.555          42.000  
C26  21874688.671   113907219.513         933.123          38.000  
C29  23308308.497   121372282.175       -2263.252          40.000  
C35  21718491.704   113093855.487        1080.447          29.000  
C40  36044840.279   187694928.859          45.497          29.000  
C45  23055148.756   120054102.099       -2016.437          43.000  
E15  25051939.506   131648827.464        2446.766          34.000  
E27  24082787.536   126555928.295         999.202          30.000  
E30  24634992.353   129457748.784       -1036.881          28.000  
E34  24977169.169   131255872.741        -175.371          27.000  
G01  23123379.121   121514081.177        3514.294          44.000  
G02  21393417.149   112423127.555        2204.139          44.000  
G07  20837240.682   109500355.032         922.010          37.000  
G08  20056088.862   105395311.642       -1104.751          39.000  
G16  24100257.642   126647604.837       -2888.846          28.000  
G27  22144409.547   116369543.633       -2997.675          38.000  
G30  22605054.749   118790267.707        2664.963          30.000  
J02  39248235.115   206250849.911         295.539          29.000  
J03  38062534.059   200019836.528         -80.005          43.000  
> 2025 03 17 03 00 39.9998570  0 26                     
C01  38323071.683   199558287.745          31.293          32.000  
C02  38362311.218   199762484.108         -28.819          32.000  
C03  37396625.149   194733895.525          37.795          35.000  
C06  36194112.031   188472129.993        -769.900          31.000  
C07  36166025.975   188325856.781         213.711          28.000  
C09  36188358.714   188442123.804        -173.189          33.000  
C10  37238821.294   193912281.724         316.320          35.000  
C16  36563020.741   190393087.718        -871.120          42.000  
C26  21874508.187   113906275.405         926.562          40.000  
C29  23308739.889   121374532.816       -2270.939          42.000  
C35  21718282.140   113092763.384        1074.490          29.000  
C40  36044828.278   187694870.769          40.686          28.000  
C45  23055535.479   120056107.116       -2023.943          44.000  
E15  25051468.223   131646369.295        2443.466          34.000  
E27  24082588.165   126554917.081         994.783          28.000  
E30  24635177.915   129458772.706       -1046.195          28.000  
E34  24977203.935   131256036.163        -179.360          28.000  
G01  23122709.375   121510555.969        3506.870          44.000  
G02  21392997.130   112420912.560        2196.865          44.000  
G07  20837061.696   109499422.604         913.543          35.000  
G08  20056298.107   105396404.331       -1112.733          38.000  
G16  24100804.454   126650478.127       -2891.213          29.000  
G27  22144980.343   116372530.866       -3005.151          39.000  
G30  22604542.994   118787590.208        2661.223          29.000  
J02  39248179.345   206250543.133         288.525          31.000  
J03  38062548.440   200019903.870         -88.152          45.000  
> 2025 03 17 03 00 40.9997959  0 26                     
C01  38323064.451   199558244.610          27.430          30.000  
C02  38362315.978   199762500.253         -29.924          32.000  
C03  37396617.617   194733847.039          33.875          34.000  
C06  36194253.796   188472886.571        -768.486          32.000  
C07  36165977.371   188325629.842         213.440          31.000  
C09  36188388.956   188442280.735        -171.964          30.000  
C10  37238762.497   193911950.957         318.597          37.000  
C16  36563185.889   190393940.745        -867.233          42.000  
C26  21874331.272   113905335.827         927.650          37.000  
C29  23309173.351   121376787.273       -2267.043          43.000  
C35  21718067.751   113091675.429        1076.712          36.000  
C40  36044814.750   187694818.627          38.664          35.000  
C45  23055921.574   120058115.956       -2020.377          46.000  
E15  25051002.008   131643913.143        2442.938          36.000  
E27  24082402.556   126553909.517         995.052          30.000  
E30  24635371.244   129459803.968       -1042.640          29.000  
E34  24977241.072   131256202.698        -180.175          29.000  
G01  23122040.501   121507034.996        3509.734          44.000  
G02  21392577.683   112418701.602        2200.021          44.000  
G07  20836884.481   109498497.564         910.386          32.000  
G08  20056506.726   105397500.533       -1108.248          44.000  
G16  24101354.236   126653354.972       -2891.507          30.000  
G27  22145550.810   116375518.938       -3002.071          39.000  
G30  22604036.607   118784917.287        2657.415          29.000  
J02  39248123.846   206250242.234         286.623          27.000  
J03  38062562.792   200019974.392         -82.934          46.000  
> 2025 03 17 03 00 41.9997349  0 26                     
C01  38323079.450   199558359.279          28.141          30.000  
C02  38362350.463   199762672.219         -27.885          32.000  
C03  37396639.211   194733953.224          39.741          34.000  
C06  36194435.180   188473792.203        -762.371          31.000  
C07  36165968.087   188325554.011         221.120          26.000  
C09  36188448.324   188442590.898        -163.330          32.000  
C10  37238730.729   193911771.465         325.198          34.000  
C16  36563378.665   190394946.142        -860.653          40.000  
C26  21874178.687   113904545.514         936.018          39.000  
C29  23309637.439   121379191.951       -2259.603          41.000  
C35  21717886.985   113090738.164        1082.050          34.000  
C40  36044835.145   187694916.968          47.268          37.000  
C45  23056336.196   120060273.163       -2012.902          45.000  
E15  25050576.612   131641610.262        2447.189          37.000  
E27  24082248.472   126553054.768         998.674          35.000  
E30  24635596.397   129460987.356       -1038.605          26.000  
E34  24977301.040   131256522.817        -176.936          28.000  
G01  23121400.153   121503663.952        3518.797          43.000  
G02  21392187.063   112416640.756        2206.635          44.000  
G07  20836737.293   109497722.879         923.109          39.000  
G08  20056744.770   105398746.486       -1102.647          42.000  
G16  24101932.245   126656386.023       -2886.824          28.000  
G27  22146149.805   116378659.785       -2994.297          38.000  
G30  22603560.546   118782402.936        2670.480          25.000  
J02  39248098.373   206250093.879         296.570          31.000  
J03  38062606.272   200020196.843         -77.902          45.000  
> 2025 03 17 03 00 42.9996738  0 26                     
C01  38323064.470   199558316.717          32.465          33.000  
C02  38362354.070   199762685.705         -26.561          33.000  
C03  37396630.526   194733900.662          41.715          34.000  
C06  36194576.691   188474540.854        -763.240          31.000  
C07  36165920.729   188325317.985         223.414          32.000  
C09  36188475.615   188442739.682        -162.476          31.000  
C10  37238666.583   193911432.811         325.632          38.000  
C16  36563542.961   190395794.019        -861.739          41.000  
C26  21873994.324   113903598.260         933.926          38.000  
C29  23310072.448   121381439.006       -2263.765          41.000  
C35  21717680.737   113089643.997        1081.261          32.000  
C40  36044826.461   187694857.275          45.484          36.000  
C45  23056721.739   120062273.007       -2016.612          46.000  
E15  25050102.950   131639147.968        2448.675          33.000  
E27  24082071.004   126552040.980        1000.705          38.000  
E30  24635792.471   129462010.512       -1037.151          29.000  
E34  24977322.634   131256683.347        -174.466          29.000  
G01  23120728.927   121500134.820        3515.011          44.000  
G02  21391768.262   112414423.038        2204.076          46.000  
G07  20836562.823   109496788.057         921.720          37.000  
G08  20056951.337   105399836.820       -1103.287          40.000  
G16  24102481.474   126659257.207       -2880.622          28.000  
G27  22146720.020   116381640.673       -2997.111          39.000  
G30  22603048.210   118779722.634        2664.325          32.000  
J02  39248045.019   206249782.773         299.926          28.000  
J03  38062620.071   200020261.731         -77.923          47.000  
> 2025 03 17 03 00 43.9996127  0 26                     
C01  38323057.434   199558269.040          35.577          34.000  
C02  38362357.227   199762697.611         -25.753          33.000  
C03  37396620.493   194733845.553          41.902          34.000  
C06  36194727.046   188475289.067        -763.932          32.000  
C07  36165878.917   188325083.738         221.034          30.000  
C09  36188501.556   188442889.193        -165.131          28.000  
C10  37238602.286   193911094.408         326.816          39.000  
C16  36563709.205   190396641.512        -861.283          41.000  
C26  21873813.408   113902651.290         934.392          40.000  
C29  23310508.505   121383689.105       -2264.022          40.000  
C35  21717471.042   113088550.082        1080.693          31.000  
C40  36044817.926   187694799.063          45.480          36.000  
C45  23057103.534   120064276.199       -2017.045          46.000  
E15  25049633.634   131636685.989        2448.801          32.000  
E27  24081875.399   126551026.681        1001.060          42.000  
E30  24635987.195   129463031.897       -1035.760          26.000  
E34  24977346.177   131256844.000        -174.680          29.000  
G01  23120057.851   121496607.067        3514.479          44.000  
G02  21391349.012   112412205.388        2205.166          47.000  
G07  20836384.006   109495853.468         922.740          39.000  
G08  20057158.952   105400925.069       -1100.785          40.000  
G16  24103031.753   126662120.846       -2877.163          24.000  
G27  22147290.984   116384623.832       -2997.042          38.000  
G30  22602546.817   118777045.743        2665.529          34.000  
J02  39247987.318   206249469.100         300.467          25.000  
J03  38062634.021   200020323.733         -75.055          47.000  
> 2025 03 17 03 00 44.9995516  0 26                     
C01  38323050.276   199558217.843          37.252          44.000  
C02  38362359.663   199762707.325         -24.101          33.000  
C03  37396611.536   194733792.070          40.152          34.000  
C06  36194873.682   188476037.507        -761.807          32.000  
C07  36165833.986   188324847.966         223.195          30.000  
C09  36188527.376   188443039.737        -163.406          28.000  
C10  37238540.567   193910754.590         325.825          39.000  
C16  36563872.630   190397487.069        -860.342          41.000  
C26  21873633.570   113901702.015         934.617          41.000  
C29  23310940.544   121385935.322       -2261.164          41.000  
C35  21717263.623   113087454.193        1082.197          31.000  
C40  36044804.173   187694738.526          47.841          37.000  
C45  23057486.706   120066276.665       -2014.623          46.000  
E15  25049164.496   131634222.142        2450.091          32.000  
E27  24081684.169   126550010.056        1002.377          43.000  
E30  24636191.092   129464052.403       -1034.504          28.000  
E34  24977377.693   131257003.680        -175.577          30.000  
G01  23119386.354   121493076.289        3517.141          44.000  
G02  21390928.140   112409986.360        2204.250          47.000  
G07  20836206.566   109494917.936         920.291          40.000  
G08  20057365.547   105402011.962       -1104.398          40.000  
G16  24103585.207   126664985.049       -2879.634          22.000  
G27  22147861.526   116387604.029       -2995.994          38.000  
G30  22602045.302   118774365.141        2666.503          35.000  
J02  39247932.194   206249154.871         300.118          24.000  
J03  38062646.950   200020386.021         -77.726          48.000  
> 2025 03 17 03 00 45.9994905  0 26                     
C01  38323042.023   199558165.578          36.419          40.000  
C02  38362361.902   199762714.209         -23.379          32.000  
C03  37396601.484   194733734.795          42.224          34.000  
C06  36195019.222   188476784.393        -764.363          33.000  
C07  36165791.856   188324611.432         219.837          31.000  
C09  36188556.596   188443186.552        -165.066          28.000  
C10  37238477.151   193910415.445         323.725          40.000  
C16  36564036.157   190398334.495        -864.062          41.000  
C26  21873450.838   113900753.439         932.491          40.000  
C29  23311375.683   121388449.598       -2264.954          42.000  
C35  21717054.808   113086358.147        1078.730          32.000  
C40  36044794.121   187694677.894          44.110          37.000  
C45  23057872.679   120068276.497       -2018.535          46.000  
E15  25048696.960   131631758.949        2447.262          31.000  
E27  24081490.943   126548994.896        1000.357          43.000  
E30  24636389.695   129465071.606       -1036.458          29.000  
E34  24977411.111   131257165.189        -176.463          31.000  
G01  23118715.259   121489546.196        3513.541          44.000  
G02  21390508.871   112407768.349        2201.709          47.000  
G07  20836030.729   109493983.965         917.884          41.000  
G08  20057574.343   105403102.571       -1105.359          40.000  
G16  24104141.163   126668115.837       -2881.384          22.000  
G27  22148430.373   116390583.459       -2998.580          37.000  
G30  22601539.392   118771684.909        2663.248          37.000  
J02  39247875.074   206248839.896         299.752          21.000  
J03  38062660.881   200020449.067         -79.131          48.000  
> 2025 03 17 03 00 47.0004294  0 26                     
C01  38323052.216   199558211.136          38.281          38.000  
C02  38362383.787   199762820.350         -24.570          33.000  
C03  37396609.878   194733775.999          41.277          34.000  
C06  36195183.508   188477632.458        -764.566          33.000  
C07  36165767.573   188324474.652         219.380          31.000  
C09  36188602.764   188443436.275        -167.457          28.000  
C10  37238430.983   193910173.596         325.455          40.000  
C16  36564220.230   190399279.948        -862.665          41.000  
C26  21873291.948   113899902.627         933.644          41.000  
C29  23311828.370   121390798.467       -2263.711          41.000  
C35  21716868.637   113085361.574        1079.384          33.000  
C40  36044802.815   187694716.422          44.747          37.000  
C45  23058278.299   120070378.473       -2016.694          46.000  
E15  25048252.368   131629394.162        2446.244          32.000  
E27  24081320.062   126548077.809        1000.048          43.000  
E30  24636609.443   129466190.525       -1036.332          29.000  
E34  24977456.379   131257425.746        -177.790          30.000  
G01  23118062.911   121486112.502        3514.454          44.000  
G02  21390107.449   112405647.407        2203.731          47.000  
G07  20835872.738   109493147.648         920.720          41.000  
G08  20057800.386   105404290.886       -1103.975          39.000  
G16  24104717.664   126671083.046       -2883.951          22.000  
G27  22149018.866   116393666.924       -2996.894          37.000  
G30  22601051.030   118769102.677        2664.786          37.000  
J02  39247838.200   206248624.659         298.003          21.000  
J03  38062693.258   200020611.098         -76.981          48.000  
> 2025 03 17 03 00 48.0003683  0 26                     
C01  38323043.231   199558158.060          35.474          37.000  
C02  38362386.794   199762828.112         -21.172          33.000  
C03  37396601.793   194733719.243          41.219          34.000  
C06  36195331.315   188478381.444        -763.031          33.000  
C07  36165722.613   188324238.619         222.467          31.000  
C09  36188634.252   188443586.763        -164.353          28.000  
C10  37238365.938   193909832.627         325.385          40.000  
C16  36564385.724   190400126.819        -860.561          41.000  
C26  21873109.383   113898954.581         931.408          40.000  
C29  23312260.080   121393044.027       -2262.465          41.000  
C35  21716662.389   113084266.601        1079.043          33.000  
C40  36044795.030   187694655.717          46.734          37.000  
C45  23058664.740   120072377.154       -2015.785          46.000  
E15  25047784.402   131626932.472        2447.391          32.000  
E27  24081128.204   126547061.846        1000.763          43.000  
E30  24636810.013   129467211.281       -1036.616          29.000  
E34  24977492.664   131257585.548        -176.770          28.000  
G01  23117393.184   121482582.379        3516.152          44.000  
G02  21389687.449   112403429.420        2201.102          47.000  
G07  20835695.570   109492213.018         917.764          41.000  
G08  20058007.552   105405378.914       -1106.258          39.000  
G16  24105271.390   126673951.644       -2885.551          21.000  
G27  22149589.980   116396648.665       -2997.285          38.000  
G30  22600543.791   118766422.631        2664.836          36.000  
J02  39247780.649   206248310.8161        298.367          17.000  
J03  38062706.459   200020672.070         -78.672          48.000  
> 2025 03 17 03 00 49.0003073  0 26                     
C01  38323065.425   199558264.999          38.199          36.000  
C02  38362419.181   199762993.839         -25.088          33.000  
C03  37396621.289   194733821.859          43.277          34.000  
C06  36195502.506   188479286.812        -763.183          33.000  
C07  36165708.232   188324160.555         222.353          30.000  
C09  36188696.318   188443895.969        -165.516          28.000  
C10  37238332.370   193909651.322         324.809          39.000  
C16  36564578.800   190401131.447        -861.950          41.000  
C26  21872956.798   113898166.987         931.618          39.000  
C29  23312720.870   121395450.977       -2263.828          42.000  
C35  21716484.322   113083332.207        1077.774          34.000  
C40  36044814.525   187694753.590          45.913          37.000  
C45  23059082.960   120074538.493       -2017.142          46.000  
E15  25047341.617   131624630.768        2446.082          31.000  
E27  24080967.225   126546206.386        1000.273          43.000  
E30  24637037.865   129468390.856       -1036.625          30.000  
E34  24977551.432   131257906.604        -178.258          27.000  
G01  23116752.536   121479212.899        3515.104          44.000  
G02  21389297.129   112401373.631        2200.825          47.000  
G07  20835549.580   109491441.254         916.457          41.000  
G08  20058247.695   105406628.544       -1106.548          39.000  
G16  24105852.697   126676981.3071      -2887.480          15.000  
G27  22150190.174   116399788.999       -2998.091          38.000  
G30  22600064.132   118763903.419        2664.195          37.000  
J02  39247756.675   206248157.5781        298.541          19.000  
J03  38062750.537   200020895.305         -78.708          48.000  
> 2025 03 17 03 00 50.0002462  0 26                     
C01  38323057.134   199558212.310          37.294          36.000  
C02  38362421.982   199763003.543         -27.218          33.000  
C03  37396610.899   194733763.102          43.156          34.000  
C06  36195648.009   188480035.902        -765.068          31.000  
C07  36165664.566   188323924.879         220.876          31.000  
C09  36188725.501   188444044.444        -164.197          28.000  
C10  37238270.416   193909312.128         325.278          39.000  
C16  36564743.189   190401978.228        -862.394          42.000  
C26  21872776.426   113897219.853         931.441          40.000  
C29  23313154.174   121397699.210       -2263.790          42.000  
C35  21716273.971   113082239.193        1078.469          34.000  
C40  36044799.939   187694693.745          45.341          37.000  
C45  23059468.896   120076539.550       -2017.210          46.000  
E15  25046875.243   131622169.486        2447.113          30.000  
E27  24080774.561   126545190.836        1000.345          43.000  
E30  24637232.233   129469411.962       -1035.572          31.000  
E34  24977580.915   131258070.645        -178.794          27.000  
G01  23116081.704   121475682.727        3515.167          44.000  
G02  21388876.623   112399157.297        2200.890          47.000  
G07  20835372.806   109490508.877         917.404          41.000  
G08  20058457.353   105407721.064       -1105.986          40.000  
G16  24106404.418   126679852.8461      -2887.800          16.000  
G27  22150759.882   116402771.982       -2997.872          38.000  
G30  22599556.387   118761224.095        2664.205          36.000  
J02  39247696.819   206247843.877         298.300          21.000  
J03  38062764.131   200020957.850         -78.380          48.000  
> 2025 03 17 03 00 51.0001851  0 26                     
C01  38323048.393   199558164.062          36.055          36.000  
C02  38362426.133   199763018.331         -24.589          33.000  
C03  37396602.458   194733709.156          43.156          34.000  
C06  36195794.860   188480788.240        -765.294          32.000  
C07  36165625.546   188323691.762         220.691          31.000  
C09  36188752.136   188444196.205        -164.062          28.000  
C10  37238205.914   193908975.311         326.501          40.000  
C16  36564907.729   190402827.180        -862.633          42.000  
C26  21872596.204   113896277.313         931.115          40.000  
C29  23313587.627   121399950.212       -2265.166          42.000  
C35  21716067.067   113081149.939        1075.719          34.000  
C40  36044788.500   187694636.110          45.473          36.000  
C45  23059856.481   120078544.638       -2019.221          47.000  
E15  25046409.919   131619711.620        2445.705          30.000  
E27  24080582.647   126544178.606         999.730          43.000  
E30  24637430.050   129470435.200       -1037.830          30.000  
E34  24977614.445   131258235.364        -180.116          26.000  
G01  23115412.221   121472157.083        3513.187          44.000  
G02  21388457.167   112396945.651        2200.259          47.000  
G07  20835197.680   109489580.678         916.888          41.000  
G08  20058667.761   105408813.491       -1104.859          40.000  
G16  24106964.983   126682727.840       -2886.466          20.000  
G27  22151331.540   116406032.874       -2999.287          38.000  
G30  22599046.993   118758548.820        2661.693          35.000  
J02  39247639.512   206247533.0561        298.182          19.000  
J03  38062777.875   200021022.419         -77.446          48.000  
> 2025 03 17 03 00 52.0001240  0 26                     
C01  38323039.156   199558112.708          37.397          36.000  
C02  38362429.486   199763027.174         -25.136          33.000  
C03  37396592.921   194733653.259          42.064          34.000  
C06  36195943.314   188481536.918        -764.340          32.000  
C07  36165579.434   188323457.381         220.636          31.000  
C09  36188783.970   188444346.626        -166.049          28.000  
C10  37238140.016   193908635.621         325.080          40.000  
C16  36565070.572   190403674.260        -863.385          41.000  
C26  21872416.985   113895333.193         931.124          40.000  
C29  23314018.485   121402200.263       -2266.004          42.000  
C35  21715860.267   113080060.376        1077.941          35.000  
C40  36044778.963   187694576.992          44.566          37.000  
C45  23060243.270   120080547.273       -2019.493          47.000  
E15  25045943.498   131617252.095        2446.057          30.000  
E27  24080392.935   126543164.570        1000.050          43.000  
E30  24637617.476   129471456.713       -1036.988          30.000  
E34  24977657.671   131258402.393        -179.545          26.000  
G01  23114741.042   121468629.220        3513.835          44.000  
G02  21388036.914   112394732.172        2200.644          47.000  
G07  20835022.058   109488650.824         916.524          41.000  
G08  20058876.772   105409906.136       -1106.531          40.000  
G16  24107512.160   126685597.308       -2884.894          21.000  
G27  22151899.403   116409015.570       -2998.540          38.000  
G30  22598539.500   118755873.738        2661.678          36.000  
J02  39247580.809   206247220.9341        298.464          19.000  
J03  38062791.122   200021085.756         -76.974          47.000  
> 2025 03 17 03 00 53.0000630  0 26                     
C01  38323059.607   199558214.510          37.441          37.000  
C02  38362461.930   199763192.615         -25.137          33.000  
C03  37396613.073   194733751.989          39.241          34.000  
C06  36196118.158   188482442.416        -768.010          32.000  
C07  36165565.110   188323377.293         219.119          31.000  
C09  36188846.992   188444652.240        -166.956          28.000  
C10  37238106.804   193908452.357         322.261          40.000  
C16  36565264.603   190404679.099        -865.842          42.000  
C26  21872266.554   113894543.488         927.927          40.000  
C29  23314480.830   121404606.827       -2267.860          41.000  
C35  21715682.255   113079123.780        1075.359          34.000  
C40  36044797.615   187694673.144          42.630          36.000  
C45  23060659.747   120082706.771       -2020.951          47.000  
E15  25045508.864   131614948.518        2443.487          30.000  
E27  24080229.014   126542307.925         997.658          44.000  
E30  24637837.589   129472635.900       -1040.322          31.000  
E34  24977732.985   131258721.213        -183.491          27.000  
G01  23114100.750   121465258.221        3511.445          44.000  
G02  21387646.050   112392675.030        2196.622          47.000  
G07  20834875.525   109487877.153         913.063          41.000  
G08  20059115.772   105411155.944       -1111.361          40.000  
G16  24108090.526   126688622.1041      -2884.852          18.000  
G27  22152499.053   116412158.017       -3001.725          37.000  
G30  22598060.198   118753354.098        2659.448          36.000  
J02  39247552.394   206247063.2831        298.180          18.000  
J03  38062834.657   200021305.050         -81.311          48.000  
> 2025 03 17 03 00 54.0000019  0 26                     
C01  38323052.225   199558167.247          32.604          36.000  
C02  38362465.939   199763205.494         -25.157          34.000  
C03  37396603.892   194733702.282          36.223          34.000  
C06  36196263.070   188483196.409        -766.041          32.000  
C07  36165521.452   188323147.140         217.842          31.000  
C09  36188877.084   188444807.351        -166.895          28.000  
C10  37238044.860   193908117.652         323.563          40.000  
C16  36565428.702   190405530.780        -864.967          41.000  
C26  21872085.292   113893603.840         928.708          39.000  
C29  23314914.143   121406862.147       -2267.443          42.000  
C35  21715471.014   113078037.862        1073.976          34.000  
C40  36044788.134   187694618.577          42.974          36.000  
C45  23061047.191   120084714.488       -2021.027          47.000  
E15  25045041.301   131612495.140        2442.732          29.000  
E27  24080039.058   126541298.682         997.615          44.000  
E30  24638042.160   129473662.769       -1039.463          31.000  
E34  24977781.064   131258892.768        -183.039          28.000  
G01  23113431.126   121461735.117        3511.756          44.000  
G02  21387226.753   112390466.434        2197.475          46.000  
G07  20834700.559   109486952.997         912.811          41.000  
G08  20059324.840   105412251.014       -1109.195          40.000  
G16  24108643.455   126691775.647       -2886.992          21.000  
G27  22153069.971   116415144.513       -2998.696          37.000  
G30  22597552.462   118750683.007        2659.391          35.000  
J02  39247493.448   206246753.4061        297.843          10.000  
J03  38062848.860   200021374.914         -80.036          48.000  
> 2025 03 17 03 00 54.9999408  0 25                     
C01  38323045.105   199558121.383          34.752          36.000  
C02  38362468.413   199763218.388         -25.940          34.000  
C03  37396595.572   194733652.453          39.859          35.000  
C06  36196404.048   188483949.671        -763.610          32.000  
C07  36165475.659   188322916.645         220.300          31.000  
C09  36188909.536   188444960.806        -166.061          29.000  
C10  37237980.779   193907782.167         325.448          40.000  
C16  36565593.963   190406642.786        -863.280          41.000  
C26  21871904.293   113892663.615         928.849          39.000  
C29  23315347.718   121409115.894       -2266.446          42.000  
C35  21715260.935   113076952.008        1074.212          34.000  
C40  36044778.016   187694562.720          45.722          36.000  
C45  23061434.598   120086722.735       -2019.537          47.000  
E15  25044574.898   131610040.406        2443.107          28.000  
E27  24079844.567   126540287.994         998.705          43.000  
E30  24638240.998   129474687.944       -1039.149          30.000  
E34  24977816.215   131259062.426        -182.879          28.000  
G01  23112760.566   121458211.174        3513.568          44.000  
G02  21386806.219   112388257.695        2196.673          46.000  
G07  20834524.955   109486027.928         913.484          41.000  
G08  20059534.770   105413348.132       -1109.195          40.000  
G16  24109190.352   126694650.857       -2887.777          22.000  
G27  22153639.651   116418131.599       -3000.534          37.000  
G30  22597043.789   118748011.379        2659.782          35.000  
J03  38062863.025   200021441.423         -79.430          48.000  
> 2025 03 17 03 00 55.9998797  0 25                     
C01  38323037.704   199558072.736          33.075          36.000  
C02  38362472.404   199763230.442         -27.070          34.000  
C03  37396587.872   194733599.661          37.702          34.000  
C06  36196553.438   188484700.774        -768.684          31.000  
C07  36165433.182   188322683.337         217.070          32.000  
C09  36188941.108   188445115.625        -170.022          29.000  
C10  37237916.418   193907445.541         321.269          40.000  
C16  36565758.942   190407494.672        -867.580          41.000  
C26  21871723.611   113891722.317         924.725          39.000  
C29  23315780.712   121411370.517       -2272.422          42.000  
C35  21715051.174   113075865.080        1071.377          33.000  
C40  36044770.016   187694505.372          41.235          36.000  
C45  23061822.023   120088729.929       -2025.734          47.000  
E07  27456445.789   144284595.9961      -2812.877          37.000  
E27  24079653.693   126539277.326         996.738          43.000  
E30  24638432.958   129475713.635       -1040.117          29.000  
E34  24977855.881   131259518.465        -183.634          27.000  
G01  23112090.923   121454686.199        3507.222          44.000  
G02  21386386.004   112386048.042        2194.009          46.000  
G07  20834349.371   109485101.844         910.757          41.000  
G08  20059743.819   105414444.814       -1112.245          40.000  
G16  24109662.918   126697132.914       -2888.511          24.000  
G27  22154209.051   116421119.019       -3004.678          37.000  
G30  22596534.835   118745339.080        2656.504          36.000  
J03  38062876.609   200021508.034         -81.233          48.000  
> 2025 03 17 03 00 56.9998186  0 25                     
C01  38323030.209   199558026.620          29.767          36.000  
C02  38362476.001   199763245.174         -30.898          33.000  
C03  37396579.777   194733548.264          36.059          34.000  
C06  36196699.137   188485459.574        -776.719          32.000  
C07  36165389.413   188322454.660         211.045          31.000  
C09  36188974.085   188445273.325        -176.372          29.000  
C10  37237852.862   193907114.193         313.450          40.000  
C16  36565922.629   190408350.617        -874.705          41.000  
C26  21871543.736   113890786.244         918.256          38.000  
C29  23316215.111   121413627.844       -2277.278          41.000  
C35  21714839.820   113074782.636        1064.770          33.000  
C40  36044760.122   187694453.369          35.163          36.000  
C45  23062210.854   120090742.122       -2030.797          47.000  
E07  27456980.618   144287396.547       -2817.096          37.000  
E27  24079463.025   126538270.770         992.473          43.000  
E30  24638621.528   129476740.633       -1044.562          27.000  
E34  24977888.858   131259688.150        -187.733          24.000  
G01  23111422.686   121451166.078        3502.502          44.000  
G02  21385966.294   112383843.332        2186.459          45.000  
G07  20834176.091   109484181.354         902.264          40.000  
G08  20059953.973   105415545.401       -1120.434          39.000  
G16  24110214.836   126700007.817       -2891.581          24.000  
G27  22154778.956   116424107.984       -3009.835          37.000  
G30  22596028.785   118742670.507        2650.523          36.000  
J03  38062891.599   200021845.234         -90.054          47.000  
> 2025 03 17 03 00 57.9997576  0 25                     
C01  38323054.174   199558144.179          20.627          36.000  
C02  38362512.257   199763419.547         -37.389          33.000  
C03  37396600.444   194733658.982          31.413          34.000  
C06  36196874.797   188486377.121        -777.349          32.000  
C07  36165378.301   188322387.708         206.967          31.000  
C09  36189038.222   188445593.621        -179.202          30.000  
C10  37237821.964   193906942.997         313.841          40.000  
C16  36566118.375   190409367.701        -875.221          41.000  
C26  21871399.217   113890010.834         918.082          39.000  
C29  23316679.471   121416048.257       -2278.019          42.000  
C35  21714665.022   113073861.787        1061.624          33.000  
C40  36044782.588   187694562.074          33.460          36.000  
C45  23062629.346   120092915.000       -2031.462          47.000  
E07  27457544.210   144290359.585       -2820.134          37.000  
E27  24079303.817   126537426.034         988.788          44.000  
E30  24638850.251   129477929.810       -1049.584          28.000  
E34  24977949.397   131260022.030        -192.714          26.000  
G01  23110785.008   121447808.423        3501.856          44.000  
G02  21385578.044   112381801.387        2186.026          45.000  
G07  20834033.371   109483423.328         901.812          40.000  
G08  20060195.288   105416808.533       -1120.226          40.000  
G16  24110800.012   126703047.394       -2897.073          25.000  
G27  22155379.422   116427262.696       -3010.837          37.000  
G30  22595553.895   118740436.939        2647.805          36.000  
J03  38062937.748   200022078.746         -89.775          47.000  
> 2025 03 17 03 00 58.9996965  0 26                     
C01  38323048.421   199558105.993          24.774          36.000  
C02  38362517.597   199763438.551         -33.373          33.000  
C03  37396592.293   194733611.907          31.623          34.000  
C06  36197020.740   188487135.588        -770.037          32.000  
C07  36165336.274   188322162.038         214.721          32.000  
C09  36189068.745   188445750.687        -171.735          30.000  
C10  37237761.050   193906609.752         321.539          40.000  
C16  36566284.404   190410221.368        -867.126          41.000  
C26  21871223.782   113889073.844         924.866          39.000  
C29  23317113.214   121418304.885       -2270.250          42.000  
C35  21714455.411   113072782.039        1069.038          33.000  
C40  36044772.639   187694509.810          40.072          36.000  
C45  23063016.322   120094926.204       -2023.928          47.000  
E07  27458076.885   144293160.580       -2816.940          38.000  
E27  24079114.292   126536418.229         992.403          44.000  
E30  24639052.854   129478961.352       -1045.330          25.000  
E34  24977976.322   131260197.795        -189.923          25.000  
G01  23110115.516   121444287.055        3509.568          44.000  
G02  21385158.578   112379596.325        2193.483          45.000  
G07  20833860.934   109482502.419         909.894          41.000  
G08  20060407.185   105417909.848       -1113.269          40.000  
G16  24111352.773   126705925.763       -2895.630          22.000  
G27  22155949.571   116430252.945       -3002.698          37.000  
G30  22595046.890   118737769.662        2656.167          36.000  
J02  39247608.362   206247573.8821        190.163          22.000  
J03  38062952.082   200022147.479         -81.924          47.000  
> 2025 03 17 03 00 59.9996354  0 26                     
C01  38323041.076   199558062.773          32.477          36.000  
C02  38362521.645   199763716.416         -26.961          33.000  
C03  37396583.450   194733563.597          37.770          34.000  
C06  36197166.289   188487888.283        -765.454          32.000  
C07  36165293.854   188321930.359         221.085          32.000  
C09  36189098.274   188445905.481        -165.687          30.000  
C10  37237698.843   193906273.436         324.003          40.000  
C16  36566450.339   190411073.424        -865.058          41.000  
C26  21871043.457   113888133.978         927.770          39.000  
C29  23317547.463   121420559.705       -2268.533          42.000  
C35  21714242.708   113071696.531        1074.346          33.000  
C40  36044762.296   187694453.086          45.785          36.000  
C45  23063403.504   120096935.472       -2021.948          47.000  
E07  27458611.564   144295958.196       -2812.434          38.000  
E27  24078924.073   126535407.687         996.788          44.000  
E30  24639250.567   129479990.842       -1040.984          26.000  
E34  24978003.753   131260372.250        -186.435          25.000  
G01  23109445.929   121440762.958        3511.718          44.000  
G02  21384739.319   112377388.546        2194.988          45.000  
G07  20833686.904   109481578.303         910.853          41.000  
G08  20060616.890   105419007.430       -1111.081          40.000  
G16  24111904.541   126708801.788       -2888.524          25.000  
G27  22156519.626   116433238.013       -2999.198          37.000  
G30  22594539.192   118735097.977        2659.071          37.000  
J02  39247566.241   206247369.0741        191.354          17.000  
J03  38062965.723   200022212.914         -79.527          47.000  
> 2025 03 17 03 01 00.9995743  0 26                     
C01  38323030.921   199558015.344          36.192          36.000  
C02  38362524.380   199763728.577         -22.058          33.000  
C03  37396575.393   194733780.878          40.274          34.000  
C06  36197312.025   188488901.934        -764.164          32.000  
C07  36165251.920   188321957.128         223.126          32.000  
C09  36189132.788   188446055.360        -164.803          31.000  
C10  37237633.826   193905934.811         325.638          40.000  
C16  36566614.962   190411922.559        -863.593          41.000  
C26  21870866.018   113887191.727         928.981          39.000  
C29  23317982.200   121422813.350       -2267.492          42.000  
C35  21714033.191   113070607.574        1075.190          33.000  
C40  36044754.839   187694393.194          45.806          36.000  
C45  23063789.674   120099204.755       -2020.663          47.000  
E07  27459145.232   144298751.806       -2809.928          37.000  
E27  24078731.944   126534394.543         999.097          44.000  
E30  24639445.770   129481016.213       -1038.495          27.000  
E34  24978024.177   131260541.829        -184.095          28.000  
G01  23108775.930   121437236.390        3513.166          44.000  
G02  21384319.047   112375179.063        2195.995          45.000  
G07  20833512.463   109480652.798         912.000          40.000  
G08  20060825.882   105420102.351       -1109.991          39.000  
G16  24112457.396   126711673.315       -2887.085          25.000  
G27  22157087.471   116436221.828       -2999.028          36.000  
G30  22594029.882   118732424.501        2660.346          37.000  
J02  39247529.704   206247162.7141        191.812          15.000  
J03  38062978.951   200022277.102         -78.045          47.000  
> 2025 03 17 03 01 01.9995132  0 25                     
C01  38323022.508   199557963.819          40.884          36.000  
C02  38362526.760   199763732.150         -16.896          33.000  
C03  37396565.481   194733722.675          48.525          34.000  
C06  36197458.006   188489652.332        -763.816          32.000  
C07  36165207.832   188321720.105         223.103          32.000  
C09  36189164.847   188446477.230        -165.054          30.000  
C10  37237570.851   193905594.368         328.439          40.000  
C16  36566779.530   190412770.366        -861.684          42.000  
C26  21870688.522   113886248.981         930.638          39.000  
C29  23318415.981   121425065.485       -2264.786          42.000  
C35  21713822.418   113069519.380        1074.706          33.000  
C40  36044742.528   187694333.653          47.134          36.000  
C45  23064175.488   120101211.407       -2018.948          47.000  
E07  27459677.345   144301544.580       -2807.851          37.000  
E27  24078540.058   126533380.423        1000.220          44.000  
E30  24639641.216   129482039.412       -1036.930          26.000  
E34  24978047.242   131260711.227        -180.172          28.000  
G01  23108105.276   121433708.630        3515.272          44.000  
G02  21383899.319   112372968.588        2197.613          45.000  
G07  20833337.665   109479726.347         913.044          41.000  
G08  20061035.419   105421197.169       -1108.467          39.000  
G16  24113013.792   126714545.959       -2884.418          25.000  
G27  22157656.758   116439205.942       -2996.926          36.000  
G30  22593520.216   118729750.194        2660.630          36.000  
J03  38062992.123   200022340.301         -76.089          47.000  
> 2025 03 17 03 01 02.9994522  0 25                     
C01  38323042.098   199558061.153          43.142          36.000  
C02  38362558.341   199763889.370         -19.194          33.000  
C03  37396584.471   194733816.109          48.062          34.000  
C06  36197627.791   188490555.028        -763.282          32.000  
C07  36165189.947   188321637.947         224.272          32.000  
C09  36189225.208   188446782.852        -163.475          30.000  
C10  37237536.777   193905407.182         328.222          40.000  
C16  36566973.598   190413770.932        -861.224          42.000  
C26  21870539.028   113885459.345         930.166          40.000  
C29  23318879.263   121427468.822       -2264.653          42.000  
C35  21713642.645   113068585.566        1075.081          33.000  
C40  36044762.718   187694426.554          49.111          36.000  
C45  23064591.703   120103369.105       -2018.245          47.000  
E07  27460241.358   144304493.451       -2806.888          37.000  
E27  24078378.273   126532520.895        1001.853          44.000  
E30  24639861.067   129483214.939       -1035.539          26.000  
E34  24978110.002   131261032.070        -181.839          27.000  
G01  23107464.123   121430335.695        3515.824          44.000  
G02  21383508.792   112370913.423        2197.630          45.000  
G07  20833192.369   109478955.428         914.077          41.000  
G08  20061274.756   105422710.374       -1107.746          40.000  
G16  24113596.392   126717569.972       -2881.809          27.000  
G27  22158254.047   116442342.852       -2996.389          36.000  
G30  22593040.951   118727231.067        2662.290          37.000  
J03  38063034.497   200022557.660         -75.424          47.000  
> 2025 03 17 03 01 04.0003910  0 25                     
C01  38323021.000   199557942.938          43.828          36.000  
C02  38362549.235   199763832.131         -15.813          33.000  
C03  37396561.574   194733692.212          47.578          35.000  
C06  36197765.284   188491242.946        -763.090          33.000  
C07  36165133.474   188321337.880         225.855          32.000  
C09  36189245.781   188446869.280        -162.678          31.000  
C10  37237460.817   193905004.010         328.422          40.000  
C16  36567125.181   190414557.748        -860.899          41.000  
C26  21870350.646   113884453.329         930.638          40.000  
C29  23319301.858   121429660.545       -2265.135          42.000  
C35  21713423.685   113067434.427        1074.243          32.000  
C40  36044741.620   187694302.928          47.885          36.000  
C45  23064966.931   120105313.577       -2018.445          47.000  
E07  27460762.285   144307225.165       -2806.328          37.000  
E27  24078173.702   126531441.908        1002.093          44.000  
E30  24640033.934   129484175.590       -1035.661          26.000  
E34  24978139.869   131261136.705        -182.239          27.000  
G01  23106782.282   121426740.998        3516.186          44.000  
G02  21383077.878   112368638.371        2197.367          44.000  
G07  20833004.886   109477965.207         913.518          41.000  
G08  20061471.307   105423744.609       -1109.040          39.000  
G16  24114135.906   126720377.812       -2881.081          27.000  
G27  22158809.750   116445267.255       -2997.831          35.000  
G30  22592516.501   118724490.862        2661.419          37.000  
J03  38063035.584   200022556.385         -75.079          47.000  
> 2025 03 17 03 01 05.0003300  0 25                     
C01  38323041.685   199558044.616          43.782          35.000  
C02  38362580.113   199763991.569         -13.033          33.000  
C03  37396581.360   194733792.043          43.758          34.000  
C06  36197941.861   188492148.442        -762.327          33.000  
C07  36165120.583   188321257.932         225.041          32.000  
C09  36189307.539   188447176.581        -163.301          31.000  
C10  37237427.241   193904819.576         329.730          40.000  
C16  36567318.247   190415561.762        -860.064          41.000  
C26  21870201.350   113883667.573         931.248          40.000  
C29  23319765.937   121432068.286       -2264.527          42.000  
C35  21713245.908   113066505.034        1075.874          32.000  
C40  36044760.207   187694399.431          49.583          36.000  
C45  23065383.043   120107476.222       -2017.769          47.000  
E07  27461325.595   144310175.291       -2805.425          37.000  
E27  24078010.915   126530585.360        1003.051          44.000  
E30  24640249.185   129485354.545       -1034.167          26.000  
E34  24978205.823   131261464.563        -181.155          28.000  
G01  23106142.226   121423370.936        3516.708          44.000  
G02  21382688.748   112366587.170        2197.616          44.000  
G07  20832859.786   109477197.689         913.875          40.000  
G08  20061711.141   105424996.242       -1107.571          39.000  
G16  24114715.405   126723684.482       -2881.035          27.000  
G27  22159404.838   116448407.245       -2995.714          35.000  
G30  22592036.534   118721975.763        2662.290          37.000  
J03  38063078.154   200022775.385         -74.060          47.000  
> 2025 03 17 03 01 06.0002689  0 25                     
C01  38323031.352   199557985.417          47.815          35.000  
C02  38362582.671   199763992.342         -16.162          33.000  
C03  37396572.526   194733735.328          44.333          34.000  
C06  36198088.619   188492896.344        -761.933          33.000  
C07  36165080.270   188321019.824         225.562          32.000  
C09  36189340.375   188447325.310        -163.031          31.000  
C10  37237361.146   193904477.092         329.339          40.000  
C16  36567482.393   190416408.785        -860.573          41.000  
C26  21870020.134   113882723.879         930.322          40.000  
C29  23320199.596   121434319.057       -2264.967          42.000  
C35  21713039.510   113065416.926        1074.565          33.000  
C40  36044749.573   187694336.946          49.061          36.000  
C45  23065769.035   120109479.580       -2018.712          47.000  
E07  27461857.586   144312965.838       -2805.230          37.000  
E27  24077818.907   126529569.593        1002.569          44.000  
E30  24640432.518   129486374.498       -1033.487          25.000  
E34  24978242.257   131261632.764        -182.129          28.000  
G01  23105472.349   121419841.991        3515.861          44.000  
G02  21382269.797   112364376.926        2196.818          44.000  
G07  20832684.267   109476271.949         912.207          40.000  
G08  20061922.654   105426091.221       -1108.522          40.000  
G16  24115268.082   126726550.706       -2881.752          28.000  
G27  22159970.106   116451388.807       -2996.221          35.000  
G30  22591525.846   118719300.635        2661.815          37.000  
J03  38063090.905   200022836.188         -74.876          47.000  
> 2025 03 17 03 01 07.0002078  0 25                     
C01  38323020.372   199557920.898          48.202          35.000  
C02  38362584.882   199763991.114         -17.408          33.000  
C03  37396562.745   194733674.574          45.699          35.000  
C06  36198232.332   188493640.457        -762.419          33.000  
C07  36165034.215   188320777.542         225.365          32.000  
C09  36189368.968   188447468.946        -163.290          31.000  
C10  37237296.503   193904131.211         328.992          40.000  
C16  36567645.892   190417250.667        -860.310          41.000  
C26  21869839.472   113881776.682         930.560          40.000  
C29  23320635.307   121436566.883       -2264.581          41.000  
C35  21712836.363   113064325.199        1075.106          33.000  
C40  36044736.795   187694271.656          48.926          36.000  
C45  23066153.781   120111479.815       -2018.226          47.000  
E07  27462389.830   144315753.253       -2804.834          37.000  
E27  24077626.253   126528550.152        1002.914          44.000  
E30  24640621.200   129487389.429       -1034.478          24.000  
E34  24978274.447   131261796.938        -182.007          28.000  
G01  23104801.526   121416309.194        3516.072          44.000  
G02  21381850.500   112362163.391        2196.989          44.000  
G07  20832508.701   109475342.475         912.810          39.000  
G08  20062130.823   105427182.175       -1109.456          39.000  
G16  24115817.114   126729415.797       -2881.816          28.000  
G27  22160535.627   116454367.477       -2995.985          35.000  
G30  22591014.513   118716622.019        2662.114          37.000  
J03  38063103.009   200022894.033         -74.270          47.000  
> 2025 03 17 03 01 08.0001467  0 25                     
C01  38323010.460   199557863.525          43.258          36.000  
C02  38362587.561   199763992.445         -16.364          33.000  
C03  37396552.833   194733614.815          47.557          34.000  
C06  36198375.914   188494390.258        -763.377          33.000  
C07  36164989.827   188320539.815         225.169          32.000  
C09  36189398.929   188447620.695        -165.342          31.000  
C10  37237232.029   193903790.189         328.119          40.000  
C16  36567809.860   190418097.949        -861.605          41.000  
C26  21869659.578   113880834.745         928.687          40.000  
C29  23321069.388   121438819.498       -2266.943          42.000  
C35  21712627.989   113063238.932        1072.964          33.000  
C40  36044725.984   187694210.434          48.880          36.000  
C45  23066540.494   120113484.862       -2020.214          47.000  
E07  27462921.643   144318546.037       -2805.798          37.000  
E27  24077433.768   126527535.271        1002.340          44.000  
E30  24640818.444   129488409.381       -1035.200          23.000  
E34  24978302.009   131261964.716        -183.880          29.000  
G01  23104131.771   121412781.683        3514.404          45.000  
G02  21381432.870   112359954.902        2195.215          44.000  
G07  20832331.205   109474418.295         911.201          39.000  
G08  20062342.158   105428278.859       -1109.806          40.000  
G16  24116369.013   126732284.937       -2883.812          28.000  
G27  22161103.715   116457350.470       -2997.788          35.000  
G30  22590506.946   118713949.250        2660.115          37.000  
J03  38063116.481   200022955.003         -76.171          47.000  
> 2025 03 17 03 01 09.0000857  0 24                     
C01  38323031.389   199557965.727          41.071          35.000  
C02  38362620.482   199764155.094         -19.726          33.000  
C03  37396574.062   194733712.597          43.975          35.000  
C06  36198550.037   188495296.545        -763.353          33.000  
C07  36164977.779   188320459.566         223.940          32.000  
C09  36189460.330   188447928.087        -164.296          31.000  
C10  37237199.895   193903870.659         328.539          40.000  
C16  36568004.069   190419102.689        -861.333          41.000  
C26  21869511.424   113880049.492         929.238          40.000  
C35  21712454.053   113062309.685        1072.619          34.000  
C40  36044747.812   187694305.987          47.428          36.000  
C45  23066957.150   120115647.432       -2019.194          47.000  
E07  27463482.798   144321495.926       -2805.457          37.000  
E27  24077272.123   126526678.210        1002.062          44.000  
E30  24641038.736   129489589.851       -1035.558          23.000  
E34  24978358.014   131262292.180        -183.979          29.000  
G01  23103491.957   121409411.731        3515.472          45.000  
G02  21381044.583   112357904.791        2195.175          44.000  
G07  20832184.251   109473652.482         910.563          39.000  
G08  20062582.835   105429533.804       -1110.327          40.000  
G16  24116949.055   126735311.137       -2883.267          28.000  
G27  22161700.546   116460492.402       -2997.140          34.000  
G30  22590029.320   118711434.273        2660.700          37.000  
J03  38063159.595   200023174.820         -74.836          47.000  
> 2025 03 17 03 01 10.0000246  0 24                     
C01  38323021.936   199557906.961          42.351          35.000  
C02  38362622.721   199764157.204         -21.324          33.000  
C03  37396564.610   194733653.677          43.472          35.000  
C06  36198697.076   188496042.105        -762.840          33.000  
C07  36164930.852   188320218.129         225.825          32.000  
C09  36189489.550   188448075.083        -162.996          31.000  
C10  37237134.980   193903525.617         328.447          40.000  
C16  36568165.798   190419946.185        -861.722          41.000  
C26  21869330.490   113879103.882         928.422          40.000  
C35  21712252.733   113061220.576        1073.204          34.000  
C40  36044739.858   187694241.281          48.518          37.000  
C45  23067342.823   120117650.661       -2019.890          47.000  
E07  27464012.972   144324281.809       -2805.015          37.000  
E27  24077080.397   126525659.291        1002.321          44.000  
E30  24641230.444   129490607.044       -1035.025          22.000  
E34  24978388.134   131262458.595        -183.781          28.000  
G01  23102821.762   121406147.118        3514.584          45.000  
G02  21380625.314   112355693.095        2194.824          44.000  
G07  20832006.614   109472724.464         911.016          38.000  
G08  20062793.430   105430625.991       -1110.784          41.000  
G16  24117499.015   126738176.965       -2882.333          28.000  
G27  22162268.193   116463470.612       -2997.353          34.000  
G30  22589522.511   118708756.820        2660.270          38.000  
J03  38063172.027   200023232.341         -75.409          47.000  
> 2025 03 17 03 01 10.9999635  0 24                     
C01  38323012.718   199557849.889          43.354          36.000  
C02  38362625.794   199764163.541         -20.966          33.000  
C03  37396555.091   194733598.001          43.388          35.000  
C06  36198844.049   188496790.321        -762.840          32.000  
C07  36164887.457   188319978.709         225.097          33.000  
C09  36189518.705   188448222.996        -164.376          31.000  
C10  37237070.300   193903183.855         328.902          40.000  
C16  36568328.960   190420793.546        -860.992          41.000  
C26  21869151.889   113878162.482         928.537          41.000  
C35  21712042.653   113060133.703        1073.479          34.000  
C40  36044729.141   187694179.259          49.145          37.000  
C45  23067729.031   120119655.758       -2019.535          47.000  
E07  27464545.478   144327071.711       -2805.038          37.000  
E27  24076888.005   126524643.638        1002.247          44.000  
E30  24641426.883   129491627.286       -1035.549          23.000  
E34  24978421.186   131262629.416        -185.265          28.000  
G01  23102151.501   121402618.755        3515.586          45.000  
G02  21380206.578   112353485.207        2194.375          44.000  
G07  20831830.711   109471801.013         910.241          38.000  
G08  20063006.357   105431722.034       -1111.068          41.000  
G16  24118047.711   126741043.804       -2881.489          28.000  
G27  22162831.279   116466453.816       -2998.327          34.000  
G30  22589016.237   118706083.373        2659.746          37.000  
J03  38063184.993   200023292.105         -74.519          47.000  
> 2025 03 17 03 01 11.9999025  0 25                     
C01  38323033.769   199557949.002          41.475          35.000  
C02  38362658.537   199764325.228         -21.012          33.000  
C03  37396575.243   194733696.288          45.090          34.000  
C06  36199019.194   188497695.086        -762.285          33.000  
C07  36164874.032   188319897.304         223.711          33.000  
C09  36189579.628   188448529.876        -163.564          31.000  
C10  37237037.688   193902997.323         329.541          40.000  
C16  36568524.191   190421795.669        -861.207          41.000  
C26  21869002.058   113877376.356         929.036          40.000  
C35  21711867.340   113059203.896        1071.882          34.000  
C40  36044745.695   187694272.617          49.375          37.000  
C45  23068144.309   120121817.212       -2020.048          47.000  
E07  27465112.152   144330019.716       -2805.106          37.000  
E27  24076725.583   126523785.344        1002.182          44.000  
E30  24641652.392   129492804.552       -1035.234          22.000  
E34  24978477.313   131262956.717        -186.007          27.000  
G01  23101511.809   121399247.538        3515.653          45.000  
G02  21379818.413   112351703.992        2194.436          44.000  
G07  20831684.778   109471034.686         910.389          38.000  
G08  20063247.456   105432975.902       -1110.913          41.000  
G16  24118627.874   126744070.169       -2883.642          27.000  
G27  22163428.531   116469594.919       -2996.347          33.000  
G30  22588540.532   118703568.213        2659.201          38.000  
J02  39246526.748   206241889.5071        285.876          16.000  
J03  38063227.629   200023509.999         -74.447          47.000  
> 2025 03 17 03 01 12.9998414  0 25                     
C01  38323024.288   199557895.779          37.968          36.000  
C02  38362661.048   199764332.732         -21.694          32.000  
C03  37396565.762   194733638.564          40.650          35.000  
C06  36199165.605   188498445.752        -767.886          33.000  
C07  36164831.574   188319660.985         221.200          33.000  
C09  36189612.118   188448679.705        -168.587          31.000  
C10  37236972.746   193902657.601         322.237          40.000  
C16  36568687.690   190422646.886        -867.881          41.000  
C26  21868823.794   113876703.567         921.135          41.000  
C35  21711659.996   113058120.635        1066.477          34.000  
C40  36044736.214   187694212.673          43.380          37.000  
C45  23068531.454   120123825.913       -2026.967          47.000  
E07  27465643.796   144332813.563       -2808.336          37.000  
E27  24076533.528   126523037.642         999.023          44.000  
E30  24641849.768   129493826.365       -1038.584          20.000  
E34  24978522.994   131263129.409        -187.946          27.000  
G01  23100842.185   121395721.656        3508.303          45.000  
G02  21379400.015   112349499.388        2187.105          44.000  
G07  20831511.011   109470114.882         902.601          38.000  
G08  20063458.922   105434075.400       -1118.248          41.000  
G16  24119180.504   126746939.170       -2886.832          26.000  
G27  22163995.551   116472576.830       -3002.313          33.000  
G30  22588035.794   118700897.596        2653.554          37.000  
J02  39246472.298   206241588.9211        288.298          16.000  
J03  38063241.232   200023573.621         -81.465          47.000  
> 2025 03 17 03 01 13.9997803  0 25                     
C01  38323015.641   199557844.633          36.069          36.000  
C02  38362663.793   199764336.481         -21.662          33.000  
C03  37396555.916   194733582.952          42.146          35.000  
C06  36199311.051   188499197.984        -770.127          33.000  
C07  36164788.151   188319426.327         218.995          33.000  
C09  36189644.543   188448834.802        -169.710          31.000  
C10  37236909.536   193902319.249         324.485          40.000  
C16  36568851.423   190423497.044        -866.011          40.000  
C26  21868646.663   113875766.353         923.176          41.000  
C35  21711452.287   113057040.162        1064.949          34.000  
C40  36044725.468   187694154.874          42.908          37.000  
C45  23068919.132   120125834.969       -2025.574          47.000  
E07  27466173.276   144335606.543       -2809.789          37.000  
E27  24076340.509   126522025.569         997.203          44.000  
E30  24642044.080   129494848.548       -1040.322          22.000  
E34  24978559.616   131263303.190        -190.740          28.000  
G01  23100173.095   121392197.695        3509.747          45.000  
G02  21378981.851   112347296.797        2188.288          45.000  
G07  20831337.478   109469196.199         904.295          38.000  
G08  20063671.522   105435176.711       -1116.758          41.000  
G16  24119733.369   126749810.310       -2889.363          26.000  
G27  22164565.503   116475565.467       -3005.850          33.000  
G30  22587532.789   118698229.956        2652.678          37.000  
J02  39246419.881   206241284.5251        290.461          17.000  
J03  38063255.369   200023638.189         -79.803          47.000  
> 2025 03 17 03 01 14.9997192  0 25                     
C01  38323007.678   199557796.016          37.862          36.000  
C02  38362668.121   199764346.954         -22.226          33.000  
C03  37396547.053   194733530.282          40.206          35.000  
C06  36199461.078   188499955.812        -768.275          34.000  
C07  36164743.613   188319195.418         220.624          33.000  
C09  36189677.351   188448991.966        -169.445          30.000  
C10  37236846.711   193901983.509         324.276          40.000  
C16  36569017.040   190424351.313        -866.402          40.000  
C26  21868467.519   113874832.741         922.370          40.000  
C35  21711247.660   113055963.732        1065.782          35.000  
C40  36044716.905   187694100.633          42.990          37.000  
C45  23069306.895   120127847.873       -2025.978          47.000  
E07  27466711.235   144338403.460       -2809.973          37.000  
E27  24076151.171   126521017.477         996.593          45.000  
E30  24642239.676   129495876.603       -1041.159          22.000  
E34  24978595.122   131263482.292        -191.659          27.000  
G01  23099503.790   121388676.843        3509.827          44.000  
G02  21378564.671   112345097.584        2187.625          45.000  
G07  20831164.629   109468281.328         902.586          38.000  
G08  20063883.306   105436282.146       -1117.242          41.000  
G16  24120284.518   126752689.049       -2890.182          24.000  
G27  22165134.640   116478556.941       -3000.745          33.000  
G30  22587031.068   118695564.934        2654.524          37.000  
J02  39246364.251   206240981.1291        292.906          17.000  
J03  38063270.190   200023704.753         -79.739          47.000  
> 2025 03 17 03 01 15.9996582  0 25                     
C01  38323027.782   199557901.738          39.472          36.000  
C02  38362701.717   199764513.456         -22.458          33.000  
C03  37396568.657   194733633.445          40.966          35.000  
C06  36199635.276   188500865.306        -766.081          34.000  
C07  36164732.839   188319118.551         221.118          33.000  
C09  36189738.528   188449302.195        -167.795          30.000  
C10  37236812.554   193901802.507         325.865          40.000  
C16  36569211.324   190425359.798        -865.041          40.000  
C26  21868317.941   113874053.353         923.793          41.000  
C35  21711073.199   113055041.735        1066.433          35.000  
C40  36044734.312   187694199.361          46.906          37.000  
C45  23069724.225   120130017.256       -2024.421          46.000  
E07  27467274.564   144341356.787       -2808.696          37.000  
E27  24075989.602   126520164.529         998.074          44.000  
E30  24642472.034   129497061.549       -1037.978          21.000  
E34  24978673.986   131263818.275        -191.009          29.000  
G01  23098864.052   121385311.769        3511.485          44.000  
G02  21378176.459   112343054.862        2189.056          45.000  
G07  20831020.447   109467523.623         904.598          38.000  
G08  20064124.058   105437541.458       -1115.609          41.000  
G16  24120865.835   126756005.351       -2890.687          25.000  
G27  22165733.045   116481702.067       -3001.307          33.000  
G30  22586557.414   118693055.449        2655.489          37.000  
J02  39246337.289   206240831.7981        296.380          18.000  
J03  38063313.979   200023927.490         -78.170          47.000  
> 2025 03 17 03 01 16.9995971  0 25                     
C01  38323018.657   199557848.457          36.070          36.000  
C02  38362704.883   199764521.659         -27.851          33.000  
C03  37396558.333   194733574.802          41.757          35.000  
C06  36199778.746   188501614.657        -765.510          34.000  
C07  36164686.240   188318881.508         221.691          32.000  
C09  36189765.978   188449453.613        -167.442          32.000  
C10  37236747.967   193901461.116         325.221          40.000  
C16  36569373.980   190426209.579        -865.765          40.000  
C26  21868139.134   113873114.489         922.610          42.000  
C35  21710865.912   113053959.346        1066.531          36.000  
C40  36044725.787   187694138.026          45.713          37.000  
C45  23070109.926   120132025.560       -2025.324          46.000  
E07  27467808.963   144344149.407       -2808.058          36.000  
E27  24075798.803   126519150.790         998.758          45.000  
E30  24642670.366   129498083.508       -1038.750          22.000  
E34  24978719.124   131263991.594        -191.681          30.000  
G01  23098194.484   121381785.388        3510.338          44.000  
G02  21377757.817   112340850.812        2187.578          45.000  
G07  20830846.436   109466604.193         903.459          38.000  
G08  20064333.482   105438641.896       -1117.408          41.000  
G16  24121409.827   126758879.940       -2888.414          25.000  
G27  22166303.119   116484687.369       -3001.305          34.000  
G30  22586051.533   118690385.770        2653.431          37.000  
J02  39246281.696   206240519.036         299.974          21.000  
J03  38063326.738   200023990.286         -78.504          47.000  
> 2025 03 17 03 01 17.9995360  0 25                     
C01  38323010.394   199557795.243          39.199          36.000  
C02  38362707.713   199764534.769         -28.701          33.000  
C03  37396549.770   194733519.289          40.314          35.000  
C06  36199920.979   188502365.141        -768.921          33.000  
C07  36164639.304   188318646.101         220.302          32.000  
C09  36189795.189   188449606.659        -170.424          30.000  
C10  37236684.842   193901121.552         325.078          40.000  
C16  36569539.297   190427059.389        -865.783          40.000  
C26  21867958.490   113872177.799         921.173          41.000  
C35  21710657.987   113052879.833        1063.560          35.000  
C40  36044712.727   187694078.536          43.986          36.000  
C45  23070496.790   120134035.458       -2026.150          46.000  
E07  27468337.628   144346942.327       -2809.125          37.000  
E27  24075606.467   126518138.404         997.798          45.000  
E30  24642869.559   129499108.166       -1039.878          22.000  
E34  24978760.626   131264167.497        -191.880          29.000  
G01  23097525.179   121378260.828        3509.747          45.000  
G02  21377340.338   112338649.164        2186.308          45.000  
G07  20830672.988   109465687.237         901.422          38.000  
G08  20064542.569   105439743.821       -1118.340          41.000  
G16  24121956.180   126761749.854       -2886.468          26.000  
G27  22166873.755   116487672.648       -3003.218          33.000  
G30  22585542.017   118687718.524        2652.522          37.000  
J02  39246223.967   206240203.789         301.105          20.000  
J03  38063340.360   200024052.438         -79.491          47.000  
> 2025 03 17 03 01 18.9994749  0 25                     
C01  38323000.173   199557745.363          39.773          35.000  
C02  38362711.282   199764549.797         -27.270          33.000  
C03  37396541.048   194733466.916          43.527          35.000  
C06  36200068.149   188503121.995        -768.330          34.000  
C07  36164595.506   188318412.431         221.674          33.000  
C09  36189829.936   188449763.685        -168.444          30.000  
C10  37236622.457   193900783.836         325.754          40.000  
C16  36569702.056   190427911.617        -865.922          40.000  
C26  21867779.785   113871243.707         922.486          41.000  
C35  21710455.599   113051802.570        1065.940          35.000  
C40  36044705.804   187694022.284          44.427          36.000  
C45  23070885.593   120136047.827       -2024.997          46.000  
E07  27468870.931   144349737.647       -2808.668          37.000  
E27  24075415.471   126517127.931         997.921          45.000  
E30  24643070.991   129500134.238       -1039.817          23.000  
E34  24978786.680   131264347.261        -191.798          29.000  
G01  23096856.313   121374738.465        3511.053          45.000  
G02  21376922.999   112336450.149        2187.631          45.000  
G07  20830500.579   109464772.369         903.030          38.000  
G08  20064752.096   105440848.042       -1117.076          40.000  
G16  24122504.772   126764623.478       -2886.611          25.000  
G27  22167440.335   116490661.901       -3003.260          33.000  
G30  22585038.038   118685052.855        2654.746          37.000  
J02  39246165.479   206239889.8801        301.704          20.000  
J03  38063354.123   200024119.410         -78.473          47.000  
> 2025 03 17 03 01 20.0004138  0 25                     
C01  38323009.345   199557785.743          41.359          36.000  
C02  38362731.846   199764652.698         -20.865          33.000  
C03  37396548.721   194733503.281          46.062          35.000  
C06  36200235.011   188503967.892        -765.634          34.000  
C07  36164570.501   188318270.976         222.640          33.000  
C09  36189875.983   188450010.680        -166.581          29.000  
C10  37236576.167   193900537.596         327.999          40.000  
C16  36569885.108   190428856.949        -864.348          40.000  
C26  21867615.677   113870400.370         923.994          41.000  
C35  21710271.404   113051080.080        1067.451          35.000  
C40  36044714.676   187694056.895          47.466          37.000  
C45  23071290.790   120138154.759       -2023.914          46.000  
E07  27469423.326   144352626.254       -2806.429          37.000  
E27  24075241.470   126516209.559         998.968          45.000  
E30  24643298.112   129501255.689       -1038.800          25.000  
E34  24978832.427   131264619.520        -191.013          28.000  
G01  23096204.143   121371304.909        3512.726          45.000  
G02  21376522.954   112334341.596        2188.793          45.000  
G07  20830345.165   109463950.281         903.461          38.000  
G08  20064980.715   105442046.489       -1116.051          40.000  
G16  24123070.358   126767591.976       -2885.927          25.000  
G27  22168030.205   116493747.824       -2998.289          33.000  
G30  22584549.854   118682476.192        2655.875          37.000  
J02  39246127.284   206239668.4791        303.268          19.000  
J03  38063386.079   200024277.671         -76.783          47.000  
> 2025 03 17 03 01 21.0003527  0 25                     
C01  38323000.454   199557731.034          41.631          37.000  
C02  38362734.647   199764658.917         -19.520          34.000  
C03  37396538.031   194733443.745          45.400          35.000  
C06  36200381.413   188504719.413        -765.559          34.000  
C07  36164522.638   188318034.514         223.894          33.000  
C09  36189911.161   188450164.025        -166.455          30.000  
C10  37236512.414   193900196.288         328.382          40.000  
C16  36570051.896   190429706.475        -862.800          40.000  
C26  21867437.404   113869463.410         924.077          40.000  
C35  21710067.948   113049999.193        1067.365          35.000  
C40  36044707.584   187693995.199          48.449          36.000  
C45  23071678.225   120140164.143       -2023.621          46.000  
E07  27469955.261   144355417.887       -2806.191          37.000  
E27  24075050.305   126515196.368        1000.745          45.000  
E30  24643496.678   129502280.298       -1038.098          25.000  
E34  24978861.310   131264796.095        -190.233          29.000  
G01  23095534.810   121367779.303        3512.583          45.000  
G02  21376104.846   112332139.949        2188.658          45.000  
G07  20830169.889   109463033.324         904.431          38.000  
G08  20065190.673   105443147.483       -1116.053          40.000  
G16  24123554.926   126770136.140       -2884.673          26.000  
G27  22168598.714   116496731.849       -2999.939          31.000  
G30  22584043.907   118679807.803        2655.306          38.000  
J02  39246074.624   206239351.4601        303.973          19.000  
J03  38063399.373   200024340.301         -76.006          47.000  
> 2025 03 17 03 01 22.0002917  0 25                     
C01  38323021.121   199557829.477          43.144          36.000  
C02  38362764.907   199764815.215         -13.380          34.000  
C03  37396556.300   194733538.752          45.372          35.000  
C06  36200556.173   188505624.329        -764.021          34.000  
C07  36164508.229   188317950.256         225.565          33.000  
C09  36189970.202   188450468.131        -165.218          29.000  
C10  37236477.020   193900007.626         328.327          40.000  
C16  36570243.144   190430707.736        -862.453          39.000  
C26  21867287.789   113868678.794         924.323          40.000  
C35  21709893.151   113049072.161        1067.563          35.000  
C40  36044724.653   187694087.310          48.811          36.000  
C45  23072094.318   120142326.597       -2023.697          46.000  
E07  27470522.150   144358363.794       -2804.941          38.000  
E27  24074886.899   126514336.960        1000.997          45.000  
E30  24643709.212   129503457.472       -1036.911          26.000  
E34  24978924.247   131265126.780        -189.837          30.000  
G01  23094894.434   121364407.773        3513.301          45.000  
G02  21375716.596   112330092.554        2188.746          45.000  
G07  20830025.071   109462271.311         902.757          38.000  
G08  20065430.189   105444404.664       -1115.466          40.000  
G16  24124136.804   126773161.268       -2882.977          27.000  
G27  22169194.683   116499871.842       -2998.275          31.000  
G30  22583563.621   118677293.263        2656.548          37.000  
J02  39246047.024   206239188.553         305.317          22.000  
J03  38063442.224   200024555.562         -75.649          47.000  
> 2025 03 17 03 01 23.0002306  0 25                     
C01  38323011.715   199557772.796          42.292          36.000  
C02  38362765.395   199764813.064         -13.509          34.000  
C03  37396545.695   194733480.337          41.997          34.000  
C06  36200699.362   188506372.582        -764.669          34.000  
C07  36164464.047   188317710.728         224.293          33.000  
C09  36189999.469   188450618.586        -165.952          30.000  
C10  37236413.052   193899665.016         328.167          40.000  
C16  36570407.918   190431556.684        -864.485          39.000  
C26  21867107.801   113867740.771         923.883          40.000  
C35  21709681.385   113047990.363        1066.847          35.000  
C40  36044713.149   187694024.282          48.238          37.000  
C45  23072481.238   120144334.936       -2024.189          46.000  
E07  27471054.169   144361152.828       -2805.236          38.000  
E27  24074692.522   126513321.907        1000.547          44.000  
E30  24643904.264   129504478.751       -1037.323          26.000  
E34  24978967.305   131265300.806        -189.793          30.000  
G01  23094224.286   121360880.655        3512.341          45.000  
G02  21375298.573   112327890.241        2187.467          45.000  
G07  20829852.278   109461353.997         902.479          38.000  
G08  20065639.032   105445505.048       -1116.301          40.000  
G16  24124688.010   126776028.713       -2882.792          28.000  
G27  22169763.277   116502853.284       -2999.663          32.000  
G30  22583056.859   118674623.358        2654.968          37.000  
J02  39245994.748   206238868.294         305.854          25.000  
J03  38063455.303   200024615.478         -76.259          47.000  
> 2025 03 17 03 01 24.0001695  0 25                     
C01  38323001.504   199557716.564          42.003          37.000  
C02  38362766.575   199764816.334         -18.958          34.000  
C03  37396537.282   194733422.199          44.768          35.000  
C06  36200844.443   188507123.750        -766.127          35.000  
C07  36164420.258   188317473.153         223.439          34.000  
C09  36190029.430   188450770.714        -167.124          30.000  
C10  37236348.278   193899323.449         327.763          40.000  
C16  36570572.485   190432405.306        -863.250          39.000  
C26  21866930.305   113866803.305         923.374          40.000  
C35  21709478.406   113046910.631        1065.603          35.000  
C40  36044700.838   187693962.865          46.866          37.000  
C45  23072868.851   120146343.206       -2024.476          45.000  
E07  27471588.081   144363943.745       -2805.610          38.000  
E27  24074501.535   126512307.704        1000.244          45.000  
E30  24644109.903   129505501.919       -1037.727          27.000  
E34  24979012.255   131265476.797        -190.645          30.000  
G01  23093554.530   121357354.328        3512.478          45.000  
G02  21374880.644   112325688.941        2187.295          46.000  
G07  20829679.878   109460706.036         901.774          38.000  
G08  20065849.467   105446605.498       -1115.961          40.000  
G16  24125238.111   126778896.412       -2883.227          29.000  
G27  22170336.761   116505838.023       -2999.388          33.000  
G30  22582546.594   118671955.037        2654.406          37.000  
J02  39245938.068   206238548.472         305.435          23.000  
J03  38063468.175   200024677.933         -75.998          47.000  
> 2025 03 17 03 01 25.0001084  0 25                     
C01  38322992.398   199557664.442          40.636          37.000  
C02  38362768.861   199764822.086         -18.314          34.000  
C03  37396527.276   194733365.717          42.702          35.000  
C06  36200990.029   188507877.095        -765.306          35.000  
C07  36164375.777   188317237.947         224.567          33.000  
C09  36190060.795   188450923.685        -165.676          30.000  
C10  37236284.310   193898983.907         329.467          40.000  
C16  36570738.158   190433257.039        -863.410          39.000  
C26  21866752.415   113865868.766         923.277          40.000  
C35  21709272.936   113045834.327        1066.085          35.000  
C40  36044691.432   187694166.166          48.287          36.000  
C45  23073256.670   120148355.810       -2024.278          45.000  
E07  27472121.599   144366735.758       -2805.507          38.000  
E27  24074310.155   126511295.908        1000.395          45.000  
E30  24644318.147   129506525.594       -1036.902          29.000  
E34  24979058.011   131265654.571        -191.918          30.000  
G01  23092884.682   121353830.862        3513.019          45.000  
G02  21374463.520   112323490.677        2187.402          46.000  
G07  20829507.685   109459792.273         903.057          38.000  
G08  20066059.809   105447710.111       -1115.994          39.000  
G16  24125788.717   126781766.083       -2883.747          30.000  
G27  22170909.852   116508827.329       -3000.122          33.000  
G30  22582038.333   118669289.448        2654.614          36.000  
J02  39245882.494   206238504.019         305.206          23.000  
J03  38063482.153   200024740.794         -75.685          48.000  
> 2025 03 17 03 01 26.0000474  0 25                     
C01  38323013.224   199557765.984          41.353          38.000  
C02  38362800.480   199764984.462         -20.488          34.000  
C03  37396546.603   194733464.078          45.717          35.000  
C06  36201166.148   188508782.204        -764.065          35.000  
C07  36164360.028   188317155.754         225.575          33.000  
C09  36190121.494   188451230.499        -165.447          30.000  
C10  37236250.274   193898797.921         328.701          40.000  
C16  36570929.866   190434261.314        -863.749          39.000  
C26  21866602.960   113865088.850         922.747          40.000  
C35  21709092.901   113044911.238        1066.367          35.000  
C40  36044711.060   187694261.022          48.118          37.000  
C45  23073672.922   120150521.364       -2024.484          45.000  
E07  27472683.251   144369684.317       -2804.514          38.000  
E27  24074148.707   126510439.600        1000.614          45.000  
E30  24644553.325   129508001.434       -1036.384          30.000  
E34  24979130.701   131265989.477        -192.082          30.000  
G01  23092244.166   121350463.133        3512.465          45.000  
G02  21374076.029   112321448.079        2186.848          46.000  
G07  20829364.525   109459034.971         901.464          38.000  
G08  20066300.083   105448968.783       -1117.595          39.000  
G16  24126367.157   126784793.506       -2883.638          31.000  
G27  22171511.676   116511968.873       -2998.681          34.000  
G30  22581559.705   118666779.282        2654.399          36.000  
J02  39245852.955   206238343.249         305.033          22.000  
J03  38063524.864   200024960.278         -75.308          47.000  
> 2025 03 17 03 01 26.9999863  0 25                     
C01  38323002.431   199557711.263          41.151          38.000  
C02  38362801.679   199764987.011         -13.942          34.000  
C03  37396536.710   194733402.968          48.787          35.000  
C06  36201310.348   188509532.722        -764.858          34.000  
C07  36164314.760   188316916.870         224.735          33.000  
C09  36190149.674   188451381.529        -165.598          29.000  
C10  37236184.020   193898454.822         329.712          39.000  
C16  36571092.953   190435111.001        -862.433          39.000  
C26  21866423.983   113864151.647         923.443          40.000  
C35  21708887.544   113043832.651        1064.374          35.000  
C40  36044699.667   187694198.463          49.356          37.000  
C45  23074058.755   120152531.745       -2024.013          45.000  
E07  27473211.185   144372472.996       -2804.403          39.000  
E27  24073955.941   126509424.521        1001.132          45.000  
E30  24644756.284   129509023.409       -1036.789          31.000  
E34  24979172.672   131266438.072        -192.104          30.000  
G01  23091573.830   121346936.469        3513.492          45.000  
G02  21373659.317   112319247.255        2186.914          46.000  
G07  20829189.746   109458120.000         901.418          38.000  
G08  20066510.238   105450071.803       -1116.990          39.000  
G16  24126914.279   126787661.057       -2883.080          30.000  
G27  22172086.678   116514953.965       -2999.810          34.000  
G30  22581051.257   118664111.061        2654.902          36.000  
J02  39245789.699   206238024.099         305.363          22.000  
J03  38063537.755   200025019.567         -74.891          48.000  
> 2025 03 17 03 01 27.9999252  0 25                     
C01  38322992.398   199557657.302          42.106          38.000  
C02  38362803.637   199764986.684         -17.629          34.000  
C03  37396525.777   194733344.085          45.900          35.000  
C06  36201456.506   188510282.090        -763.751          35.000  
C07  36164268.151   188316678.037         226.503          34.000  
C09  36190184.610   188451532.332        -164.044          30.000  
C10  37236118.225   193898111.955         329.598          39.000  
C16  36571257.998   190435958.237        -862.827          39.000  
C26  21866244.567   113863214.810         923.557          40.000  
C35  21708681.146   113042754.007        1065.570          34.000  
C40  36044690.833   187694135.600          49.156          37.000  
C45  23074445.647   120154541.505       -2024.263          45.000  
E07  27473745.275   144375262.871       -2803.595          39.000  
E27  24073763.633   126508409.552        1001.653          45.000  
E30  24644957.304   129510046.571       -1036.391          31.000  
E34  24979208.507   131266615.637        -192.061          30.000  
G01  23090903.054   121343409.827        3513.269          45.000  
G02  21373242.465   112317047.113        2186.737          46.000  
G07  20829016.325   109457204.927         901.389          38.000  
G08  20066722.650   105451172.961       -1115.992          38.000  
G16  24127461.259   126790530.013       -2882.510          31.000  
G27  22172658.841   116517936.935       -2998.199          34.000  
G30  22580544.467   118661443.412        2654.431          37.000  
J02  39245729.000   206237704.705         307.064          21.000  
J03  38063550.805   200025080.452         -74.868          48.000  
> 2025 03 17 03 01 28.9998642  0 25                     
C01  38323011.884   199557755.163          45.370          38.000  
C02  38362836.314   199765146.081         -21.357          35.000  
C03  37396546.463   194733438.445          45.985          35.000  
C06  36201631.285   188511185.439        -764.210          35.000  
C07  36164252.862   188316592.093         225.337          34.000  
C09  36190243.069   188451835.476        -164.624          30.000  
C10  37236081.950   193897923.074         329.188          39.000  
C16  36571452.264   190436961.171        -862.419          39.000  
C26  21866094.071   113862432.269         922.883          40.000  
C35  21708504.268   113041830.348        1063.341          34.000  
C40  36044713.018   187694227.042          49.360          37.000  
C45  23074863.258   120156704.811       -2024.583          45.000  
E07  27474305.287   144378206.321       -2803.511          39.000  
E27  24073601.745   126507550.116        1001.456          45.000  
E30  24645180.050   129511222.806       -1036.604          31.000  
E34  24979271.164   131266948.236        -192.282          29.000  
G01  23090261.798   121340038.760        3513.008          45.000  
G02  21372854.534   112315002.744        2185.950          47.000  
G07  20828873.324   109456446.293         900.200          38.000  
G08  20066965.182   105452432.360       -1118.385          38.000  
G16  24128038.060   126793552.304       -2882.674          31.000  
G27  22173259.625   116521078.211       -2999.922          34.000  
G30  22580067.198   118658931.272        2654.126          37.000  
J02  39245700.820   206237539.353         307.623          21.000  
J03  38063592.476   200025296.236         -74.927          48.000  
> 2025 03 17 03 01 29.9998031  0 25                     
C01  38323001.663   199557698.131          43.325          37.000  
C02  38362838.984   199765152.006         -17.365          35.000  
C03  37396533.843   194733380.402          46.384          35.000  
C06  36201779.654   188511937.163        -765.216          35.000  
C07  36164207.565   188316354.685         224.620          34.000  
C09  36190274.219   188452254.066        -166.131          31.000  
C10  37236015.668   193897581.069         329.690          38.000  
C16  36571617.721   190437810.589        -863.219          39.000  
C26  21865916.866   113861497.114         923.220          41.000  
C35  21708301.281   113040753.618        1064.560          34.000  
C40  36044702.197   187694165.507          49.227          37.000  
C45  23075251.461   120158716.173       -2024.879          45.000  
E07  27474834.993   144380996.631       -2803.875          40.000  
E27  24073408.351   126506536.385        1001.203          44.000  
E30  24645374.587   129512246.138       -1036.223          31.000  
E34  24979308.609   131267127.759        -193.029          30.000  
G01  23089591.733   121336513.481        3512.337          45.000  
G02  21372437.494   112312804.789        2185.262          46.000  
G07  20828698.817   109455533.098         900.337          38.000  
G08  20067179.506   105453534.960       -1117.991          39.000  
G16  24128584.254   126796421.681       -2883.002          31.000  
G27  22173826.504   116524064.832       -2999.390          33.000  
G30  22579559.921   118656264.949        2653.892          36.000  
J02  39245639.034   206237218.556         308.486          20.000  
J03  38063605.639   200025357.218         -75.059          48.000  
> 2025 03 17 03 01 30.9997420  0 25                     
C01  38322992.641   199557641.125          42.942          37.000  
C02  38362841.654   199765155.630         -19.821          35.000  
C03  37396523.023   194733321.195          45.785          35.000  
C06  36201926.824   188512688.050        -766.137          35.000  
C07  36164162.268   188316117.134         222.604          35.000  
C09  36190308.368   188452405.859        -168.732          31.000  
C10  37235947.887   193897238.612         326.578          38.000  
C16  36571783.478   190438660.405        -866.011          39.000  
C26  21865737.862   113860561.888         919.407          41.000  
C35  21708097.394   113039676.989        1061.370          34.000  
C40  36044695.573   187694103.055          47.136          37.000  
C45  23075640.264   120160726.938       -2027.945          46.000  
E07  27475367.096   144383784.784       -2804.847          40.000  
E27  24073216.156   126505522.572         999.661          44.000  
E30  24645570.623   129513269.438       -1037.896          31.000  
E34  24979342.758   131267306.417        -195.207          31.000  
G01  23088921.969   121332988.122        3510.062          45.000  
G02  21372020.155   112310606.599        2182.480          47.000  
G07  20828526.708   109454620.109         897.797          38.000  
G08  20067393.529   105454640.037       -1120.680          39.000  
G16  24129131.347   126799290.872       -2884.156          31.000  
G27  22174398.480   116527049.359       -3001.315          34.000  
G30  22579049.946   118653598.395        2650.631          35.000  
J02  39245582.346   206236896.300         307.701          22.000  
J03  38063618.202   200025417.844         -77.505          47.000  
> 2025 03 17 03 01 31.9996809  0 25                     
C01  38322983.282   199557584.999          41.599          37.000  
C02  38362844.587   199765162.627         -24.661          35.000  
C03  37396512.165   194733262.765          43.272          35.000  
C06  36202072.458   188513440.602        -769.794          36.000  
C07  36164116.934   188315881.004         221.669          34.000  
C09  36190338.881   188452560.928        -170.293          30.000  
C10  37235881.267   193896897.902         325.756          38.000  
C16  36571950.097   190439510.412        -867.176          39.000  
C26  21865560.619   113859629.158         917.549          41.000  
C35  21707894.369   113038602.046        1059.848          34.000  
C40  36044687.713   187694042.806          44.958          37.000  
C45  23076029.029   120162740.600       -2029.174          45.000  
E07  27475898.562   144386576.232       -2806.758          39.000  
E27  24073027.221   126504510.406         997.900          44.000  
E30  24645773.517   129514292.493       -1040.465          32.000  
E34  24979376.269   131267486.519        -197.362          31.000  
G01  23088251.567   121329464.471        3508.863          45.000  
G02  21371603.978   112308410.621        2180.752          47.000  
G07  20828354.861   109453710.222         893.327          38.000  
G08  20067607.516   105455746.876       -1122.625          39.000  
G16  24129678.402   126802160.088       -2886.299          31.000  
G27  22174969.220   116530035.793       -3003.409          34.000  
G30  22578541.732   118650935.207        2648.263          35.000  
J02  39245523.521   206236574.547         307.066          22.000  
J03  38063631.927   200025481.857         -78.847          48.000  
> 2025 03 17 03 01 32.9996199  0 25                     
C01  38323004.015   199557685.877          38.706          38.000  
C03  37396531.398   194733360.298          45.562          35.000  
C06  36202251.181   188514621.995        -766.325          36.000  
C07  36164101.991   188315799.734         224.091          33.000  
C09  36190401.884   188452869.665        -167.556          31.000  
C10  37235846.838   193896711.990         328.664          37.000  
C16  36572145.009   190440516.556        -863.744          39.000  
C26  21865412.868   113858851.231         920.487          41.000  
C35  21707712.741   113037682.663        1061.311          33.000  
C40  36044704.548   187694137.220          48.089          37.000  
C44  24205963.938   126046805.9721       3086.250          37.000  
C45  23076446.986   120164908.233       -2027.104          46.000  
E07  27476458.622   144389525.101       -2806.076          39.000  
E27  24072863.282   126503654.213         998.766          44.000  
E30  24646008.601   129515475.034       -1039.810          32.000  
E34  24979434.176   131267826.041        -197.048          31.000  
G01  23087611.557   121326096.905        3511.213          45.000  
G02  21371216.992   112306371.362        2182.657          47.000  
G07  20828214.605   109452957.666         896.271          38.000  
G08  20067849.795   105457010.060       -1120.693          39.000  
G16  24130254.950   126805186.826       -2885.822          32.000  
G27  22175570.050   116533178.197       -3001.126          34.000  
G30  22578063.610   118648427.509        2651.917          34.000  
J02  39245495.387   206236409.556         307.350          22.000  
J03  38063674.545   200025701.057         -76.412          47.000  
> 2025 03 17 03 01 33.9995588  0 25                     
C01  38322995.114   199557635.111          40.080          36.000  
C03  37396521.599   194733303.209          45.597          35.000  
C06  36202398.173   188515375.835        -765.151          36.000  
C07  36164054.118   188315562.253         225.903          33.000  
C09  36190430.158   188453023.668        -166.440          30.000  
C10  37235786.074   193896371.391         328.822          39.000  
C16  36572311.787   190441367.815        -864.420          40.000  
C26  21865233.086   113857918.170         920.901          40.000  
C35  21707505.079   113036608.548        1062.628          32.000  
C40  36044693.250   187694076.992          48.375          37.000  
C44  24205366.545   126043706.814        3087.879          36.000  
C45  23076836.211   120166922.648       -2026.420          46.000  
E07  27476989.348   144392315.699       -2804.508          39.000  
E27  24072673.307   126502642.318         999.775          45.000  
E30  24646204.759   129516500.829       -1038.211          32.000  
E34  24979465.448   131268008.413        -195.737          31.000  
G01  23086942.514   121322573.393        3511.845          45.000  
G02  21370800.674   112304176.419        2183.177          47.000  
G07  20828042.318   109452047.394         899.417          38.000  
G08  20068061.542   105458116.875       -1119.946          39.000  
G16  24130805.763   126808060.476       -2884.574          30.000  
G27  22176141.249   116536166.500       -3000.513          33.000  
G30  22577557.654   118645763.878        2651.803          35.000  
J02  39245440.019   206236090.470         307.261          22.000  
J03  38063688.129   200026030.963         -75.520          47.000  
> 2025 03 17 03 01 34.9994977  0 25                     
C01  38322986.739   199557848.353          44.278          36.000  
C03  37396510.525   194733243.220          47.529          35.000  
C06  36202544.191   188516126.736        -766.623          35.000  
C07  36164010.367   188315323.329         224.487          32.000  
C09  36190459.557   188453174.392        -166.022          31.000  
C10  37235724.935   193896028.782         328.298          39.000  
C16  36572476.692   190442483.222        -864.967          40.000  
C26  21865054.728   113856984.066         919.931          39.000  
C35  21707297.042   113035533.007        1060.402          32.000  
C40  36044684.275   187694014.581          48.051          37.000  
C44  24204767.579   126040606.113        3086.563          35.000  
C45  23077224.760   120168934.717       -2027.316          46.000  
E07  27477520.599   144395104.543       -2804.011          38.000  
E27  24072481.159   126501628.285        1000.023          45.000  
E30  24646402.641   129517523.523       -1038.442          31.000  
E34  24979494.546   131268189.282        -196.188          32.000  
G01  23086273.096   121319048.374        3510.725          45.000  
G02  21370383.982   112301980.049        2181.798          47.000  
G07  20827870.556   109451135.760         896.480          38.000  
G08  20068272.914   105459485.954       -1122.056          39.000  
G16  24131353.802   126810927.481       -2883.796          30.000  
G27  22176709.074   116539152.429       -3001.747          32.000  
G30  22577049.225   118643098.425        2651.923          34.000  
J02  39245383.677   206235769.537         306.685          23.000  
J03  38063700.739   200026091.940         -75.941          47.000  
> 2025 03 17 03 01 36.0004366  0 25                     
C01  38322996.023   199557887.027          41.597          35.000  
C03  37396518.310   194733277.358          47.161          34.000  
C06  36202707.868   188516973.835        -766.682          35.000  
C07  36163985.775   188315180.427         223.717          33.000  
C09  36190501.518   188453421.705        -167.499          30.000  
C10  37235678.158   193895781.546         328.095          40.000  
C16  36572660.155   190443429.726        -865.220          40.000  
C26  21864895.829   113856144.944         918.008          40.000  
C35  21707104.266   113034553.215        1059.855          31.000  
C40  36044689.662   187694048.203          47.270          37.000  
C44  24204193.767   126037597.884        3085.848          33.000  
C45  23077631.569   120171043.173       -2028.206          46.000  
E15  25025809.174   131511514.6291       2437.356          36.000  
E27  24072307.569   126500709.995         999.455          45.000  
E30  24646611.887   129518644.723       -1038.922          31.000  
E34  24979545.502   131268466.852        -197.147          33.000  
G01  23085621.338   121315616.467        3509.865          46.000  
G02  21369985.248   112299878.514        2180.735          47.000  
G07  20827718.252   109450320.818         895.577          39.000  
G08  20068502.846   105460689.950       -1122.334          39.000  
G16  24131919.801   126813895.442       -2884.273          30.000  
G27  22177296.658   116542238.269       -3002.681          33.000  
G30  22576559.954   118640527.383        2648.549          35.000  
J02  39245346.493   206235544.729         305.799          25.000  
J03  38063731.908   200026248.251         -76.842          47.000  
> 2025 03 17 03 01 37.0003755  0 25                     
C01  38322985.877   199557830.245          44.760          35.000  
C03  37396507.265   194733214.975          48.215          34.000  
C06  36202852.115   188517725.850        -767.091          35.000  
C07  36163940.853   188314942.787         223.039          33.000  
C09  36190533.643   188453575.094        -167.989          30.000  
C10  37235614.349   193895439.706         327.849          40.000  
C16  36572823.589   190444279.540        -865.266          40.000  
C26  21864719.898   113855212.538         918.753          40.000  
C35  21706894.458   113033480.436        1059.202          31.000  
C40  36044680.415   187693987.220          47.510          37.000  
C44  24203606.820   126034499.347        3084.966          33.000  
C45  23078021.346   120173058.253       -2028.640          47.000  
E15  25025343.943   131509063.997        2437.021          36.000  
E27  24072115.749   126499697.076         999.225          45.000  
E30  24646807.398   129519668.783       -1039.577          31.000  
E34  24979579.725   131268650.424        -197.320          33.000  
G01  23084952.248   121312092.863        3510.134          45.000  
G02  21369569.183   112297684.069        2180.443          47.000  
G07  20827544.719   109449411.319         895.436          37.000  
G08  20068713.947   105461798.183       -1122.477          39.000  
G16  24132469.967   126816766.168       -2884.572          28.000  
G27  22177867.510   116545225.597       -3002.329          32.000  
G30  22576054.251   118637864.926        2649.574          34.000  
J02  39245291.078   206235225.597         304.610          22.000  
J03  38063745.146   200026310.433         -76.915          47.000  
> 2025 03 17 03 01 38.0003144  0 26                     
C01  38322976.583   199557774.163          42.527          35.000  
C03  37396497.971   194733154.830          44.960          34.000  
C06  36202999.313   188518478.031        -766.384          35.000  
C07  36163896.783   188314705.599         224.521          32.000  
C09  36190566.320   188453727.542        -167.989          29.000  
C10  37235550.493   193895097.822         328.411          40.000  
C16  36572988.175   190445129.293        -865.994          40.000  
C26  21864545.418   113854279.887         919.325          40.000  
C29  23334356.489   121508116.8231      -2274.568          41.000  
C35  21706683.404   113032407.211        1058.483          31.000  
C40  36044670.522   187693925.378          48.104          36.000  
C44  24203011.132   126031399.593        3086.616          33.000  
C45  23078411.376   120175343.810       -2028.032          47.000  
E15  25024877.466   131506613.906        2436.520          36.000  
E27  24071922.383   126498684.042         999.263          45.000  
E30  24647008.259   129520692.170       -1038.804          31.000  
E34  24979618.398   131268832.999        -197.739          33.000  
G01  23084282.812   121308568.523        3510.643          46.000  
G02  21369153.071   112295489.904        2180.517          47.000  
G07  20827370.540   109448503.114         895.131          38.000  
G08  20068924.101   105462906.492       -1121.617          38.000  
G16  24133019.786   126819634.395       -2884.610          29.000  
G27  22178439.514   116548485.561       -3003.070          33.000  
G30  22575549.101   118635201.118        2650.227          35.000  
J02  39245237.416   206234906.418         305.732          25.000  
J03  38063758.337   200026372.474         -76.261          47.000  
> 2025 03 17 03 01 39.0002534  0 25                     
C01  38322997.503   199557872.967          43.417          35.000  
C03  37396517.692   194733249.956          46.708          34.000  
C06  36203174.626   188519384.052        -767.282          35.000  
C07  36163878.430   188314621.928         225.737          32.000  
C09  36190623.815   188454035.159        -166.891          29.000  
C10  37235516.551   193894911.044         329.219          40.000  
C16  36573184.174   190446136.823        -864.433          40.000  
C26  21864398.454   113853502.744         918.210          40.000  
C35  21706501.964   113031490.376        1058.716          31.000  
C40  36044689.044   187694019.175          48.177          37.000  
C44  24202451.354   126028454.741        3086.951          32.000  
C45  23078829.821   120177512.455       -2027.718          47.000  
E15  25024441.502   131504320.709        2436.390          36.000  
E27  24071761.629   126497827.572         999.572          45.000  
E30  24647231.239   129521873.470       -1037.929          32.000  
E34  24979685.186   131269172.829        -198.103          33.000  
G01  23083643.289   121305201.027        3510.950          46.000  
G02  21368767.173   112293452.683        2180.517          47.000  
G07  20827226.574   109447751.555         894.676          38.000  
G08  20069163.570   105464168.990       -1121.324          38.000  
G16  24133596.821   126822662.175       -2883.876          30.000  
G27  22179039.333   116551627.726       -3000.974          33.000  
G30  22575075.663   118632694.897        2650.147          35.000  
J02  39245210.669   206234743.550         306.483          23.000  
J03  38063800.842   200026590.254         -75.874          47.000  
> 2025 03 17 03 01 40.0001923  0 25                     
C01  38322988.631   199557814.687          42.100          35.000  
C03  37396507.021   194733187.289          49.356          34.000  
C06  36203320.447   188520135.183        -765.696          36.000  
C07  36163834.483   188314381.382         225.190          32.000  
C09  36190653.316   188454187.823        -166.421          29.000  
C10  37235452.517   193894566.736         329.817          40.000  
C16  36573349.182   190446984.237        -864.361          40.000  
C26  21864220.499   113852569.257         919.938          41.000  
C35  21706305.422   113030416.525        1059.903          32.000  
C40  36044679.572   187693956.130          48.815          37.000  
C44  24201864.482   126025353.679        3086.807          33.000  
C45  23079218.174   120179524.715       -2027.240          47.000  
E15  25023981.143   131501869.301        2436.645          37.000  
E27  24071569.284   126496812.692        1000.019          45.000  
E30  24647422.629   129522895.149       -1038.377          31.000  
E34  24979722.482   131269356.551        -198.082          33.000  
G01  23082973.974   121301675.126        3511.356          45.000  
G02  21368350.283   112291257.379        2180.729          47.000  
G07  20827053.715   109446842.181         895.154          38.000  
G08  20069376.844   105465276.375       -1122.418          38.000  
G16  24134142.865   126825528.138       -2883.573          30.000  
G27  22179610.260   116554614.110       -3000.937          33.000  
G30  22574572.133   118630029.608        2650.422          36.000  
J02  39245152.331   206234421.871         307.060          21.000  
J03  38063812.955   200026650.490         -74.980          47.000  
> 2025 03 17 03 01 41.0001312  0 25                     
C01  38322978.429   199557759.978          44.531          35.000  
C03  37396496.519   194733124.455          46.883          34.000  
C06  36203465.537   188520888.069        -765.998          36.000  
C07  36163789.205   188314144.084         223.816          31.000  
C09  36190685.085   188454339.644        -166.057          29.000  
C10  37235388.052   193894224.849         328.342          40.000  
C16  36573513.758   190447836.376        -864.868          40.000  
C26  21864043.313   113851637.799         917.610          41.000  
C35  21706095.858   113029343.879        1058.809          31.000  
C40  36044668.170   187693894.537          49.200          36.000  
C44  24201269.085   126022255.001        3085.499          33.000  
C45  23079606.996   120181539.445       -2029.313          47.000  
E15  25023516.455   131499419.772        2436.722          37.000  
E27  24071378.307   126495800.009         999.911          45.000  
E30  24647620.482   129523919.299       -1038.975          31.000  
E34  24979763.245   131269540.248        -198.648          33.000  
G01  23082304.828   121298151.521        3509.972          45.000  
G02  21367933.862   112289064.743        2178.802          47.000  
G07  20826881.625   109445935.087         892.860          38.000  
G08  20069589.088   105466384.431       -1123.008          39.000  
G16  24134688.478   126828399.161       -2883.482          30.000  
G27  22180178.357   116557601.705       -3001.601          33.000  
G30  22574068.473   118627367.163        2649.200          35.000  
J02  39245095.960   206234370.247         306.740          22.000  
J03  38063825.837   200026711.367         -76.842          47.000  
> 2025 03 17 03 01 42.0000702  0 25                     
C01  38322997.841   199557855.049          43.430          35.000  
C03  37396516.830   194733219.294          43.939          34.000  
C06  36203640.841   188521794.469        -766.148          36.000  
C07  36163773.840   188314059.310         226.837          31.000  
C09  36190746.168   188454645.798        -167.059          29.000  
C10  37235355.000   193894036.620         330.215          40.000  
C16  36573708.548   190448840.112        -864.437          40.000  
C26  21863894.541   113850860.034         918.772          41.000  
C35  21705919.804   113028426.407        1057.851          31.000  
C40  36044686.982   187693986.724          48.457          36.000  
C44  24200708.398   126019310.737        3085.286          33.000  
C45  23080024.831   120183707.391       -2027.607          47.000  
E15  25023078.084   131497125.797        2435.815          37.000  
E27  24071215.145   126494942.326         999.695          45.000  
E30  24647847.650   129525098.635       -1038.838          30.000  
E34  24979830.024   131269881.188        -198.982          33.000  
G01  23081665.595   121294783.054        3511.800          45.000  
G02  21367547.655   112287027.692        2179.942          47.000  
G07  20826740.048   109445184.234         893.302          38.000  
G08  20069831.545   105467647.497       -1122.029          38.000  
G16  24135262.805   126831421.888       -2883.549          29.000  
G27  22180779.966   116560743.667       -3002.031          34.000  
G30  22573594.126   118624859.780        2649.543          35.000  
J02  39245067.105   206234204.358         308.059          22.000  
J03  38063868.332   200026929.037         -75.148          47.000  
> 2025 03 17 03 01 43.0000091  0 25                     
C01  38322987.788   199557798.769          40.619          35.000  
C03  37396508.277   194733431.199          46.344          34.000  
C06  36203782.783   188522547.973        -768.759          36.000  
C07  36163726.614   188313821.951         222.393          31.000  
C09  36190782.583   188454801.005        -169.605          29.000  
C10  37235290.086   193893695.692         326.808          40.000  
C16  36573875.074   190449691.669        -866.903          40.000  
C26  21863716.904   113849930.638         914.991          42.000  
C35  21705723.581   113027357.010        1054.975          32.000  
C40  36044673.632   187693926.067          46.189          36.000  
C44  24200113.750   126016212.778        3084.200          33.000  
C45  23080414.102   120185722.935       -2031.270          47.000  
E15  25022613.546   131494678.997        2433.835          38.000  
E27  24071026.116   126493930.847         998.089          45.000  
E30  24648041.756   129526124.610       -1040.004          30.000  
E34  24979858.345   131270065.926        -202.046          33.000  
G01  23080997.499   121291260.895        3508.213          45.000  
G02  21367131.983   112284837.062        2176.161          47.000  
G07  20826570.806   109444279.508         891.423          39.000  
G08  20070045.437   105468758.180       -1125.541          39.000  
G16  24135804.971   126834292.929       -2885.517          30.000  
G27  22181351.511   116563732.169       -3003.236          34.000  
G30  22573087.617   118622198.649        2646.534          34.000  
J02  39245009.086   206233882.7001        308.570          15.000  
J03  38063881.963   200026991.403         -78.176          47.000  
> 2025 03 17 03 01 43.9999480  0 25                     
C01  38322978.457   199557744.590          41.734          35.000  
C03  37396499.845   194733370.743          45.111          34.000  
C06  36203926.646   188523300.132        -767.577          36.000  
C07  36163682.207   188313584.579         223.502          31.000  
C09  36190811.026   188454954.062        -170.226          29.000  
C10  37235225.593   193893353.844         328.287          40.000  
C16  36574039.323   190450543.995        -866.133          40.000  
C26  21863539.390   113849000.257         916.604          42.000  
C35  21705513.689   113026286.138        1057.412          32.000  
C40  36044664.301   187693865.768          46.774          37.000  
C44  24199522.522   126013115.168        3083.016          34.000  
C45  23080802.296   120187737.180       -2029.890          47.000  
E15  25022152.128   131492230.484        2434.271          38.000  
E27  24070835.411   126492918.427         998.268          45.000  
E30  24648235.685   129527149.045       -1039.960          30.000  
E34  24979891.284   131270253.392        -200.491          32.000  
G01  23080328.624   121287737.739        3509.372          45.000  
G02  21366716.133   112282646.127        2177.203          47.000  
G07  20826402.285   109443373.828         890.171          39.000  
G08  20070258.252   105469867.832       -1124.636          39.000  
G16  24136348.457   126837163.789       -2885.795          29.000  
G27  22181921.678   116566719.682       -3003.396          34.000  
G30  22572579.432   118619538.117        2646.631          35.000  
J02  39244948.790   206233559.3331        309.444          14.000  
J03  38063895.117   200027052.591         -76.831          47.000  
> 2025 03 17 03 01 44.9998869  0 25                     
C01  38322968.171   199557687.567          44.253          36.000  
C03  37396489.259   194733310.623          47.011          34.000  
C06  36204074.950   188524052.223        -764.212          36.000  
C07  36163638.044   188313345.809         227.048          31.000  
C09  36190840.312   188455109.416        -164.814          28.000  
C10  37235160.444   193893009.659         332.314          40.000  
C16  36574204.115   190451391.774        -861.737          40.000  
C26  21863361.219   113848068.391         920.018          42.000  
C35  21705312.434   113025214.073        1059.419          32.000  
C40  36044653.415   187693802.274          51.818          37.000  
C44  24198932.737   126010015.626        3087.590          33.000  
C45  23081189.235   120189750.883       -2026.660          47.000  
E15  25021685.857   131489780.154        2436.318          38.000  
E27  24070644.949   126491903.917        1000.218          45.000  
E30  24648437.951   129528172.053       -1036.892          30.000  
E34  24979919.971   131270436.005        -198.145          33.000  
G01  23079659.394   121284212.711        3512.718          45.000  
G02  21366299.928   112280453.329        2180.134          47.000  
G07  20826233.108   109442467.094         893.967          39.000  
G08  20070471.311   105470976.501       -1121.423          38.000  
G16  24136891.287   126840032.993       -2884.238          28.000  
G27  22182490.291   116569707.475       -3001.121          33.000  
G30  22572073.288   118616875.884        2650.338          35.000  
J02  39244889.638   206233235.1561        309.997          13.000  
J03  38063907.614   200027113.400         -73.229          47.000  
> 2025 03 17 03 01 45.9998258  0 25                     
C01  38322957.978   199557628.510          48.573          37.000  
C03  37396479.665   194733250.870          47.872          35.000  
C06  36204220.949   188524801.460        -763.888          36.000  
C07  36163589.477   188313105.343         228.290          31.000  
C09  36190872.989   188455260.650        -165.479          28.000  
C10  37235095.389   193892665.517         331.460          40.000  
C16  36574366.302   190452241.938        -862.675          40.000  
C26  21863182.243   113847136.208         919.355          42.000  
C35  21705109.475   113024141.887        1060.648          33.000  
C40  36044639.924   187693738.042          51.342          37.000  
C44  24198334.051   126006914.835        3088.114          32.000  
C45  23081576.566   120191764.647       -2027.363          47.000  
E15  25021223.877   131487330.012        2437.491          38.000  
E27  24070453.381   126490889.508        1001.754          45.000  
E30  24648628.319   129529195.864       -1035.194          31.000  
E34  24979956.545   131270622.251        -198.503          33.000  
G01  23078989.058   121280687.450        3512.371          45.000  
G02  21365883.216   112278260.795        2179.482          47.000  
G07  20826061.327   109441560.738         893.603          39.000  
G08  20070681.466   105472083.338       -1121.764          39.000  
G16  24137434.511   126842900.801       -2881.710          28.000  
G27  22183060.796   116572692.914       -2998.197          34.000  
G30  22571568.737   118614212.516        2651.315          36.000  
J02  39244826.681   206232912.5901        310.148          14.000  
J03  38063919.606   200027172.726         -73.349          47.000  
> 2025 03 17 03 01 46.9997648  0 25                     
C01  38322976.696   199557724.151          47.062          37.000  
C03  37396500.182   194733348.932          46.902          34.000  
C06  36204396.758   188525708.637        -763.625          37.000  
C07  36163578.216   188313020.602         227.570          32.000  
C09  36190929.182   188455566.811        -165.359          28.000  
C10  37235060.445   193892476.585         332.249          40.000  
C16  36574562.198   190453244.839        -862.735          40.000  
C26  21863033.378   113846359.534         919.479          42.000  
C35  21704942.921   113023225.152        1059.581          33.000  
C40  36044661.641   187693829.455          51.380          37.000  
C44  24197773.870   126003970.794        3087.414          33.000  
C45  23081994.308   120193932.800       -2027.184          47.000  
E15  25020787.510   131485036.980        2437.211          39.000  
E27  24070293.123   126490031.579        1002.179          45.000  
E30  24648859.890   129530375.185       -1037.064          31.000  
E34  24980015.436   131270964.005        -198.805          33.000  
G01  23078350.931   121277319.436        3513.097          45.000  
G02  21365496.915   112276225.704        2179.719          47.000  
G07  20825920.256   109440812.133         892.999          39.000  
G08  20070923.230   105473349.461       -1122.698          38.000  
G16  24138008.145   126845926.666       -2880.675          28.000  
G27  22183661.711   116575834.459       -2999.528          34.000  
G30  22571091.599   118611706.210        2650.239          35.000  
J02  39244794.735   206232746.518         310.209          21.000  
J03  38063961.708   200027390.197         -72.896          47.000  
> 2025 03 17 03 01 47.9997037  0 25                     
C01  38322966.100   199557662.463          45.642          36.000  
C03  37396490.486   194733285.798          49.869          35.000  
C06  36204541.755   188526456.385        -764.081          37.000  
C07  36163532.245   188312778.306         228.397          33.000  
C09  36190962.955   188455717.046        -163.273          28.000  
C10  37234994.687   193892130.230         331.711          40.000  
C16  36574726.082   190454092.566        -862.236          40.000  
C26  21862854.298   113845425.680         919.586          41.000  
C35  21704743.156   113022151.947        1058.377          34.000  
C40  36044648.946   187693764.446          50.774          37.000  
C44  24197179.579   126000868.827        3088.243          33.000  
C45  23082383.636   120195945.782       -2027.463          47.000  
E15  25020320.330   131482585.415        2437.232          39.000  
E27  24070099.354   126489014.991        1002.062          45.000  
E30  24649048.656   129531396.508       -1036.614          32.000  
E34  24980061.201   131271147.122        -199.258          33.000  
G01  23077682.290   121273792.213        3513.156          45.000  
G02  21365080.400   112274032.065        2179.052          47.000  
G07  20825748.372   109439904.662         892.982          40.000  
G08  20071132.681   105474456.775       -1122.484          38.000  
G16  24138549.168   126848790.147       -2880.774          29.000  
G27  22184231.514   116578819.434       -2999.899          34.000  
G30  22570581.549   118609042.082        2649.842          35.000  
J02  39244732.874   206232421.6221        310.513          18.000  
J03  38063973.897   200027447.206         -73.071          47.000  
> 2025 03 17 03 01 48.9996426  0 25                     
C01  38322957.191   199557606.418          42.793          37.000  
C03  37396478.878   194733223.994          50.940          34.000  
C06  36204689.637   188527208.595        -765.555          37.000  
C07  36163489.759   188312539.011         226.375          33.000  
C09  36190994.818   188455867.586        -165.721          27.000  
C10  37234929.716   193892049.750         331.365          40.000  
C16  36574890.752   190454942.216        -863.545          40.000  
C26  21862677.205   113844495.283         917.623          42.000  
C35  21704537.583   113021081.795        1057.083          34.000  
C40  36044634.641   187693701.757          49.924          37.000  
C44  24196590.871   125997769.340        3087.125          34.000  
C45  23082772.251   120197960.512       -2028.901          46.000  
E15  25019858.135   131480136.867        2436.474          39.000  
E27  24069907.572   126488001.381        1001.632          45.000  
E30  24649248.702   129532418.489       -1037.258          32.000  
E34  24980104.156   131271333.541        -200.177          33.000  
G01  23077012.938   121270268.138        3511.659          45.000  
G02  21364664.372   112271841.955        2177.489          47.000  
G07  20825578.174   109439000.887         890.807          40.000  
G08  20071343.220   105475568.225       -1123.713          37.000  
G16  24139091.577   126851658.078       -2881.283          28.000  
G27  22184799.405   116581805.916       -3001.317          34.000  
G30  22570075.883   118606381.210        2648.446          36.000  
J02  39244671.501   206232098.9921        311.089          18.000  
J03  38063986.572   200027508.331         -74.022          47.000  
> 2025 03 17 03 01 49.9995816  0 25                     
C01  38322977.567   199557705.485          43.891          38.000  
C03  37396496.557   194733313.728          48.243          34.000  
C06  36204865.905   188528116.077        -764.757          37.000  
C07  36163473.561   188312454.396         227.498          33.000  
C09  36191058.964   188456175.507        -168.595          28.000  
C10  37234894.332   193891860.230         332.173          39.000  
C16  36575087.406   190455946.294        -862.570          41.000  
C26  21862527.300   113843719.207         918.810          42.000  
C35  21704361.296   113020166.480        1057.860          35.000  
C40  36044651.719   187693792.858          51.513          37.000  
C44  24196023.954   125994824.729        3086.999          35.000  
C45  23083189.553   120200129.256       -2027.796          46.000  
E15  25019423.726   131477843.603        2436.720          39.000  
E27  24069745.674   126487143.065        1001.847          45.000  
E30  24649466.042   129533597.792       -1036.265          33.000  
E34  24980180.294   131271677.043        -200.531          33.000  
G01  23076373.172   121266899.525        3512.442          45.000  
G02  21364277.931   112269807.339        2178.370          47.000  
G07  20825436.962   109438252.886         891.532          40.000  
G08  20071583.944   105476834.343       -1123.346          36.000  
G16  24139664.770   126854683.011       -2881.373          29.000  
G27  22185398.681   116584949.283       -3001.117          35.000  
G30  22569599.804   118603876.135        2649.032          37.000  
J02  39244641.812   206231930.7791        312.289          19.000  
J03  38064028.834   200027723.166         -73.084          47.000  
> 2025 03 17 03 01 50.9995205  0 25                     
C01  38322966.765   199557647.408          43.710          38.000  
C03  37396485.755   194733250.347          50.355          34.000  
C06  36205011.295   188528864.038        -765.201          38.000  
C07  36163428.882   188312213.456         226.509          33.000  
C09  36191090.732   188456328.173        -167.406          28.000  
C10  37234828.068   193891514.823         331.496          39.000  
C16  36575250.784   190456795.425        -864.279          40.000  
C26  21862346.815   113842787.628         916.861          42.000  
C35  21704156.828   113019095.323        1056.265          35.000  
C40  36044634.622   187693727.477          50.483          37.000  
C44  24195428.856   125991724.682        3086.054          35.000  
C45  23083576.276   120202143.626       -2029.199          46.000  
E15  25018958.738   131475393.924        2435.822          39.000  
E27  24069552.898   126486127.520        1001.504          44.000  
E30  24649660.298   129534619.792       -1037.527          33.000  
E34  24980217.758   131271862.651        -201.023          33.000  
G01  23075703.726   121263640.933        3511.447          45.000  
G02  21363862.109   112267616.219        2176.342          47.000  
G07  20825264.572   109437348.276         889.624          39.000  
G08  20071792.290   105477943.128       -1125.310          35.000  
G16  24140207.086   126857548.162       -2882.038          29.000  
G27  22185969.776   116587935.139       -3001.048          35.000  
G30  22569094.644   118601213.503        2648.078          37.000  
J02  39244581.545   206231604.432         312.350          23.000  
J03  38064041.416   200027782.166         -73.774          47.000  
> 2025 03 17 03 01 51.9994594  0 25                     
C01  38322956.657   199557589.208          45.947          38.000  
C03  37396473.248   194733190.021          45.618          34.000  
C06  36205157.379   188529617.139        -766.682          38.000  
C07  36163388.195   188312252.044         227.366          34.000  
C09  36191119.297   188456482.201        -166.600          27.000  
C10  37234762.498   193891169.836         331.898          39.000  
C16  36575416.953   190457644.582        -863.894          40.000  
C26  21862169.123   113841857.584         916.444          42.000  
C35  21703955.452   113018026.231        1055.244          35.000  
C40  36044622.415   187693664.169          49.827          37.000  
C44  24194835.951   125988625.713        3086.109          36.000  
C45  23083964.292   120204159.378       -2029.624          46.000  
E15  25018495.344   131472945.118        2435.515          40.000  
E27  24069362.015   126485113.268        1000.745          44.000  
E30  24649852.550   129535643.292       -1037.664          33.000  
E34  24980260.113   131272050.033        -201.543          32.000  
G01  23075034.074   121260116.424        3510.845          45.000  
G02  21363446.082   112265426.539        2176.007          47.000  
G07  20825094.375   109436445.182         889.346          40.000  
G08  20072004.028   105479054.418       -1125.775          35.000  
G16  24140751.593   126860417.053       -2882.560          28.000  
G27  22186536.768   116590922.188       -3002.809          36.000  
G30  22568592.876   118598552.671        2646.933          37.000  
J02  39244518.373   206231278.883         311.693          21.000  
J03  38064054.091   200027841.167         -74.159          47.000  
> 2025 03 17 03 01 53.0003983  0 25                     
C01  38322964.208   199557625.707          41.437          37.000  
C03  37396477.501   194733224.367          44.791          34.000  
C06  36205322.620   188530465.719        -768.610          38.000  
C07  36163361.270   188312107.457         224.085          34.000  
C09  36191169.419   188456730.812        -169.982          26.000  
C10  37234715.786   193890921.367         327.793          40.000  
C16  36575601.082   190458592.761        -867.115          40.000  
C26  21862011.788   113841023.312         912.695          42.000  
C35  21703767.838   113017052.626        1052.315          35.000  
C40  36044631.165   187693696.170          47.584          37.000  
C44  24194258.907   125985618.915        3083.474          35.000  
C45  23084370.267   120206270.981       -2033.442          46.000  
E15  25018045.711   131470591.197        2433.545          40.000  
E27  24069190.290   126484194.899         999.450          45.000  
E30  24650073.253   129536763.009       -1041.995          31.000  
E34  24980319.828   131272334.894        -202.839          32.000  
G01  23074382.381   121256685.869        3507.586          45.000  
G02  21363048.613   112263332.146        2172.270          47.000  
G07  20824942.436   109435638.474         886.327          40.000  
G08  20072239.122   105480262.000       -1128.455          37.000  
G16  24141314.959   126863384.425       -2883.802          27.000  
G27  22187128.914   116594009.893       -3004.255          37.000  
G30  22568104.870   118595986.218        2644.428          36.000  
J02  39244474.959   206231049.3611        311.443          17.000  
J03  38064085.326   200027998.845         -77.410          47.000  
> 2025 03 17 03 01 54.0003372  0 25                     
C01  38322954.493   199557569.264          39.760          37.000  
C03  37396467.786   194733165.129          41.521          35.000  
C06  36205470.896   188531219.407        -774.436          38.000  
C07  36163314.380   188311870.830         217.573          34.000  
C09  36191206.771   188456887.585        -176.385          27.000  
C10  37234649.111   193890581.456         320.985          38.000  
C16  36575766.745   190459445.423        -874.583          40.000  
C26  21861835.088   113840098.427         904.938          41.000  
C35  21703571.352   113015988.775        1044.515          36.000  
C40  36044619.351   187693636.284          41.012          37.000  
C44  24193663.697   125982523.514        3075.983          34.000  
C45  23084757.477   120208291.811       -2040.714          46.000  
E15  25017580.911   131468147.572        2428.659          40.000  
E27  24068996.502   126483185.313         994.442          44.000  
E30  24650262.600   129537790.523       -1049.852          30.000  
E34  24980358.380   131272525.393        -208.622          33.000  
G01  23073713.422   121253166.007        3499.550          45.000  
G02  21362633.878   112261148.055        2164.131          46.000  
G07  20824773.531   109434740.606         876.607          40.000  
G08  20072455.150   105481378.957       -1136.029          37.000  
G16  24141858.661   126866253.455       -2886.491          24.000  
G27  22187697.499   116596999.582       -3011.876          36.000  
G30  22567601.996   118593329.765        2636.726          37.000  
J02  39244413.979   206230724.131         309.096          22.000  
J03  38064098.395   200028061.354         -84.909          47.000  
> 2025 03 17 03 01 55.0002762  0 25                     
C01  38322976.021   199557675.517          35.962          37.000  
C03  37396489.015   194733266.800          41.197          35.000  
C06  36205651.015   188532138.345        -778.085          38.000  
C07  36163299.934   188311798.447         213.844          34.000  
C09  36191265.474   188457207.407        -179.345          25.000  
C10  37234614.878   193890404.566         321.000          38.000  
C16  36575960.955   190460463.727        -874.059          40.000  
C26  21861690.832   113839337.090         905.284          41.000  
C35  21703396.817   113015088.755        1042.333          36.000  
C40  36044642.679   187693740.632          38.386          36.000  
C44  24193100.031   125979592.943        3072.267          32.000  
C45  23085176.231   120210475.543       -2041.074          46.000  
E15  25017146.456   131465868.362        2424.129          40.000  
E27  24068837.256   126482340.124         989.897          44.000  
E30  24650497.281   129538982.438       -1047.809          31.000  
E34  24980422.479   131272883.264        -214.516          33.000  
G01  23073076.907   121249811.426        3500.511          45.000  
G02  21362250.687   112259129.372        2164.085          46.000  
G07  20824635.570   109434008.499         877.501          40.000  
G08  20072699.725   105482660.110       -1137.782          38.000  
G16  24142435.405   126869282.770       -2890.805          24.000  
G27  22188298.526   116600156.882       -3014.130          37.000  
G30  22567131.865   118590839.071        2634.651          38.000  
J02  39244382.445   206230560.585         294.508          27.000  
J03  38064143.008   200028290.368         -84.611          47.000  
> 2025 03 17 03 01 56.0002151  0 25                     
C01  38322967.224   199557628.712          36.711          36.000  
C03  37396478.719   194733214.717          43.317          35.000  
C06  36205797.510   188532898.503        -769.795          38.000  
C07  36163256.961   188311568.299         223.473          34.000  
C09  36191300.147   188457372.278        -176.195          24.000  
C10  37234550.320   193890068.173         327.974          38.000  
C16  36576126.637   190461320.706        -868.462          40.000  
C26  21861511.453   113838416.445         911.478          41.000  
C35  21703193.454   113014030.222        1050.344          38.000  
C40  36044635.381   187693686.549          46.793          37.000  
C44  24192507.538   125976505.101        3080.600          33.000  
C45  23085564.958   120212498.606       -2033.917          45.000  
E07  27488890.799   144455096.2501      -2806.515          40.000  
E27  24068646.185   126481333.908         994.552          44.000  
E30  24650699.239   129540298.342       -1044.351          30.000  
E34  24980452.055   131273082.223        -208.576          34.000  
G01  23072407.967   121246295.255        3507.148          45.000  
G02  21361835.671   112256949.640        2170.701          46.000  
G07  20824467.883   109433115.421         883.993          41.000  
G08  20072915.772   105483779.995       -1129.931          39.000  
G16  24142983.923   126872166.007       -2894.894          21.000  
G27  22188869.828   116603152.972       -3004.907          37.000  
G30  22566627.212   118588188.507        2642.759          37.000  
J02  39244319.386   206230250.127         303.070          27.000  
J03  38064156.695   200028357.707         -77.471          47.000  
> 2025 03 17 03 01 57.0001540  0 25                     
C01  38322957.097   199557574.919          37.803          36.000  
C03  37396468.292   194733153.559          46.854          35.000  
C06  36205942.676   188533651.119        -770.377          38.000  
C07  36163211.458   188311326.742         224.731          34.000  
C09  36191332.590   188457526.292        -171.137          22.000  
C10  37234485.031   193889724.208         326.277          38.000  
C16  36576288.590   190462172.623        -868.664          40.000  
C26  21861333.442   113837488.304         910.698          41.000  
C35  21702990.560   113012964.187        1048.559          39.000  
C40  36044620.756   187693622.162          47.150          36.000  
C44  24191913.715   125973405.400        3082.546          32.000  
C45  23085953.555   120214515.934       -2035.662          45.000  
E07  27489424.795   144457883.401       -2805.137          40.000  
E27  24068456.482   126480592.274         995.446          44.000  
E30  24650894.469   129541322.855       -1042.476          29.000  
E34  24980482.100   131273272.423        -208.889          33.000  
G01  23071738.896   121242772.313        3505.561          45.000  
G02  21361420.524   112254762.984        2168.725          46.000  
G07  20824297.967   109432215.108         882.648          41.000  
G08  20073129.889   105484892.102       -1130.179          38.000  
G16  24143532.009   126875036.8331      -2889.633          20.000  
G27  22189440.998   116606140.636       -3005.473          38.000  
G30  22566119.429   118585528.821        2642.258          36.000  
J02  39244258.893   206229927.128         307.327          28.000  
J03  38064169.352   200028419.496         -78.925          47.000  
> 2025 03 17 03 01 58.0000929  0 25                     
C01  38322946.848   199557520.480          43.634          36.000  
C03  37396459.242   194733095.786          44.280          35.000  
C06  36206090.717   188534407.073        -769.639          39.000  
C07  36163167.032   188311090.083         223.900          33.000  
C09  36191362.513   188457684.129        -169.676          24.000  
C10  37234422.018   193889384.353         328.009          39.000  
C16  36576455.219   190463026.341        -867.884          40.000  
C26  21861155.609   113836564.314         911.491          40.000  
C35  21702781.549   113011902.434        1050.211          38.000  
C40  36044607.509   187693563.108          46.791          36.000  
C44  24191315.872   125970310.783        3081.421          33.000  
C45  23086341.730   120216537.651       -2033.942          45.000  
E07  27489959.569   144460673.471       -2804.119          41.000  
E27  24068263.060   126479582.499         997.068          44.000  
E30  24651098.871   129542351.097       -1042.157          28.000  
E34  24980520.417   131273465.285        -207.214          33.000  
G01  23071070.002   121239253.027        3507.007          45.000  
G02  21361005.256   112252580.737        2170.004          46.000  
G07  20824128.827   109431319.745         882.758          40.000  
G08  20073344.485   105486008.993       -1131.795          38.000  
G16  24144079.973   126877913.304       -2889.504          23.000  
G27  22190012.346   116609130.839       -3005.999          37.000  
G30  22565616.021   118582874.371        2641.612          36.000  
J02  39244196.480   206229606.381         308.267          31.000  
J03  38064182.786   200028483.592         -77.646          47.000  
> 2025 03 17 03 01 59.0000319  0 25                     
C01  38322966.194   199557619.048          43.470          37.000  
C03  37396478.588   194733189.345          53.859          35.000  
C06  36206266.255   188535318.604        -767.221          39.000  
C07  36163152.502   188311008.589         226.179          34.000  
C09  36191419.633   188457993.324        -167.696          24.000  
C10  37234386.802   193889197.753         330.964          38.000  
C16  36576649.943   190464035.663        -865.855          40.000  
C26  21861007.671   113835794.542         913.869          41.000  
C35  21702605.430   113010993.719        1052.467          38.000  
C40  36044629.853   187693658.068          48.886          37.000  
C44  24190747.925   125967370.976        3084.758          34.000  
C45  23086760.100   120218712.431       -2032.265          46.000  
E07  27490517.642   144463618.231       -2802.418          41.000  
E27  24068099.233   126478728.069         998.968          44.000  
E30  24651314.281   129543535.575       -1039.503          28.000  
E34  24980592.527   131273815.938        -206.227          33.000  
G01  23070431.004   121235888.928        3509.816          46.000  
G02  21360620.481   112250817.269        2172.186          46.000  
G07  20823987.784   109430579.633         886.089          40.000  
G08  20073586.576   105487282.112       -1128.571          37.000  
G16  24144659.032   126880940.589       -2884.437          23.000  
G27  22190614.189   116612279.821       -3002.292          38.000  
G30  22565141.009   118580375.670        2644.587          37.000  
J02  39244166.060   206229442.025         309.866          31.000  
J03  38064225.516   200028702.480         -75.087          47.000  
> 2025 03 17 03 01 59.9999708  0 25                     
C01  38322955.073   199557559.755          47.239          36.000  
C03  37396468.966   194733122.368          52.537          36.000  
C06  36206408.628   188536071.503        -768.389          39.000  
C07  36163108.104   188310768.703         225.747          34.000  
C09  36191452.282   188458148.004        -168.332          25.000  
C10  37234321.119   193888853.689         329.148          38.000  
C16  36576814.202   190464885.960        -867.574          40.000  
C26  21860831.664   113834867.876         911.176          41.000  
C35  21702399.445   113009928.514        1050.007          37.000  
C40  36044616.934   187693595.396          47.668          37.000  
C44  24190156.706   125964272.603        3084.087          32.000  
C45  23087147.703   120220730.200       -2033.907          45.000  
E07  27491047.647   144466404.794       -2802.233          40.000  
E27  24067910.036   126477715.071         998.617          44.000  
E30  24651512.716   129544558.858       -1039.714          30.000  
E34  24980625.176   131274006.290        -206.802          33.000  
G01  23069761.240   121232366.132        3507.773          45.000  
G02  21360205.541   112248632.113        2170.101          46.000  
G07  20823816.275   109429680.973         883.648          40.000  
G08  20073797.602   105488395.814       -1130.200          38.000  
G16  24145207.924   126883810.613       -2884.947          26.000  
G27  22191184.666   116615267.571       -3004.333          37.000  
G30  22564637.330   118577717.270        2642.828          38.000  
J02  39244103.975   206229117.283         311.005          31.000  
J03  38064238.379   200028763.339         -76.371          47.000  
> 2025 03 17 03 02 00.9999097  0 25                     
C01  38322944.974   199557501.666          42.147          37.000  
C03  37396459.766   194733058.274          47.624          36.000  
C06  36206558.618   188536825.335        -771.032          39.000  
C07  36163064.728   188310530.953         222.938          33.000  
C09  36191486.852   188458569.133        -169.845          24.000  
C10  37234255.258   193888512.288         327.380          38.000  
C16  36576980.680   190465739.084        -868.637          40.000  
C26  21860653.681   113833944.085         909.271          40.000  
C35  21702195.380   113008866.417        1047.637          37.000  
C40  36044610.133   187693534.619          46.877          37.000  
C44  24189566.808   125961177.746        3079.295          33.000  
C45  23087535.129   120222750.808       -2036.215          45.000  
E07  27491580.172   144469194.518       -2803.723          41.000  
E27  24067719.761   126476704.566         997.060          44.000  
E30  24651708.874   129545584.009       -1041.597          28.000  
E34  24980674.136   131274200.908        -209.040          32.000  
G01  23069092.796   121228846.170        3505.454          46.000  
G02  21359791.921   112246450.253        2167.073          46.000  
G07  20823648.785   109428785.208         880.224          41.000  
G08  20074010.848   105489513.079       -1133.523          37.000  
G16  24145758.436   126886680.262       -2886.213          22.000  
G27  22191755.864   116618257.142       -3007.180          38.000  
G30  22564132.273   118575062.289        2640.408          39.000  
J02  39244043.511   206228793.847         309.159          29.000  
J03  38064251.364   200028826.970         -78.544          47.000  
> 2025 03 17 03 02 01.9998486  0 25                     
C01  38322935.840   199557446.375          38.883          37.000  
C03  37396452.131   194732998.022          44.636          37.000  
C06  36206706.275   188537581.377        -772.299          39.000  
C07  36163019.319   188310294.338         222.515          33.000  
C09  36191516.391   188458724.087        -172.176          23.000  
C10  37234190.063   193888171.946         326.025          38.000  
C16  36577145.126   190466595.198        -869.929          40.000  
C26  21860479.661   113833020.831         908.343          40.000  
C35  21701991.380   113007805.588        1044.908          36.000  
C40  36044601.898   187693474.755          44.568          37.000  
C44  24188972.479   125958083.935        3079.420          31.000  
C45  23087925.618   120224771.691       -2037.017          45.000  
E07  27492112.463   144471984.931       -2805.388          41.000  
E27  24067530.751   126475695.146         994.987          44.000  
E30  24651900.900   129546611.344       -1043.520          31.000  
E34  24980716.866   131274395.335        -211.050          35.000  
G01  23068423.819   121225327.244        3504.598          45.000  
G02  21359378.067   112244269.697        2165.985          46.000  
G07  20823480.461   109427891.366         879.738          41.000  
G08  20074225.659   105490632.429       -1134.644          36.000  
G16  24146304.817   126889551.095       -2888.042          25.000  
G27  22192328.027   116621250.809       -3008.299          38.000  
G30  22563627.882   118572408.727        2638.574          38.000  
J02  39243985.810   206228470.224         307.741          27.000  
J03  38064264.714   200028889.309         -79.464          47.000  
> 2025 03 17 03 02 02.9997876  0 25                     
C01  38322957.256   199557548.591          40.289          37.000  
C03  37396473.548   194733095.449          46.319          36.000  
C06  36206881.485   188538494.159        -769.344          39.000  
C07  36163005.360   188310214.698         222.999          33.000  
C09  36191580.378   188459039.941        -176.606          23.000  
C10  37234155.718   193887986.458         328.891          38.000  
C16  36577339.822   190467604.186        -867.553          40.000  
C26  21860330.196   113832253.743         910.862          39.000  
C35  21701820.030   113006901.643        1048.372          36.000  
C40  36044622.115   187693571.568          47.893          36.000  
C44  24188414.696   125955422.099        3081.570          32.000  
C45  23088345.159   120226949.659       -2035.338          45.000  
E07  27492672.307   144474931.951       -2804.123          41.000  
E27  24067367.196   126474842.672         996.951          44.000  
E30  24652125.576   129547797.127       -1041.832          29.000  
E34  24980791.945   131274749.402        -210.154          34.000  
G01  23067784.193   121221965.338        3507.262          46.000  
G02  21358993.564   112242246.705        2167.852          46.000  
G07  20823344.486   109427155.069         880.311          42.000  
G08  20074466.823   105491908.751       -1131.042          33.000  
G16  24146881.150   126892583.869       -2888.042          24.000  
G27  22192929.242   116624400.734       -3006.384          38.000  
G30  22563156.439   118570186.984        2641.319          39.000  
J02  39243956.861   206228306.342         307.318          28.000  
J03  38064308.015   200029110.659         -77.046          47.000  
> 2025 03 17 03 02 03.9997265  0 25                     
C01  38322947.607   199557491.887          43.668          37.000  
C03  37396464.198   194733031.900          47.963          37.000  
C06  36207029.526   188539247.861        -768.692          39.000  
C07  36162963.333   188309975.097         225.207          34.000  
C09  36191615.997   188459195.622        -162.541          24.000  
C10  37234089.707   193887642.066         329.922          38.000  
C16  36577504.352   190468455.452        -867.094          41.000  
C26  21860156.260   113831327.425         911.043          39.000  
C35  21701615.815   113005838.059        1048.692          36.000  
C40  36044609.168   187693507.441          49.114          36.000  
C44  24187822.850   125952323.943        3082.431          31.000  
C45  23088735.133   120228967.161       -2034.978          45.000  
E07  27493206.181   144477717.881       -2802.997          41.000  
E27  24067176.771   126473829.632         997.232          45.000  
E30  24652314.089   129548822.308       -1040.484          30.000  
E34  24980830.562   131274942.716        -210.036          34.000  
G01  23067115.300   121218443.061        3507.482          45.000  
G02  21358578.595   112240063.249        2168.339          46.000  
G07  20823175.947   109426527.590         881.400          42.000  
G08  20074678.720   105493022.346       -1131.403          32.000  
G16  24147427.915   126895453.715       -2886.133          28.000  
G27  22193500.890   116627389.930       -3004.690          37.000  
G30  22562653.331   118567529.990        2641.865          39.000  
J02  39243898.945   206227982.582         309.237          29.000  
J03  38064319.951   200029170.376         -76.110          47.000  
> 2025 03 17 03 02 04.9996654  0 25                     
C01  38322937.966   199557433.662          44.524          37.000  
C03  37396455.157   194732972.202          45.440          36.000  
C06  36207174.879   188540002.377        -772.254          38.000  
C07  36162919.516   188309737.277         223.498          33.000  
C09  36191653.424   188459345.081        -162.145          23.000  
C10  37234022.207   193887300.850         326.227          37.000  
C16  36577670.690   190469309.818        -869.929          41.000  
C26  21859980.535   113830405.171         906.935          39.000  
C35  21701412.809   113004778.606        1044.660          37.000  
C40  36044597.729   187693447.015          45.738          36.000  
C44  24187232.212   125949230.603        3078.367          33.000  
C45  23089125.415   120230989.732       -2037.823          45.000  
E07  27493737.366   144480506.925       -2803.656          41.000  
E27  24066985.157   126472820.164         996.513          44.000  
E30  24652508.908   129549849.351       -1043.676          28.000  
E34  24980867.690   131275138.287        -211.279          34.000  
G01  23066446.416   121214923.927        3504.383          45.000  
G02  21358164.235   112237883.475        2164.687          46.000  
G07  20823008.615   109425634.747         877.788          42.000  
G08  20074891.226   105494141.595       -1135.065          31.000  
G16  24147974.689   126898326.213       -2886.064          29.000  
G27  22194071.948   116630380.702       -3007.335          38.000  
G30  22562151.132   118564877.125        2638.064          39.000  
J02  39243837.741   206227660.060         309.014          29.000  
J03  38064332.795   200029233.395         -79.276          47.000  
> 2025 03 17 03 02 05.9996043  0 25                     
C01  38322928.242   199557378.776          37.927          37.000  
C03  37396443.634   194732915.465          41.052          36.000  
C06  36207323.145   188541032.407        -778.092          39.000  
C07  36162874.716   188309503.975         216.830          34.000  
C09  36191688.968   188459493.355        -162.188          22.000  
C10  37233958.520   193886964.311         320.152          37.000  
C16  36577836.944   190470169.104        -876.079          41.000  
C26  21859805.625   113829487.127         901.883          39.000  
C35  21701215.414   113003723.095        1039.639          37.000  
C40  36044589.503   187693390.448          40.728          37.000  
C44  24186649.584   125946141.889        3073.808          31.000  
C45  23089515.614   120233017.139       -2043.754          45.000  
E15  25012100.536   131439312.2301       2424.314          40.000  
E27  24066795.257   126471814.915         992.048          45.000  
E30  24652695.847   129550879.943       -1049.509          29.000  
E34  24980909.529   131275339.163        -215.219          35.000  
G01  23065777.747   121211409.235        3498.619          45.000  
G02  21357750.990   112235708.764        2158.285          46.000  
G07  20822841.800   109424746.890         871.452          42.000  
G08  20075107.545   105495263.992       -1140.035          32.000  
G16  24148522.279   126901199.567       -2890.578          29.000  
G27  22194644.720   116633645.113       -3013.705          38.000  
G30  22561649.448   118562228.540        2632.436          39.000  
J02  39243776.452   206227339.173         305.576          27.000  
J03  38064347.054   200029301.081         -85.015          47.000  
> 2025 03 17 03 02 06.9995433  0 25                     
C01  38322951.111   199557488.146          28.520          38.000  
C03  37396463.505   194733018.738          38.281          36.000  
C06  36207501.606   188541955.826        -783.207          39.000  
C07  36162861.310   188309433.194         211.270          32.000  
C09  36191747.212   188459798.763        -165.234          21.000  
C10  37233925.927   193886789.957         315.487          37.000  
C16  36578033.692   190471190.561        -881.481          41.000  
C26  21859660.609   113828732.152         895.270          39.000  
C35  21701046.116   113002830.521        1032.855          37.000  
C40  36044611.772   187693496.707          34.077          37.000  
C44  24186080.063   125943215.152        3066.455          32.000  
C45  23089937.207   120235204.804       -2049.549          45.000  
E15  25011671.018   131437039.356        2417.475          40.000  
E27  24066635.253   126470973.614         985.807          44.000  
E30  24652924.373   129552075.277       -1054.456          28.000  
E34  24980974.369   131275704.974        -227.253          34.000  
G01  23065141.372   121208058.855        3492.828          45.000  
G02  21357368.839   112233698.327        2152.652          46.000  
G07  20822704.579   109424023.405         865.614          42.000  
G08  20075351.361   105496551.099       -1146.655          31.000  
G16  24149101.862   126904236.126       -2897.263          30.000  
G27  22195247.687   116636806.403       -3020.087          38.000  
G30  22561178.559   118559744.087        2625.706          40.000  
J02  39243749.555   206227182.396         296.515          25.000  
J03  38064392.407   200029533.010         -90.522          47.000  
> 2025 03 17 03 02 07.9994822  0 25                     
C01  38322943.541   199557444.674          26.842          37.000  
C03  37396454.736   194732968.440          31.844          36.000  
C06  36207650.228   188542724.620        -785.890          39.000  
C07  36162820.163   188309209.288         208.169          33.000  
C09  36191776.217   188459948.934        -168.281          21.000  
C10  37233863.495   193886460.926         312.825          37.000  
C16  36578201.201   190472056.787        -884.517          41.000  
C26  21859488.454   113828092.000         893.069          39.000  
C35  21700846.679   113001784.201        1030.810          37.000  
C40  36044601.804   187693449.611          30.700          37.000  
C44  24185488.197   125940135.049        3064.521          31.000  
C45  23090330.759   120237240.805       -2052.710          45.000  
E15  25011210.162   131434610.930        2414.337          40.000  
E27  24066447.508   126469976.379         982.859          45.000  
E30  24653118.264   129553115.796       -1055.819          30.000  
E34  24981011.468   131275917.749        -228.147          35.000  
G01  23064475.159   121204552.566        3489.937          45.000  
G02  21356956.849   112231532.191        2149.307          45.000  
G07  20822538.419   109423144.196         862.208          42.000  
G08  20075568.935   105497684.386       -1151.505          32.000  
G16  24149654.005   126907120.771       -2901.883          32.000  
G27  22195819.317   116639811.997       -3022.823          38.000  
G30  22560676.931   118557104.751        2623.789          40.000  
J02  39243692.519   206226873.777         291.547          28.000  
J03  38064408.221   200029608.213         -93.310          47.000  
> 2025 03 17 03 02 09.0004211  0 25                     
C01  38322956.853   199557502.053          24.492          37.000  
C03  37396466.250   194733021.631          28.027          36.000  
C06  36207818.533   188543594.715        -788.689          38.000  
C07  36162798.100   188309083.811         207.672          32.000  
C09  36191827.903   188460198.766        -168.521          21.000  
C10  37233822.246   193886231.804         309.824          37.000  
C16  36578389.292   190473024.302        -886.851          41.000  
C26  21859338.379   113827282.703         889.555          40.000  
C35  21700665.726   113000836.316        1027.193          36.000  
C40  36044610.919   187693502.044          28.974          36.000  
C44  24184916.315   125937152.199        3060.351          30.000  
C45  23090742.196   120239377.344       -2054.857          45.000  
E15  25010767.490   131432281.092        2410.565          40.000  
E27  24066277.947   126469079.591         979.166          45.000  
E30  24653326.142   129554255.825       -1061.124          28.000  
E34  24981064.353   131276227.770        -228.963          34.000  
G01  23063827.729   121201143.898        3487.534          45.000  
G02  21356564.243   112229465.658        2146.376          45.000  
G07  20822391.343   109422365.839         859.805          42.000  
G08  20075802.895   105498919.953       -1154.119          30.000  
G16  24150224.932   126910109.552       -2905.061          32.000  
G27  22196412.428   116642920.075       -3024.737          38.000  
G30  22560194.986   118554563.447        2620.153          40.000  
J02  39243653.968   206226667.616         286.606          25.000  
J03  38064442.819   200029786.252         -95.961          47.000  
> 2025 03 17 03 02 10.0003600  0 25                     
C01  38322951.289   199557465.629          22.625          37.000  
C03  37396459.785   194732980.265          28.153          36.000  
C06  36207968.860   188544369.438        -788.274          38.000  
C07  36162754.761   188308864.283         205.772          32.000  
C09  36191864.309   188460355.634        -174.682          20.000  
C10  37233760.320   193885907.876         310.795          37.000  
C16  36578556.708   190473897.217        -886.462          41.000  
C26  21859168.828   113826379.365         889.855          40.000  
C35  21700468.594   112999796.951        1026.862          36.000  
C40  36044603.556   187693460.087          28.944          36.000  
C44  24184327.954   125934078.744        3060.328          28.000  
C45  23091137.454   120241419.524       -2055.399          45.000  
E15  25010309.239   131429858.895        2409.340          41.000  
E27  24066089.509   126468087.850         978.559          45.000  
E30  24653531.631   129555303.306       -1060.442          28.000  
E34  24981105.556   131276445.796        -231.057          35.000  
G01  23063161.721   121197643.482        3487.379          45.000  
G02  21356154.258   112227306.433        2145.778          45.000  
G07  20822226.888   109421493.322         858.609          42.000  
G08  20076021.275   105500060.947       -1154.102          30.000  
G16  24150779.979   126912999.568       -2905.650          32.000  
G27  22196986.362   116645930.672       -3025.346          38.000  
G30  22559696.263   118551930.562        2619.633          40.000  
J02  39243596.539   206226368.294         298.394          24.000  
J03  38064459.439   200029867.836         -95.626          47.000  
> 2025 03 17 03 02 11.0002989  0 25                     
C01  38322943.878   199557426.525          25.542          36.000  
C03  37396451.176   194732936.739          28.837          35.000  
C06  36208117.342   188545139.540        -788.144          38.000  
C07  36162714.074   188308642.637         207.264          33.000  
C09  36191896.471   188460516.1591       -179.438          20.000  
C10  37233696.848   193885581.590         311.129          37.000  
C16  36578724.376   190474766.509        -887.020          41.000  
C26  21858995.332   113825474.107         890.106          39.000  
C35  21700269.916   112998754.677        1026.564          36.000  
C40  36044597.045   187693415.504          29.731          36.000  
C44  24183737.147   125931003.787        3059.202          23.000  
C45  23091529.966   120243456.761       -2055.158          45.000  
E15  25009848.542   131427434.257        2409.374          41.000  
E27  24065901.623   126467094.235         978.379          44.000  
E30  24653729.578   129556349.485       -1059.803          29.000  
E34  24981143.114   131276660.432        -230.908          35.000  
G01  23062495.966   121194140.578        3487.604          45.000  
G02  21355743.926   112225144.952        2146.218          45.000  
G07  20822062.086   109420619.412         858.536          42.000  
G08  20076243.206   105501197.353       -1151.958          30.000  
G16  24151334.079   126915888.261       -2904.718          33.000  
G27  22197558.450   116648939.850       -3024.920          37.000  
G30  22559197.792   118549294.836        2619.854          41.000  
J02  39243537.864   206226056.576         295.434          23.000  
J03  38064475.712   200029946.340         -95.668          47.000  
> 2025 03 17 03 02 12.0002378  0 25                     
C01  38322937.910   199557387.473          25.740          36.000  
C03  37396445.208   194732895.976          26.946          36.000  
C06  36208267.866   188545916.080        -792.998          38.000  
C07  36162672.731   188308424.068         201.890          32.000  
C09  36191934.273   188460684.357        -185.982          22.000  
C10  37233638.417   193885259.305         305.685          37.000  
C16  36578895.885   190475909.098        -891.746          41.000  
C26  21858825.678   113824573.630         884.125          39.000  
C35  21700075.379   112997986.954        1021.160          37.000  
C40  36044588.079   187693374.241          24.736          35.000  
C44  24183147.184   125927931.896        3057.561          22.000  
C45  23091924.521   120245499.954       -2059.837          45.000  
E15  25009390.487   131425014.357        2406.223          41.000  
E27  24065715.180   126466104.616         975.788          44.000  
E30  24653934.065   129557396.396       -1064.140          29.000  
E34  24981197.105   131276879.744        -234.354          34.000  
G01  23061831.055   121190641.915        3482.545          45.000  
G02  21355334.738   112222987.980        2140.656          45.000  
G07  20821900.227   109419749.855         853.376          43.000  
G08  20076462.682   105502334.947       -1156.265          30.000  
G16  24151889.023   126918779.313       -2907.131          33.000  
G27  22198132.281   116651950.341       -3029.548          37.000  
G30  22558698.666   118546663.571        2614.958          41.000  
J02  39243481.831   206225749.067         292.126          21.000  
J03  38064492.528   200030029.264        -100.117          47.000  
> 2025 03 17 03 02 13.0001767  0 25                     
C01  38322932.270   199557352.067          22.813          36.000  
C03  37396436.870   194732854.724          28.589          35.000  
C06  36208419.917   188546693.511        -787.378          38.000  
C07  36162635.912   188308208.437         205.111          32.000  
C09  36191971.204   188460859.041        -190.658          20.000  
C10  37233580.613   193884938.125         312.612          37.000  
C16  36579065.324   190476784.433        -884.983          41.000  
C26  21858652.154   113823673.479         891.455          40.000  
C35  21699881.769   112996950.346        1028.289          37.000  
C40  36044579.441   187693334.948          29.466          35.000  
C44  24182560.846   125924862.1151       3055.509          20.000  
C45  23092320.603   120247544.629       -2053.760          45.000  
E15  25008930.962   131422594.245        2407.368          40.000  
E27  24065526.367   126465114.944         976.756          44.000  
E30  24654140.678   129558446.395       -1062.940          28.000  
E34  24981240.332   131277099.645        -233.296          34.000  
G01  23061166.471   121187144.297        3489.222          45.000  
G02  21354926.476   112220831.976        2146.742          45.000  
G07  20821736.596   109418881.302         859.548          42.000  
G08  20076679.788   105503477.079       -1155.768          30.000  
G16  24152444.295   126921950.820       -2906.688          32.000  
G27  22198706.140   116654964.808       -3024.937          37.000  
G30  22558200.167   118544033.106        2622.131          42.000  
J02  39243427.625   206225446.7101        288.955          19.000  
J03  38064509.373   200030113.862         -93.712          47.000  
> 2025 03 17 03 02 14.0001156  0 25                     
C01  38322925.104   199557309.646          31.379          36.000  
C03  37396428.504   194732807.650          36.757          35.000  
C06  36208567.443   188547457.456        -779.011          39.000  
C07  36162594.569   188307981.789         216.472          33.000  
C09  36192004.209   188461034.0791       -193.534          20.000  
C10  37233515.286   193884604.498         320.781          37.000  
C16  36579232.936   190477648.035        -877.752          42.000  
C26  21858480.701   113822761.873         898.533          40.000  
C35  21699682.435   112995902.556        1034.810          38.000  
C40  36044571.075   187693283.642          39.977          35.000  
C44  24181975.080   125921791.8631       3054.796          19.000  
C45  23092712.161   120249575.523       -2046.414          45.000  
E15  25008471.108   131420163.042        2415.171          40.000  
E27  24065337.226   126464113.924         984.965          44.000  
E30  24654338.269   129559491.682       -1054.696          23.000  
E34  24981283.230   131277309.683        -226.306          34.000  
G01  23060499.161   121183634.386        3497.351          44.000  
G02  21354515.189   112218664.689        2154.003          45.000  
G07  20821572.038   109418001.462         866.650          43.000  
G08  20076896.866   105504612.863       -1147.547          30.000  
G16  24152996.541   126924837.844       -2902.151          28.000  
G27  22199278.472   116657966.628       -3015.717          37.000  
G30  22557699.242   118541390.726        2629.098          41.000  
J02  39243372.791   206225140.4631        292.004          13.000  
J03  38064524.391   200030185.026         -85.143          47.000  
> 2025 03 17 03 02 15.0000546  0 25                     
C01  38322947.897   199557419.053          38.548          36.000  
C03  37396449.798   194732913.766          39.729          35.000  
C06  36208746.428   188548381.202        -780.772          39.000  
C07  36162577.790   188307908.366         216.114          32.000  
C09  36192068.374   188461370.9741       -193.684          16.000  
C10  37233483.218   193884429.892         318.761          37.000  
C16  36579432.008   190478669.103        -879.512          42.000  
C26  21858336.810   113822009.514         896.421          40.000  
C35  21699514.561   112995013.132        1033.497          38.000  
C40  36044594.468   187693661.823          37.664          35.000  
C44  24181421.672   125918881.1321       3054.945          19.000  
C45  23093136.376   120251767.588       -2048.605          46.000  
E15  25008040.616   131417892.441        2415.815          40.000  
E27  24065177.146   126463273.114         985.895          44.000  
E30  24654565.521   129560691.069       -1051.127          27.000  
E34  24981366.282   131277965.599        -225.355          34.000  
G01  23059862.711   121180284.741        3494.966          45.000  
G02  21354135.062   112216658.311        2151.638          45.000  
G07  20821437.141   109417282.405         864.363          42.000  
G08  20077139.407   105505901.403       -1145.313          29.000  
G16  24153577.248   126927877.821       -2895.889          31.000  
G27  22199879.565   116661128.231       -3017.080          37.000  
G30  22557228.577   118538909.355        2626.952          41.000  
J02  39243344.620   206224986.0351        300.235          15.000  
J03  38064569.669   200030415.524         -87.544          47.000  
> 2025 03 17 03 02 15.9999935  0 25                     
C01  38322939.025   199557366.647          39.520          36.000  
C03  37396440.627   194732859.704          43.329          35.000  
C06  36208894.048   188549144.773        -775.430          39.000  
C07  36162538.040   188307677.525         219.454          32.000  
C09  36192109.867   188461812.7321       -193.652          15.000  
C10  37233421.882   193884094.840         324.024          38.000  
C16  36579597.915   190479530.632        -873.075          42.000  
C26  21858160.954   113821096.789         901.086          40.000  
C35  21699314.721   112993964.152        1037.954          38.000  
C40  36044584.397   187693608.841          42.086          35.000  
C44  24180833.601   125915812.7951       3056.037          19.000  
C45  23093528.627   120254063.692       -2043.247          46.000  
E15  25007576.659   131415459.583        2419.552          40.000  
E27  24064988.399   126462269.749         989.786          44.000  
E30  24654764.705   129561725.940       -1048.126          28.000  
E34  24981399.381   131278173.336        -221.397          33.000  
G01  23059195.195   121176773.395        3500.396          45.000  
G02  21353722.969   112214490.205        2157.063          45.000  
G07  20821271.477   109416401.503         869.598          42.000  
G08  20077356.579   105507032.467       -1143.013          30.000  
G16  24154126.890   126930757.527       -2891.779          33.000  
G27  22200449.293   116664126.956       -3012.398          37.000  
G30  22556727.746   118536266.288        2631.766          41.000  
J02  39243280.886   206224671.5531        302.079          16.000  
J03  38064584.480   200030486.701         -81.726          47.000  
> 2025 03 17 03 02 16.9999324  0 25                     
C01  38322929.460   199557312.945          38.007          36.000  
C03  37396430.462   194732801.719          42.616          34.000  
C06  36209042.473   188549905.167        -775.977          38.000  
C07  36162492.199   188307443.417         220.660          32.000  
C09  36192157.862   188461973.9881       -175.488          15.000  
C10  37233359.553   193883756.705         323.428          38.000  
C16  36579764.328   190480390.162        -873.965          42.000  
C26  21857986.203   113820182.029         901.014          40.000  
C35  21699115.087   112992912.422        1037.360          38.000  
C40  36044572.434   187693551.703          43.883          35.000  
C44  24180251.132   125912741.5281       3082.144          19.000  
C45  23093920.483   120256093.532       -2044.177          46.000  
E15  25007117.105   131413287.478        2420.970          40.000  
E27  24064798.059   126461263.935         991.612          44.000  
E30  24654966.494   129562759.138       -1046.853          30.000  
E34  24981439.281   131278377.865        -221.138          33.000  
G01  23058527.885   121173258.932        3500.410          44.000  
G02  21353311.682   112212319.625        2156.106          45.000  
G07  20821103.922   109415518.259         868.908          42.000  
G08  20077569.760   105508159.757       -1140.984          29.000  
G16  24154675.838   126933632.079       -2889.974          33.000  
G27  22201018.926   116667124.209       -3011.447          36.000  
G30  22556226.221   118533620.373        2631.188          40.000  
J02  39243218.257   206224354.4591        304.149          14.000  
J03  38064598.599   200030814.941         -81.923          47.000  
> 2025 03 17 03 02 17.9998713  0 25                     
C01  38322920.719   199557260.693          40.981          36.000  
C03  37396421.421   194732748.090          42.155          35.000  
C06  36209189.025   188550666.081        -775.196          38.000  
C07  36162448.083   188307210.580         220.864          31.000  
C09  36192174.604   188462136.1041       -175.956          16.000  
C10  37233296.850   193883419.686         325.044          38.000  
C16  36579931.266   190481250.961        -873.151          42.000  
C26  21857811.977   113819268.023         901.778          41.000  
C35  21698911.481   112991862.523        1037.602          38.000  
C40  36044563.993   187693496.047          43.424          35.000  
C44  24179651.800   125909647.578        3080.594          24.000  
C45  23094311.966   120258122.173       -2042.839          46.000  
E15  25006654.478   131410853.560        2421.322          40.000  
E27  24064607.344   126460259.369         991.980          44.000  
E30  24655167.008   129563792.479       -1045.774          30.000  
E34  24981475.809   131278586.804        -221.253          33.000  
G01  23057861.400   121169745.753        3500.835          45.000  
G02  21352900.020   112210150.563        2156.760          45.000  
G07  20820937.790   109414636.419         869.295          41.000  
G08  20077790.960   105509287.322       -1143.768          31.000  
G16  24155224.711   126936508.660       -2889.283          33.000  
G27  22201587.886   116670122.619       -3012.306          36.000  
G30  22555726.421   118530976.065        2631.897          41.000  
J02  39243155.854   206224036.2651        306.700           9.000  
J03  38064613.242   200030883.649         -81.185          47.000  
> 2025 03 17 03 02 18.9998102  0 25                     
C01  38322910.573   199557203.766          42.757          36.000  
C03  37396411.275   194732689.738          42.784          35.000  
C06  36209334.771   188551425.240        -773.635          38.000  
C07  36162400.763   188306973.471         222.473          31.000  
C09  36192196.835   188462296.0811       -175.360          15.000  
C10  37233232.142   193883078.692         326.915          38.000  
C16  36580095.599   190482105.991        -872.286          42.000  
C26  21857637.544   113818350.493         903.112          41.000  
C35  21698711.566   112990809.159        1038.867          38.000  
C40  36044557.144   187693436.604          45.031          36.000  
C44  24179050.464   125906552.844        3078.755          24.000  
C45  23094702.342   120260149.315       -2042.002          46.000  
E15  25006191.346   131408416.562        2421.955          40.000  
E27  24064415.823   126459250.726         993.251          43.000  
E30  24655363.119   129564822.161       -1046.180          30.000  
E34  24981508.533   131278789.922        -219.802          33.000  
G01  23057192.610   121166229.130        3501.940          44.000  
G02  21352488.152   112207978.086        2157.707          45.000  
G07  20820769.353   109413751.785         869.819          41.000  
G08  20078007.157   105510412.546       -1140.689          31.000  
G16  24155771.279   126939381.251       -2888.374          34.000  
G27  22202159.037   116673118.374       -3011.068          36.000  
G30  22555224.315   118528328.416        2633.243          41.000  
J02  39243098.640   206223709.0101        312.583          10.000  
J03  38064627.079   200030946.508         -79.828          47.000  
> 2025 03 17 03 02 19.9997492  0 24                     
C01  38322930.612   199557302.129          44.798          37.000  
C03  37396429.815   194732787.884          44.066          35.000  
C06  36209511.602   188552339.891        -774.996          38.000  
C07  36162386.626   188306893.651         220.375          31.000  
C09  36192254.948   188462611.5341       -175.202          19.000  
C10  37233197.619   193882894.816         325.040          38.000  
C16  36580292.216   190483120.358        -872.816          42.000  
C26  21857492.698   113817590.236         901.092          41.000  
C35  21698537.640   112989912.835        1036.923          38.000  
C40  36044578.982   187693533.625          44.421          36.000  
C44  24178483.509   125903618.472        3075.015          26.000  
C45  23095122.604   120262331.650       -2043.799          46.000  
E15  25005762.296   131406137.568        2421.949          40.000  
E27  24064253.589   126458400.764         993.033          43.000  
E30  24655588.516   129566010.275       -1046.201          30.000  
E34  24981572.342   131279152.484        -220.124          33.000  
G01  23056554.904   121162870.772        3501.105          45.000  
G02  21352106.169   112205964.399        2155.689          45.000  
G07  20820632.001   109413025.884         868.203          41.000  
G08  20078256.537   105511695.691       -1141.666          32.000  
G16  24156350.432   126942410.974       -2889.803          33.000  
G27  22202759.774   116676271.440       -3011.813          36.000  
G30  22554751.795   118525839.341        2631.267          41.000  
J03  38064671.102   200031170.357         -81.143          47.000  
> 2025 03 17 03 02 20.9996881  0 24                     
C01  38322921.394   199557508.022          42.121          37.000  
C03  37396418.198   194732729.671          49.396          34.000  
C06  36209659.175   188553100.242        -775.293          38.000  
C07  36162343.231   188306659.329         220.458          31.000  
C09  36192282.304   188462772.9161       -175.882          18.000  
C10  37233133.838   193882555.694         325.331          38.000  
C16  36580458.675   190483978.033        -873.717          42.000  
C26  21857317.994   113816675.806         900.860          41.000  
C35  21698336.254   112988862.726        1035.639          38.000  
C40  36044567.665   187693476.597          43.285          35.000  
C44  24177890.595   125900531.843        3073.281          26.000  
C45  23095513.609   120264361.250       -2043.900          46.000  
E15  25005297.393   131403703.481        2420.833          40.000  
E27  24064065.094   126457394.870         992.473          43.000  
E30  24655795.448   129567040.838       -1046.851          31.000  
E34  24981606.294   131279358.055        -221.813          32.000  
G01  23055887.941   121159356.940        3500.267          45.000  
G02  21351694.929   112203795.408        2155.102          45.000  
G07  20820464.792   109412144.193         867.313          41.000  
G08  20078478.159   105513114.106       -1142.245          31.000  
G16  24156898.527   126945286.525       -2889.807          33.000  
G27  22203328.555   116679268.707       -3012.194          36.000  
G30  22554250.317   118523194.581        2631.564          41.000  
J03  38064685.567   200031236.122         -81.139          47.000  
> 2025 03 17 03 02 21.9996270  0 24                     
C01  38322911.425   199557453.276          41.216          37.000  
C03  37396407.931   194732667.653          47.529          35.000  
C06  36209807.197   188553859.344        -774.979          39.000  
C07  36162294.889   188306424.875         220.706          31.000  
C09  36192314.607   188462933.755        -176.265          21.000  
C10  37233069.607   193882216.483         325.511          39.000  
C16  36580625.585   190484837.177        -872.953          42.000  
C26  21857144.938   113815760.716         900.088          41.000  
C35  21698137.417   112987812.214        1036.472          38.000  
C40  36044555.598   187693418.937          44.122          35.000  
C44  24177295.731   125897444.651        3071.960          25.000  
C45  23095904.763   120266389.974       -2043.456          46.000  
E15  25004838.635   131401268.489        2420.852          40.000  
E27  24063873.752   126456388.098         992.380          43.000  
E30  24655985.741   129568074.118       -1047.318          31.000  
E34  24981643.393   131279565.665        -221.851          31.000  
G01  23055219.629   121155841.950        3500.921          44.000  
G02  21351282.939   112201626.039        2155.302          45.000  
G07  20820298.332   109411262.552         867.340          41.000  
G08  20078698.431   105514242.636       -1144.437          31.000  
G16  24157443.775   126948162.211       -2891.148          32.000  
G27  22203899.285   116682264.361       -3013.166          35.000  
G30  22553747.790   118520548.825        2631.146          41.000  
J03  38064698.982   200031301.411         -80.827          47.000  
