     3.04           OBSERVATION DATA    M: Mixed            RINEX VERSION / TYPE
RTKCONV demo5 b34k                      20250524 075038 UTC PGM / RUN BY / DATE 
format: RINEX                                               COMMENT             
log: E:\Proj-ES\GNSS-SPP\RTKLIB-py\data\unisoc\20250523\�߼�COMMENT             
  1\rover.obs                                               COMMENT             
Geo++                                                       MARKER NAME         
                                                            MARKER NUMBER       
                                                            MARKER TYPE         
                                                            OBSERVER / AGENCY   
unknown             UNISOC              uis7865_6h10_go_a32bREC # / TYPE / VERS 
unknown             uis7865_6h10_go_a32b                    ANT # / TYPE        
 -2182036.5075  4380761.7127  4076356.6711                  APPROX POSITION XYZ 
        0.0000        0.0000        0.0000                  ANTENNA: DELTA H/E/N
G    4 C1C L1C D1C S1C                                      SYS / # / OBS TYPES 
E    4 C1C L1C D1C S1C                                      SYS / # / OBS TYPES 
J    4 C1C L1C D1C S1C                                      SYS / # / OBS TYPES 
C    4 C2I L2I D2I S2I                                      SYS / # / OBS TYPES 
  2025    05    23    06    10   43.0000941     GPS         TIME OF FIRST OBS   
  2025    05    23    06    30   36.0002910     GPS         TIME OF LAST OBS    
G L1C                                                       SYS / PHASE SHIFT   
E L1C  0.00000                                              SYS / PHASE SHIFT   
J L1C                                                       SYS / PHASE SHIFT   
C L2I                                                       SYS / PHASE SHIFT   
 24 R01  1 R02 -4 R03  5 R04  6 R05  1 R06 -4 R07  5 R08  6 GLONASS SLOT / FRQ #
    R09 -2 R10 -5 R11  0 R12 -1 R13 -2 R14 -7 R15  0 R16 -1 GLONASS SLOT / FRQ #
    R17  4 R18 -3 R19  3 R20  2 R21  4 R22 -3 R23  3 R24  2 GLONASS SLOT / FRQ #
 C1C    0.000 C1P    0.000 C2C    0.000 C2P    0.000        GLONASS COD/PHS/BIS 
                                                            END OF HEADER       
> 2025 05 23 06 10 43.0000941  0 17                     
C03  37185083.740   193632488.671         154.003          31.000  
C08  36552904.788   190340566.966         252.021          28.000  
C13  37290499.162   194181187.408         429.976          33.000  
C30  21730725.569   113157336.994        -730.731          30.000  
C32  22366648.929   116469009.593        -852.777          33.000  
C40  36580353.186   190483497.939        -853.608          23.000  
E08  25283933.535   132867967.316         171.149          23.000  
E13  24264619.991   127511438.792        -870.348          26.000  
E26  24092736.383   126607930.358        1125.797          32.000  
G05  22376218.903   117587823.919        2823.279          32.000  
G06  21701943.994   114044277.9031      -1508.100          19.000  
G09  22517647.794   118330811.057       -1551.346          28.000  
G12  23256480.311   122213628.794       -2095.967          22.000  
G19  22699523.484   119286708.655       -3467.633          27.000  
G20  20517019.401   107817664.138         942.287          34.000  
G25  23549796.053   123755013.201        -696.521          34.000  
J03  38973780.151   204808597.006         573.180          26.000  
> 2025 05 23 06 10 43.0000941  0 17                     
C03  37185083.740   193632488.671         154.003          31.000  
C08  36552904.788   190340566.966         252.021          28.000  
C13  37290499.162   194181187.408         429.976          33.000  
C30  21730725.569   113157336.994        -730.731          30.000  
C32  22366648.929   116469009.593        -852.777          33.000  
C40  36580353.186   190483497.939        -853.608          23.000  
E08  25283933.535   132867967.316         171.149          23.000  
E13  24264619.991   127511438.792        -870.348          26.000  
E26  24092736.383   126607930.358        1125.797          32.000  
G05  22376218.903   117587823.919        2823.279          32.000  
G06  21701943.994   114044277.9031      -1508.100          19.000  
G09  22517647.794   118330811.057       -1551.346          28.000  
G12  23256480.311   122213628.794       -2095.967          22.000  
G19  22699523.484   119286708.655       -3467.633          27.000  
G20  20517019.401   107817664.138         942.287          34.000  
G25  23549796.053   123755013.201        -696.521          34.000  
J03  38973780.151   204808597.006         573.180          26.000  
> 2025 05 23 06 10 43.0000941  0 17                     
C03  37185083.740   193632488.671         154.003          31.000  
C08  36552904.788   190340566.966         252.021          28.000  
C13  37290499.162   194181187.408         429.976          33.000  
C30  21730725.569   113157336.994        -730.731          30.000  
C32  22366648.929   116469009.593        -852.777          33.000  
C40  36580353.186   190483497.939        -853.608          23.000  
E08  25283933.535   132867967.316         171.149          23.000  
E13  24264619.991   127511438.792        -870.348          26.000  
E26  24092736.383   126607930.358        1125.797          32.000  
G05  22376218.903   117587823.919        2823.279          32.000  
G06  21701943.994   114044277.9031      -1508.100          19.000  
G09  22517647.794   118330811.057       -1551.346          28.000  
G12  23256480.311   122213628.794       -2095.967          22.000  
G19  22699523.484   119286708.655       -3467.633          27.000  
G20  20517019.401   107817664.138         942.287          34.000  
G25  23549796.053   123755013.201        -696.521          34.000  
J03  38973780.151   204808597.006         573.180          26.000  
> 2025 05 23 06 10 44.0000331  0 17                     
C03  37185086.513   193632476.091         153.591          31.000  
C08  36552887.175   190340457.329         249.601          28.000  
C13  37290448.872   194180898.372         429.071          33.000  
C30  21730893.528   113158209.127        -731.861          30.000  
C32  22366839.672   116470002.292        -853.535          33.000  
C40  36580546.627   190484491.678        -854.297          24.000  
E08  25283933.909   132867939.333         169.577          25.000  
E13  24264818.528   127512450.679        -871.999          27.000  
E26  24092555.084   126607231.651        1125.147          32.000  
G05  22375712.929   117585144.713        2820.962          32.000  
G06  21702259.751   114045926.6381      -1508.573          20.000  
G09  22517971.345   118332504.258       -1552.026          27.000  
G12  23256906.691   122215867.561       -2096.781          23.000  
G19  22700213.981   119290318.083       -3467.974          27.000  
G20  20516869.579   107816865.211         940.816          34.000  
G25  23549958.016   123755852.056        -697.657          35.000  
J03  38973698.383   204808165.470         573.515          26.000  
> 2025 05 23 06 10 45.9999110  0 18                     
C03  37185056.459   193632300.634         156.670          33.000  
C08  36552816.050   190340086.274         251.459          27.000  
C10  36154888.629   188267992.1861       -459.924          34.000  
C13  37290306.396   194180167.427         433.419          33.000  
C30  21731200.141   113160061.016        -728.606          31.000  
C32  22367196.050   116471837.481        -852.489          33.000  
C40  36580902.706   190486325.555        -853.068          27.000  
E08  25283888.266   132867733.078         169.627          29.000  
E13  24265177.605   127514322.908        -870.722          29.000  
E26  24092151.488   126605111.952        1125.296          33.000  
G05  22374668.976   117579630.671        2822.235          34.000  
G06  21702861.359   114049074.012       -1509.579          23.000  
G09  22518593.040   118336004.907       -1552.686          28.000  
G12  23257733.743   122220190.094       -2096.752          26.000  
G19  22701567.769   119297383.749       -3468.487          24.000  
G20  20516536.135   107815111.427         943.833          33.000  
G25  23550249.639   123757375.584        -697.712          35.000  
J03  38973510.338   204807150.091         575.040          29.000  
> 2025 05 23 06 10 45.9999110  0 18                     
C03  37185056.459   193632300.634         156.670          33.000  
C08  36552816.050   190340086.274         251.459          27.000  
C10  36154888.629   188267992.186        -459.924          34.000  
C13  37290306.396   194180167.427         433.419          33.000  
C30  21731200.141   113160061.016        -728.606          31.000  
C32  22367196.050   116471837.481        -852.489          33.000  
C40  36580902.706   190486325.555        -853.068          27.000  
E08  25283888.266   132867733.078         169.627          29.000  
E13  24265177.605   127514322.908        -870.722          29.000  
E26  24092151.488   126605111.952        1125.296          33.000  
G05  22374668.976   117579630.671        2822.235          34.000  
G06  21702861.359   114049074.012       -1509.579          23.000  
G09  22518593.040   118336004.907       -1552.686          28.000  
G12  23257733.743   122220190.094       -2096.752          26.000  
G19  22701567.769   119297383.749       -3468.487          24.000  
G20  20516536.135   107815111.427         943.833          33.000  
G25  23550249.639   123757375.584        -697.712          35.000  
J03  38973510.338   204807150.091         575.040          29.000  
> 2025 05 23 06 10 46.9998500  0 18                     
C03  37185055.522   193632288.288         154.395          33.000  
C08  36552796.226   190339977.318         252.829          28.000  
C10  36155006.410   188268594.766        -460.745          34.000  
C13  37290254.494   194180139.854         431.940          34.000  
C30  21731369.486   113160932.522        -730.117          31.000  
C32  22367391.177   116472833.531        -852.342          33.000  
C40  36581093.936   190487321.036        -852.718          28.000  
E08  25283873.838   132867708.254         170.875          30.000  
E13  24265369.734   127515336.629        -868.180          30.000  
E26  24091968.277   126604130.503        1126.094          33.000  
G05  22374162.889   117576953.261        2823.081          35.000  
G06  21703177.303   114050726.918       -1507.993          24.000  
G09  22518917.078   118337700.272       -1551.961          28.000  
G12  23258160.011   122222429.285       -2096.367          24.000  
G19  22702259.952   119300995.427       -3467.776          26.000  
G20  20516385.602   107814313.099         943.779          33.000  
G25  23550410.890   123758217.812        -697.390          35.000  
J03  38973428.457   204806720.488         574.891          29.000  
> 2025 05 23 06 10 47.9997890  0 18                     
C03  37185054.510   193632277.854         151.577          43.000  
C08  36552776.027   190339867.294         253.858          29.000  
C10  36155126.814   188269196.620        -460.549          32.000  
C13  37290199.819   194179851.575         431.447          34.000  
C30  21731535.459   113161804.872        -728.514          32.000  
C32  22367583.232   116473826.862        -851.555          32.000  
C40  36581285.091   190488316.679        -851.855          29.000  
E08  25283881.820   132867682.743         169.764          27.000  
E13  24265560.290   127516350.897        -870.640          30.000  
E26  24091778.696   126603148.871        1126.189          33.000  
G05  22373656.128   117574275.308        2823.149          32.000  
G06  21703492.272   114052378.745       -1506.932          25.000  
G09  22519238.043   118339395.865       -1551.159          28.000  
G12  23258588.002   122224668.437       -2095.940          23.000  
G19  22702953.260   119304605.473       -3467.275          26.000  
G20  20516235.593   107813514.044         943.524          34.000  
G25  23550573.265   123759058.036        -696.535          35.000  
J03  38973345.302   204806289.736         576.141          28.000  
> 2025 05 23 06 10 48.9997279  0 18                     
C03  37185022.357   193632113.061         150.250          38.000  
C08  36552724.388   190339599.289         253.162          30.000  
C10  36155209.182   188269640.066        -458.731          31.000  
C13  37290116.102   194179406.354         429.945          35.000  
C30  21731675.686   113162519.357        -731.237          32.000  
C32  22367742.946   116474664.991        -853.331          32.000  
C40  36581447.204   190489151.460        -851.778          29.000  
E08  25283850.267   132867499.092         168.765          26.000  
E13  24265728.098   127517204.595        -870.850          30.000  
E26  24091559.473   126602008.403        1126.473          32.000  
G05  22373116.426   117571437.504        2823.399          32.000  
G06  21703778.799   114053870.229       -1507.540          26.000  
G09  22519531.165   118340932.464       -1552.684          27.000  
G12  23258986.651   122226749.1231      -2095.534          18.000  
G19  22703614.527   119308057.053       -3467.179          27.000  
G20  20516053.544   107812556.985         940.605          36.000  
G25  23550705.099   123759739.324        -698.394          36.000  
J03  38973236.103   204805699.926         574.359          28.000  
> 2025 05 23 06 10 50.9996059  0 18                     
C03  37185022.919   193632095.838         149.477          32.000  
C08  36552687.776   190339377.787         253.094          31.000  
C10  36155439.085   188270840.633        -458.005          34.000  
C13  37290007.240   194178827.262         433.895          35.000  
C30  21732018.612   113164267.027        -732.968          29.000  
C32  22368128.142   116476656.783        -856.197          27.000  
C40  36581830.301   190491140.145        -854.307          29.000  
E08  25283825.947   132867449.812         169.009          27.000  
E13  24266109.697   127519231.303        -870.510          31.000  
E26  24091181.397   126600040.202        1129.105          33.000  
G05  22372098.893   117566078.995        2823.618          35.000  
G06  21704415.821   114057474.488       -1509.152          27.000  
G09  22520186.175   118344323.968       -1554.012          27.000  
G12  23259842.221   122231225.817       -2096.138          22.000  
G19  22704989.338   119315280.849       -3474.070          34.000  
G20  20515753.115   107810959.547         944.871          35.000  
G25  23551026.439   123761417.929        -693.998          37.000  
J03  38973076.276   204804839.107         573.950          26.000  
> 2025 05 23 06 10 50.9996059  0 18                     
C03  37185022.919   193632095.838         149.477          32.000  
C08  36552687.776   190339377.787         253.094          31.000  
C10  36155439.085   188270840.633        -458.005          34.000  
C13  37290007.240   194178827.262         433.895          35.000  
C30  21732018.612   113164267.027        -732.968          29.000  
C32  22368128.142   116476656.783        -856.197          27.000  
C40  36581830.301   190491140.145        -854.307          29.000  
E08  25283825.947   132867449.812         169.009          27.000  
E13  24266109.697   127519231.303        -870.510          31.000  
E26  24091181.397   126600040.202        1129.105          33.000  
G05  22372098.893   117566078.995        2823.618          35.000  
G06  21704415.821   114057474.488       -1509.152          27.000  
G09  22520186.175   118344323.968       -1554.012          27.000  
G12  23259842.221   122231225.817       -2096.138          22.000  
G19  22704989.338   119315280.849       -3474.070          34.000  
G20  20515753.115   107810959.547         944.871          35.000  
G25  23551026.439   123761417.929        -693.998          37.000  
J03  38973076.276   204804839.107         573.950          26.000  
> 2025 05 23 06 10 51.9995449  0 18                     
C03  37185022.657   193632086.528         149.545          31.000  
C08  36552668.327   190339264.507         254.735          29.000  
C10  36155556.342   188271438.633        -461.031          33.000  
C13  37289951.816   194178532.738         435.163          34.000  
C30  21732186.533   113165138.886        -734.147          31.000  
C32  22368320.946   116477651.979        -856.504          28.000  
C40  36582021.006   190492134.564        -855.881          28.000  
E08  25283826.584   132867422.774         170.669          27.000  
E13  24266309.096   127520243.033        -874.076          29.000  
E26  24090998.561   126599052.304        1129.416          35.000  
G05  22371588.084   117563397.094        2823.778          32.000  
G06  21704730.940   114059124.102       -1510.993          29.000  
G09  22520514.485   118346019.374       -1558.549          29.000  
G12  23260272.761   122233462.728       -2096.872          26.000  
G19  22705676.800   119318896.265       -3477.923          34.000  
G20  20515601.457   107810155.847         945.679          32.000  
G25  23551186.565   123762251.464        -693.247          36.000  
J03  38972993.870   204804405.932         576.877          22.000  
> 2025 05 23 06 10 52.9994838  0 18                     
C03  37184991.029   193631927.4451        148.545          15.000  
C08  36552617.512   190338996.261         255.571          28.000  
C10  36155643.431   188271886.606        -462.187          28.000  
C13  37289866.525   194178085.921         433.953          35.000  
C30  21732322.788   113165859.508        -736.417          31.000  
C32  22368486.282   116478494.718        -857.747          28.000  
C40  36582186.042   190492975.821        -856.476          26.000  
E08  25283796.155   132867240.666         163.544          26.000  
E13  24266471.134   127521104.144        -874.146          27.000  
E26  24090782.861   126597909.493        1129.543          37.000  
G05  22371050.107   117560559.922        2824.967          30.000  
G06  21705017.991   114060623.325       -1512.296          30.000  
G09  22520812.029   118347564.417       -1558.061          32.000  
G12  23260668.936   122235544.021       -2095.860          27.000  
G19  22706337.392   119322358.581       -3476.965          32.000  
G20  20515421.432   107809199.479         942.827          32.000  
G25  23551317.125   123762930.667        -692.710          34.000  
J03  38972881.298   204803815.437         577.574          25.000  
> 2025 05 23 06 10 55.0003617  0 18                     
C03  37184991.141   193631850.360         150.189          25.000  
C08  36552566.360   190338709.074         253.871          27.000  
C10  36155869.887   188273030.690        -461.055          29.000  
C13  37289746.721   194177444.701         429.766          35.000  
C30  21732650.274   113167554.960        -738.513          31.000  
C32  22368861.434   116480435.360        -859.793          31.000  
C40  36582555.199   190494915.175        -859.772          28.000  
E08  25283774.682   132867141.681         161.025          24.000  
E13  24266851.683   127523077.816        -874.493          29.000  
E26  24090397.440   126595875.406        1128.939          34.000  
G05  22370020.132   117555136.385        2820.735          33.000  
G06  21705638.974   114063872.271       -1514.623          31.000  
G09  22521451.898   118350907.353       -1560.908          35.000  
G12  23261513.864   122239958.271       -2095.271          28.000  
G19  22707706.057   119329800.690       -3475.246          30.000  
G20  20515107.661   107807543.635         937.817          33.000  
G25  23551627.822   123764543.415        -696.902          34.000  
J03  38972708.131   204802888.075         574.584          27.000  
> 2025 05 23 06 10 55.0003617  0 18                     
C03  37184991.141   193631850.360         150.189          25.000  
C08  36552566.360   190338709.074         253.871          27.000  
C10  36155869.887   188273030.690        -461.055          29.000  
C13  37289746.721   194177444.701         429.766          35.000  
C30  21732650.274   113167554.960        -738.513          31.000  
C32  22368861.434   116480435.360        -859.793          31.000  
C40  36582555.199   190494915.175        -859.772          28.000  
E08  25283774.682   132867141.681         161.025          24.000  
E13  24266851.683   127523077.816        -874.493          29.000  
E26  24090397.440   126595875.406        1128.939          34.000  
G05  22370020.132   117555136.385        2820.735          33.000  
G06  21705638.974   114063872.271       -1514.623          31.000  
G09  22521451.898   118350907.353       -1560.908          35.000  
G12  23261513.864   122239958.271       -2095.271          28.000  
G19  22707706.057   119329800.690       -3475.246          30.000  
G20  20515107.661   107807543.635         937.817          33.000  
G25  23551627.822   123764543.415        -696.902          34.000  
J03  38972708.131   204802888.075         574.584          27.000  
> 2025 05 23 06 10 56.0003007  0 18                     
C03  37184994.476   193631840.888         150.582          27.000  
C08  36552545.712   190338596.890         252.227          27.000  
C10  36155983.846   188273631.598        -460.219          30.000  
C13  37289694.294   194177155.540         431.916          35.000  
C30  21732818.495   113168433.587        -741.654          34.000  
C32  22369053.939   116481436.103        -862.715          31.000  
C40  36582748.603   190495914.928        -859.864          28.000  
E08  25283771.722   132867123.712         160.691          27.000  
E13  24267040.290   127524093.559        -875.930          29.000  
E26  24090209.208   126594888.547        1129.437          34.000  
G05  22369511.722   117552458.024        2819.344          30.000  
G06  21705955.292   114065527.615       -1516.553          30.000  
G09  22521778.710   118352611.294       -1563.313          36.000  
G12  23261940.206   122242196.036       -2098.219          29.000  
G19  22708394.718   119333419.398       -3480.229          30.000  
G20  20514957.203   107806746.974         938.509          33.000  
G25  23551789.448   123765380.955        -697.781          30.000  
J03  38972628.723   204802457.180         570.121          28.000  
> 2025 05 23 06 10 58.0001786  0 18                     
C03  37184985.970   193631979.611         155.176          22.000  
C08  36552474.249   190338219.855         253.707          29.000  
C10  36156188.192   188274681.988        -462.203          27.000  
C13  37289552.680   194176418.510         430.277          39.000  
C30  21733127.769   113170038.876        -738.559          30.000  
C32  22369409.980   116483287.602        -860.167          31.000  
C40  36583106.742   190497762.052        -859.357          28.000  
E08  25283735.334   132866936.077         159.695          25.000  
E13  24267401.428   127525972.491        -873.555          29.000  
E26  24089807.373   126592759.270        1130.334          38.000  
G05  22368463.235   117546946.684        2820.579          34.000  
G06  21706557.463   114068688.694       -1515.831          28.000  
G09  22522402.165   118355865.387       -1562.873          28.000  
G12  23262767.221   122246523.554       -2097.939          29.000  
G19  22709748.768   119340505.277       -3478.510          33.000  
G20  20514625.220   107804996.926         940.359          34.000  
G25  23552082.533   123766903.782        -693.436          29.000  
J03  38972440.341   204801448.921         570.779          27.000  
> 2025 05 23 06 10 58.0001786  0 18                     
C03  37184985.970   193631979.611         155.176          22.000  
C08  36552474.249   190338219.855         253.707          29.000  
C10  36156188.192   188274681.988        -462.203          27.000  
C13  37289552.680   194176418.510         430.277          39.000  
C30  21733127.769   113170038.876        -738.559          30.000  
C32  22369409.980   116483287.602        -860.167          31.000  
C40  36583106.742   190497762.052        -859.357          28.000  
E08  25283735.334   132866936.077         159.695          25.000  
E13  24267401.428   127525972.491        -873.555          29.000  
E26  24089807.373   126592759.270        1130.334          38.000  
G05  22368463.235   117546946.684        2820.579          34.000  
G06  21706557.463   114068688.694       -1515.831          28.000  
G09  22522402.165   118355865.387       -1562.873          28.000  
G12  23262767.221   122246523.554       -2097.939          29.000  
G19  22709748.768   119340505.277       -3478.510          33.000  
G20  20514625.220   107804996.926         940.359          34.000  
G25  23552082.533   123766903.782        -693.436          29.000  
J03  38972440.341   204801448.921         570.779          27.000  
> 2025 05 23 06 10 59.0001176  0 17                     
C03  37184997.474   193631966.140         156.979          21.000  
C08  36552455.174   190338110.276         251.259          30.000  
C10  36156303.724   188275286.140        -463.249          29.000  
C13  37289499.729   194176132.888         427.205          39.000  
C30  21733299.362   113170917.538        -737.873          28.000  
C32  22369603.158   116484289.673        -859.008          33.000  
C40  36583300.820   190498761.971        -859.913          27.000  
E08  25283734.248   132866920.404         160.487          29.000  
E13  24267596.405   127526990.163        -872.534          28.000  
E26  24089621.315   126591774.235        1128.509          36.000  
G05  22367956.099   117544273.011        2814.856          36.000  
G06  21706873.856   114070345.603       -1513.371          29.000  
G09  22522727.852   118357566.764       -1556.775          27.000  
G12  23263198.435   122248765.114       -2101.286          28.000  
G19  22710439.902   119344127.379       -3479.596          30.000  
G20  20514476.036   107804202.125         937.499          33.000  
G25  23552244.233   123767740.344        -695.984          26.000  
> 2025 05 23 06 11 00.9999956  0 17                     
C03  37185315.179   193633693.2711        163.874           5.000  
C08  36552414.328   190337895.510         247.970          31.000  
C10  36156541.385   188276500.490        -468.884          28.000  
C13  37289392.029   194175564.941         426.847          34.000  
C30  21733638.653   113172673.783        -736.945          32.000  
C32  22369990.116   116486286.616        -856.979          30.000  
C40  36583688.077   190500767.168        -862.150          28.000  
E08  25283730.575   132866884.534         166.372          20.000  
E13  24267987.859   127529015.782        -868.879          23.000  
E26  24089251.895   126589806.620        1127.190          36.000  
G05  22366941.226   117538933.444        2811.148          35.000  
G06  21707508.442   114073648.990       -1508.367          24.000  
G09  22523377.128   118360956.166       -1551.228          28.000  
G19  22711822.170   119351365.326       -3475.892          26.000  
G20  20514175.869   107802616.109         934.120          31.000  
G25  23552570.332   123769435.069        -710.236          22.000  
J03  38972201.144   204800158.1831        577.906          27.000  
> 2025 05 23 06 11 01.9999345  0 16                     
C03  37185002.571   193632065.6661        149.898          19.000  
C08  36552364.037   190337634.848         245.952          29.000  
C10  36156631.397   188276953.918        -470.311          28.000  
C13  37289309.061   194175125.588         424.394          29.000  
C30  21733781.129   113173394.918        -737.101          30.000  
C32  22370151.779   116487129.168        -855.578          29.000  
C40  36583853.937   190501614.040        -862.865          27.000  
E08  25283694.675   132866703.760         168.213          23.000  
E13  24268143.227   127529869.203        -866.825          31.000  
E26  24089035.520   126588667.391        1125.671          37.000  
G05  22366404.973   117536112.152        2804.873          34.000  
G12  23264453.966   122255359.1851      -2113.819          29.000  
G19  22712480.889   119354826.659       -3476.709          23.000  
G20  20513996.368   107801668.471         932.797          29.000  
G25  23552700.817   123770129.1781       -709.174          19.000  
J03  38972090.296   204799566.410         578.171          27.000  
> 2025 05 23 06 11 02.9998735  0 18                     
C03  37185010.890   193632054.0291        154.824          17.000  
C08  36552345.675   190337532.257         243.903          28.000  
C10  36156752.139   188277568.069        -472.573          29.000  
C13  37289259.520   194174845.718         419.674          26.000  
C30  21733951.036   113174274.015        -738.326          29.000  
C32  22370343.871   116488126.454        -856.380          31.000  
C40  36584048.428   190502617.792        -854.019          24.000  
E08  25283692.501   132866677.989         169.139          28.000  
E13  24268338.916   127530878.942        -866.099          32.000  
E26  24088850.174   126587687.509        1122.576          34.000  
G05  22365899.747   117533453.288        2802.443          35.000  
G06  21708107.128   114076792.7131      -1506.172          32.000  
G09  22523993.201   118364186.8081      -1551.190          27.000  
G12  23264884.093   122257617.065       -2115.913          27.000  
G19  22713173.635   119358445.930       -3477.098          25.000  
G20  20513846.697   107800880.694         930.522          29.000  
G25  23552866.228   123770986.0001       -714.931          19.000  
J03  38972010.176   204799133.939         575.173          28.000  
> 2025 05 23 06 11 02.9998735  0 18                     
C03  37185010.890   193632054.0291        154.824          17.000  
C08  36552345.675   190337532.257         243.903          28.000  
C10  36156752.139   188277568.069        -472.573          29.000  
C13  37289259.520   194174845.718         419.674          26.000  
C30  21733951.036   113174274.015        -738.326          29.000  
C32  22370343.871   116488126.454        -856.380          31.000  
C40  36584048.428   190502617.792        -854.019          24.000  
E08  25283692.501   132866677.989         169.139          28.000  
E13  24268338.916   127530878.942        -866.099          32.000  
E26  24088850.174   126587687.509        1122.576          34.000  
G05  22365899.747   117533453.288        2802.443          35.000  
G06  21708107.128   114076792.713       -1506.172          32.000  
G09  22523993.201   118364186.808       -1551.190          27.000  
G12  23264884.093   122257617.065       -2115.913          27.000  
G19  22713173.635   119358445.930       -3477.098          25.000  
G20  20513846.697   107800880.694         930.522          29.000  
G25  23552866.228   123770986.0001       -714.931          19.000  
J03  38972010.176   204799133.939         575.173          28.000  
> 2025 05 23 06 11 03.9998125  0 18                     
C03  37185018.872   193632043.4781        152.779          17.000  
C08  36552331.472   190337431.398         243.831          28.000  
C10  36156869.545   188278183.116        -473.676          29.000  
C13  37289208.143   194174571.041         416.713          27.000  
C30  21734119.407   113175154.127        -738.025          31.000  
C32  22370533.827   116489124.036        -856.660          28.000  
C40  36584240.482   190503617.523        -858.274          25.000  
E08  25283679.798   132866652.558         169.882          30.000  
E13  24268527.673   127531886.826        -865.924          29.000  
E26  24088663.590   126586709.982        1121.995          33.000  
G05  22365395.384   117530793.720        2806.946          31.000  
G06  21708420.298   114078440.603       -1505.935          33.000  
G09  22524316.265   118365879.548       -1550.955          26.000  
G12  23265316.881   122259876.155       -2117.131          24.000  
G19  22713863.345   119362066.290       -3477.948          26.000  
G20  20513699.386   107800094.174         930.907          26.000  
G25  23553031.900   123771843.1091       -714.003          17.000  
J03  38971927.021   204798701.908         576.337          28.000  
> 2025 05 23 06 11 04.9997515  0 18                     
C03  37184942.088   193631750.693         146.003          22.000  
C08  36552316.445   190337332.680         240.908          24.000  
C10  36156988.525   188278798.559        -471.925          30.000  
C13  37289157.741   194174297.666         417.223          25.000  
C30  21734289.952   113176033.073        -735.173          33.000  
C32  22370726.256   116490126.016        -859.094          26.000  
C40  36584439.207   190504619.834        -862.017          26.000  
E08  25283683.957   132866627.274         170.215          27.000  
E13  24268722.501   127532895.285        -865.222          30.000  
E26  24088482.478   126585734.075        1122.275          31.000  
G05  22364891.395   117528132.633        2804.825          29.000  
G06  21708735.043   114080090.317       -1504.607          33.000  
G09  22524638.805   118367574.332       -1549.760          30.000  
G12  23265750.643   122262140.246       -2119.356          26.000  
G19  22714553.729   119365687.831       -3478.106          27.000  
G20  20513552.750   107799307.778         932.073          23.000  
G25  23553198.847   123772700.8591       -713.971          15.000  
J03  38971844.841   204798270.521         578.142          29.000  
> 2025 05 23 06 11 05.9996905  0 18                     
C03  37184959.701   193631745.651         144.791          23.000  
C08  36552298.383   190337229.140         247.569          25.000  
C10  36157109.267   188279406.736        -466.279          30.000  
C13  37289105.202   194174020.725         417.860          24.000  
C30  21734459.259   113176906.862        -732.718          31.000  
C32  22370919.247   116491120.614        -853.895          28.000  
C40  36584629.800   190505620.403        -862.345          25.000  
E08  25283672.190   132866597.572         171.504          25.000  
E13  24268918.490   127533900.119        -862.484          32.000  
E26  24088293.834   126584749.670        1126.245          34.000  
G05  22364385.271   117525468.494        2806.973          28.000  
G06  21709048.551   114081734.192       -1500.785          33.000  
G09  22524960.707   118369262.682       -1547.157          30.000  
G12  23266178.972   122264397.110       -2115.698          29.000  
G19  22715242.577   119369305.168       -3476.142          27.000  
G20  20513407.576   107798516.998         932.807          24.000  
G25  23553367.855   123773555.5001       -713.782          14.000  
J03  38971762.323   204797832.470         582.290          29.000  
> 2025 05 23 06 11 07.9995684  0 18                     
C03  37184933.094   193631586.206         140.162          23.000  
C08  36552224.709   190336856.456         253.040          26.000  
C10  36157313.200   188280461.715        -461.835          30.000  
C13  37288970.670   194173309.355         423.933          26.000  
C30  21734769.919   113178498.309        -733.135          29.000  
C32  22371278.174   116492950.919        -850.467          28.000  
C40  36584984.230   190507470.065        -858.292          24.000  
E08  25283641.387   132866381.959         174.835          29.000  
E13  24269275.318   127535748.245        -858.846          31.000  
E26  24087888.889   126582623.248        1129.446          35.000  
G05  22363341.169   117519978.714        2809.206          30.000  
G06  21709644.313   114084862.337       -1500.110          38.000  
G09  22525577.455   118372484.306       -1545.023          23.000  
G12  23267009.772   122268751.864       -2110.876          27.000  
G19  22716597.714   119376381.304       -3471.002          27.000  
G20  20513077.579   107796777.729         937.211          26.000  
G25  23553664.725   123775109.961        -711.421          22.000  
J03  38971569.331   204796797.655         582.637          29.000  
> 2025 05 23 06 11 07.9995684  0 18                     
C03  37184933.094   193631586.206         140.162          23.000  
C08  36552224.709   190336856.456         253.040          26.000  
C10  36157313.200   188280461.715        -461.835          30.000  
C13  37288970.670   194173309.355         423.933          26.000  
C30  21734769.919   113178498.309        -733.135          29.000  
C32  22371278.174   116492950.919        -850.467          28.000  
C40  36584984.230   190507470.065        -858.292          24.000  
E08  25283641.387   132866381.959         174.835          29.000  
E13  24269275.318   127535748.245        -858.846          31.000  
E26  24087888.889   126582623.248        1129.446          35.000  
G05  22363341.169   117519978.714        2809.206          30.000  
G06  21709644.313   114084862.337       -1500.110          38.000  
G09  22525577.455   118372484.306       -1545.023          23.000  
G12  23267009.772   122268751.864       -2110.876          27.000  
G19  22716597.714   119376381.304       -3471.002          27.000  
G20  20513077.579   107796777.729         937.211          26.000  
G25  23553664.725   123775109.961        -711.421          22.000  
J03  38971569.331   204796797.655         582.637          29.000  
> 2025 05 23 06 11 08.9995074  0 17                     
C03  37184932.569   193631588.681         141.288          21.000  
C08  36552205.597   190336745.183         249.801          25.000  
C10  36157430.794   188281064.165        -464.792          29.000  
C13  37288917.082   194173026.036         423.792          25.000  
C30  21734939.677   113179373.276        -733.759          31.000  
C32  22371472.514   116493942.657        -854.368          26.000  
C40  36585177.671   190508467.593        -862.560          23.000  
E08  25283626.472   132866350.334         172.146          30.000  
E13  24269460.664   127536747.913        -861.247          31.000  
E26  24087703.992   126581637.330        1127.409          36.000  
G05  22362834.894   117517313.641        2806.370          28.000  
G06  21709957.372   114086505.768       -1502.374          40.000  
G09  22525899.507   118374170.4511      -1544.871          19.000  
G12  23267438.550   122271003.626       -2111.801          25.000  
G20  20512925.959   107795982.991         936.879          25.000  
G25  23553827.287   123775962.0961       -710.588          19.000  
J03  38971484.565   204796356.377         582.881          31.000  
> 2025 05 23 06 11 09.9994464  0 18                     
C03  37186078.301   193637667.099         158.401          23.000  
C08  36552186.635   190336638.176         248.324          25.000  
C10  36157547.039   188281672.213        -467.363          29.000  
C13  37288864.844   194172744.147         423.674          26.000  
C30  21735105.987   113180247.075        -735.049          32.000  
C32  22371664.906   116494939.393        -857.301          25.000  
C40  36585368.864   190509469.379        -859.368          29.000  
E08  25283631.793   132866321.540         171.614          27.000  
E13  24269656.654   127537750.766        -861.222          30.000  
E26  24087517.146   126580653.308        1127.226          38.000  
G05  22362330.268   117514649.383        2807.855          26.000  
G06  21710271.180   114088148.226       -1501.038          40.000  
G09  22526222.908   118375863.6091      -1550.464          16.000  
G12  23267869.277   122273257.681       -2112.281          23.000  
G19  22717975.560   119383609.4621      -3477.070          33.000  
G20  20512778.387   107795189.580         936.121          21.000  
G25  23553992.698   123776812.5121       -708.519          17.000  
J03  38971401.148   204795916.498         583.005          31.000  
> 2025 05 23 06 11 11.0003853  0 18                     
C03  37186093.403   193637588.4321        159.291          17.000  
C08  36552156.169   190336469.743         248.709          29.000  
C10  36157648.781   188282218.121        -466.485          29.000  
C13  37288795.704   194172400.293         424.287          30.000  
C30  21735262.591   113181060.909        -734.008          32.000  
C32  22371843.695   116495875.944        -858.528          27.000  
C40  36585550.650   190510405.885        -856.729          26.000  
E08  25283619.015   132866231.527         168.014          23.000  
E13  24269838.740   127538694.524        -861.792          29.000  
E26  24087319.995   126579605.025        1128.230          39.000  
G05  22361814.138   117511920.408        2806.999          25.000  
G06  21710573.783   114089729.744       -1502.513          37.000  
G09  22526536.303   118377493.9951      -1549.528          15.000  
G12  23268288.499   122275452.960       -2112.976          20.000  
G19  22718654.703   119387168.989       -3476.576          31.000  
G20  20512617.211   107794334.348         934.693          20.000  
G25  23554147.803   123777881.476        -700.736          24.000  
J03  38971307.725   204795415.034         581.488          30.000  
> 2025 05 23 06 11 13.0002633  0 18                     
C03  37185120.989   193632682.0811        156.261           5.000  
C08  36552115.809   190336254.142         254.574          23.000  
C10  36157886.628   188283432.034        -463.599          29.000  
C13  37288690.889   194171827.506         434.073          28.000  
C30  21735605.966   113182821.446        -739.418          31.000  
C32  22372231.739   116497878.327        -857.345          32.000  
C40  36585937.795   190512407.607        -859.037          27.000  
E08  25283614.630   132866185.2891        176.731          15.000  
E13  24270227.983   127540707.1711       -863.709          20.000  
E26  24086946.566   126577631.647        1131.900          39.000  
G05  22360804.849   117506592.370        2811.096          27.000  
G06  21711204.958   114093028.581       -1509.211          25.000  
G09  22527183.668   118381148.4061      -1548.144          12.000  
G12  23269148.716   122279965.932       -2111.660          21.000  
G19  22720033.261   119394412.909       -3478.226          28.000  
G20  20512314.832   107792754.457         935.660          23.000  
G25  23554471.091   123779567.0521       -696.182          18.000  
J03  38971145.650   204794547.157         576.438          32.000  
> 2025 05 23 06 11 14.0002022  0 17                     
C03  37185115.293   193632668.5721        156.308           5.000  
C08  36552065.744   190335985.275         258.020          25.000  
C10  36157974.767   188283881.387        -462.660          27.000  
C13  37288605.448   194171380.314         435.361          30.000  
C30  21735745.969   113183547.783        -741.158          32.000  
C32  22372396.625   116498722.364        -855.839          26.000  
C40  36586104.779   190513255.604        -860.001          28.000  
E08  25283582.553   132865996.6601        172.319          15.000  
E13  24270393.169   127541557.9401       -860.504          18.000  
E26  24086732.515   126576485.562        1133.267          37.000  
G05  22360267.022   117503766.675        2815.197          33.000  
G06  21711492.459   114094524.601       -1507.262          20.000  
G12  23269548.339   122282058.308       -2104.716          31.000  
G19  22720694.303   119397878.778       -3479.166          29.000  
G20  20512135.257   107791805.656         937.575          30.000  
G25  23554605.698   123780247.6221       -695.492          16.000  
J03  38971033.827   204793956.969         576.734          29.000  
> 2025 05 23 06 11 14.0002022  0 17                     
C03  37185115.293   193632668.5721        156.308           5.000  
C08  36552065.744   190335985.275         258.020          25.000  
C10  36157974.767   188283881.387        -462.660          27.000  
C13  37288605.448   194171380.314         435.361          30.000  
C30  21735745.969   113183547.783        -741.158          32.000  
C32  22372396.625   116498722.364        -855.839          26.000  
C40  36586104.779   190513255.604        -860.001          28.000  
E08  25283582.553   132865996.6601        172.319          15.000  
E13  24270393.169   127541557.9401       -860.504          18.000  
E26  24086732.515   126576485.562        1133.267          37.000  
G05  22360267.022   117503766.675        2815.197          33.000  
G06  21711492.459   114094524.601       -1507.262          20.000  
G12  23269548.339   122282058.308       -2104.716          31.000  
G19  22720694.303   119397878.778       -3479.166          29.000  
G20  20512135.257   107791805.656         937.575          30.000  
G25  23554605.698   123780247.6221       -695.492          16.000  
J03  38971033.827   204793956.969         576.734          29.000  
> 2025 05 23 06 11 15.0001412  0 18                     
C03  37184844.056   193631240.496         154.086          25.000  
C08  36552044.534   190335870.015         256.747          30.000  
C10  36158094.460   188284485.129        -461.324          30.000  
C13  37288549.462   194171089.959         435.018          38.000  
C30  21735917.825   113184433.055        -743.268          31.000  
C32  22372591.864   116499721.991        -864.860          26.000  
C40  36586298.820   190514256.674        -862.120          33.000  
E08  25283582.627   132865968.9151        169.979          15.000  
E13  24270590.807   127542559.9051       -857.832          19.000  
E26  24086541.322   126575495.140        1133.627          38.000  
G05  22359760.148   117501094.469        2816.653          35.000  
G06  21711808.815   114096166.212       -1498.919          25.000  
G09  22527828.596   118384537.3091      -1564.594          29.000  
G12  23269978.617   122284303.325       -2102.709          30.000  
G19  22721386.299   119401501.604       -3480.734          31.000  
G20  20511985.735   107791012.680         937.270          35.000  
G25  23554765.263   123781091.7001       -699.515          18.000  
J03  38970951.759   204793525.818         573.921          28.000  
> 2025 05 23 06 11 16.0000802  0 18                     
C03  37184873.548   193631227.900         152.878          25.000  
C08  36552024.260   190335756.306         255.785          32.000  
C10  36158213.290   188285085.487        -462.031          28.000  
C13  37288495.012   194170796.261         432.375          40.000  
C30  21736090.318   113185317.103        -744.857          28.000  
C32  22372787.741   116500726.335        -866.995          31.000  
C40  36586491.699   190515259.114        -862.059          32.000  
E08  25283582.740   132865941.9651        168.771          15.000  
E13  24270782.787   127543824.649        -872.948          22.000  
E26  24086352.265   126574504.090        1134.216          36.000  
G05  22359250.313   117498417.035        2821.901          36.000  
G06  21712125.508   114097806.247       -1499.637          23.000  
G09  22528144.690   118386245.792       -1568.866          35.000  
G12  23270408.032   122286819.220       -2100.960          27.000  
G19  22722077.433   119405124.402       -3482.908          29.000  
G20  20511835.352   107790216.846         938.905          35.000  
G25  23554929.662   123781930.6311       -697.099          16.000  
J03  38970869.129   204793093.153         576.730          27.000  
> 2025 05 23 06 11 17.0000192  0 18                     
C03  37184885.989   193631216.913         153.795          27.000  
C08  36552003.724   190335643.245         256.137          31.000  
C10  36158327.661   188285690.017        -461.713          32.000  
C13  37288440.300   194170504.379         434.705          40.000  
C30  21736260.750   113186203.647        -745.613          32.000  
C32  22372982.157   116501736.660        -866.686          34.000  
C40  36586687.313   190516263.008        -861.531          29.000  
E08  25283575.395   132865918.0631        167.589          19.000  
E13  24270973.305   127544841.949        -874.527          29.000  
E26  24086166.844   126573512.132        1135.994          35.000  
G05  22358742.315   117495741.135        2818.881          34.000  
G06  21712440.740   114099449.537       -1500.325          24.000  
G09  22528466.517   118387958.748       -1569.985          34.000  
G12  23270835.086   122289062.535       -2099.256          31.000  
G19  22722770.104   119408748.830       -3479.360          26.000  
G20  20511686.205   107789423.495         937.095          35.000  
G25  23555091.699   123782771.6631       -695.536          18.000  
J03  38970788.634   204792662.305         572.922          27.000  
> 2025 05 23 06 11 17.9999582  0 18                     
C03  37184858.071   193631204.733         152.324          30.000  
C08  36551982.701   190335526.821         257.673          32.000  
C10  36158444.542   188286288.378        -460.310          33.000  
C13  37288383.901   194170208.166         435.233          41.000  
C30  21736431.294   113187089.108        -744.561          32.000  
C32  22373174.286   116502744.092        -867.663          36.000  
C40  36586881.841   190517262.193        -858.238          27.000  
E08  25283574.458   132865892.215         166.827          23.000  
E13  24271167.533   127545857.375        -875.391          30.000  
E26  24085977.937   126572518.840        1135.695          35.000  
G05  22358233.829   117493063.358        2821.181          36.000  
G06  21712759.082   114101108.578       -1519.972          27.000  
G09  22528789.056   118389670.243       -1569.741          34.000  
G12  23271262.852   122291300.475       -2098.419          33.000  
G19  22723462.587   119412369.305       -3481.447          22.000  
G20  20511534.772   107788627.002         938.785          34.000  
G25  23555250.252   123783607.0211       -694.448          19.000  
J03  38970708.253   204792231.232         573.130          27.000  
> 2025 05 23 06 11 19.9998361  0 17                     
C03  37184818.873   193631032.5221        149.372          18.000  
C08  36551910.227   190335139.459         257.949          32.000  
C10  36158648.476   188287339.382        -462.814          34.000  
C13  37288244.573   194169462.738         437.684          40.000  
C30  21736744.952   113188708.349        -748.758          34.000  
C32  22373535.012   116504611.161        -873.199          32.000  
C40  36587242.567   190519372.363        -864.340          25.000  
E08  25283545.453   132865693.8531        160.706          20.000  
E13  24271529.158   127547738.222        -877.531          26.000  
E26  24085573.592   126570376.452        1136.192          36.000  
G05  22357187.329   117487555.326        2819.170          35.000  
G09  22529413.599   118392945.157       -1574.331          29.000  
G12  23272090.355   122295625.464       -2105.745          25.000  
G19  22724812.627   119419472.410       -3492.935          27.000  
G20  20511205.675   107786879.524         938.850          32.000  
G25  23555540.826   123785123.010        -694.507          21.000  
J03  38970520.058   204791214.034         573.710          27.000  
> 2025 05 23 06 11 20.9997751  0 18                     
C03  37184842.332   193631025.541         149.822          28.000  
C08  36551889.616   190335024.308         257.683          32.000  
C10  36158768.468   188287944.997        -464.598          33.000  
C13  37288188.587   194169169.129         435.784          39.000  
C30  21736916.209   113189597.366        -748.108          34.000  
C32  22373730.851   116505887.600        -874.630          26.000  
C40  36587438.406   190520381.103        -868.237          26.000  
E08  25283541.331   132865678.4931        144.606          17.000  
E13  24271725.597   127548758.815        -878.215          22.000  
E26  24085385.697   126569384.470        1135.445          36.000  
G05  22356679.256   117485141.557        2822.553          33.000  
G06  21713686.790   114105942.7061      -1522.278          26.000  
G09  22529743.146   118394664.056       -1575.892          24.000  
G12  23272521.531   122297877.359       -2111.381          22.000  
G19  22725505.522   119423106.181       -3493.806          30.000  
G20  20511055.854   107786084.624         939.581          31.000  
G25  23555699.791   123785960.931        -695.197          23.000  
J03  38970440.088   204790785.464         570.668          27.000  
> 2025 05 23 06 11 20.9997751  0 18                     
C03  37184842.332   193631025.541         149.822          28.000  
C08  36551889.616   190335024.308         257.683          32.000  
C10  36158768.468   188287944.997        -464.598          33.000  
C13  37288188.587   194169169.129         435.784          39.000  
C30  21736916.209   113189597.366        -748.108          34.000  
C32  22373730.851   116505887.600        -874.630          26.000  
C40  36587438.406   190520381.103        -868.237          26.000  
E08  25283541.331   132865678.4931        144.606          17.000  
E13  24271725.597   127548758.815        -878.215          22.000  
E26  24085385.697   126569384.470        1135.445          36.000  
G05  22356679.256   117485141.557        2822.553          33.000  
G06  21713686.790   114105942.706       -1522.278          26.000  
G09  22529743.146   118394664.056       -1575.892          24.000  
G12  23272521.531   122297877.359       -2111.381          22.000  
G19  22725505.522   119423106.181       -3493.806          30.000  
G20  20511055.854   107786084.624         939.581          31.000  
G25  23555699.791   123785960.931        -695.197          23.000  
J03  38970440.088   204790785.464         570.668          27.000  
> 2025 05 23 06 11 22.9996531  0 17                     
C03  37184823.745   193631016.687         143.221          34.000  
C08  36551846.146   190335054.139         259.213          33.000  
C10  36159001.707   188289410.216        -461.124          32.000  
C13  37288078.263   194168580.155         436.664          38.000  
C30  21737261.569   113191379.821        -749.607          36.000  
C32  22374130.174   116507920.684        -872.608          21.000  
C40  36587827.537   190522398.704        -865.704          30.000  
E08  25283551.824   132865961.2471        140.353          16.000  
E13  24272118.924   127550800.8441       -879.610          16.000  
E26  24085010.057   126567398.103        1137.434          36.000  
G05  22355662.359   117479787.133        2818.376          27.000  
G06  21714326.547   114109555.591       -1518.903          21.000  
G09  22530402.389   118398105.3291      -1576.016          19.000  
G12  23273385.233   122302393.0511      -2118.857          14.000  
G19  22726891.463   119430377.080       -3490.393          27.000  
G20  20510756.062   107784497.881         936.409          32.000  
J03  38970281.198   204790209.226         569.961          22.000  
> 2025 05 23 06 11 23.9995920  0 18                     
C03  37184794.852   193630863.300         136.886          34.000  
C08  36551794.169   190334780.710         259.106          33.000  
C10  36159088.534   188289855.240        -461.566          34.000  
C13  37287992.410   194168126.628         439.616          40.000  
C30  21737404.458   113192114.036        -749.709          36.000  
C32  22374294.348   116508771.5361       -867.136          19.000  
C40  36587990.811   190523249.142        -866.087          31.000  
E08  25283525.030   132865807.3711        138.161          10.000  
E13  24272283.698   127551664.8731       -880.673          15.000  
E26  24084791.396   126566243.982        1140.016          33.000  
G05  22355126.218   117476955.660        2815.382          25.000  
G06  21714613.936   114111058.3511      -1492.653          19.000  
G09  22530702.070   118399665.445       -1573.893          21.000  
G12  23273787.742   122304498.4801      -2122.880          14.000  
G19  22727555.091   119433853.771       -3496.076          30.000  
G20  20510574.874   107783545.745         938.032          30.000  
G25  23556148.168   123788320.1721       -695.506          32.000  
J03  38970171.362   204789624.139         571.080          21.000  
> 2025 05 23 06 11 24.9995310  0 18                     
C03  37184794.852   193630864.500         144.067          40.000  
C08  36551772.884   190334664.896         257.787          33.000  
C10  36159207.252   188290461.078        -462.353          34.000  
C13  37287937.848   194167831.990         438.004          40.000  
C30  21737575.939   113193005.186        -750.427          36.000  
C32  22374488.014   116509781.205        -868.462          22.000  
C40  36588185.976   190524256.770        -868.043          31.000  
E08  25283525.929   132865813.6191        136.111          10.000  
E13  24272483.359   127552688.261        -879.314          24.000  
E26  24084601.028   126565249.124        1138.036          31.000  
G05  22354620.468   117474284.499        2814.526          22.000  
G06  21714931.716   114112693.6141      -1493.343          19.000  
G09  22531032.441   118401383.554       -1572.570          23.000  
G12  23274220.642   122306766.5591      -2125.731          14.000  
G19  22728248.511   119437495.010       -3497.339          29.000  
G20  20510424.678   107782750.584         937.843          29.000  
G25  23556307.658   123789157.223        -693.872          37.000  
J03  38970090.118   204789195.944         573.872          21.000  
> 2025 05 23 06 11 24.9995310  0 18                     
C03  37184794.852   193630864.500         144.067          40.000  
C08  36551772.884   190334664.896         257.787          33.000  
C10  36159207.252   188290461.078        -462.353          34.000  
C13  37287937.848   194167831.990         438.004          40.000  
C30  21737575.939   113193005.186        -750.427          36.000  
C32  22374488.014   116509781.205        -868.462          22.000  
C40  36588185.976   190524256.770        -868.043          31.000  
E08  25283525.929   132865813.6191        136.111          10.000  
E13  24272483.359   127552688.261        -879.314          24.000  
E26  24084601.028   126565249.124        1138.036          31.000  
G05  22354620.468   117474284.499        2814.526          22.000  
G06  21714931.716   114112693.6141      -1493.343          19.000  
G09  22531032.441   118401383.554       -1572.570          23.000  
G12  23274220.642   122306766.5591      -2125.731          14.000  
G19  22728248.511   119437495.010       -3497.339          29.000  
G20  20510424.678   107782750.584         937.843          29.000  
G25  23556307.658   123789157.223        -693.872          37.000  
J03  38970090.118   204789195.944         573.872          21.000  
> 2025 05 23 06 11 27.0004089  0 17                     
C03  37184783.535   193630793.837         148.234          34.000  
C08  36551718.697   190334370.898         257.454          34.000  
C10  36159430.072   188291607.828        -463.060          34.000  
C13  37287812.010   194167178.695         439.170          41.000  
C30  21737910.583   113195004.563        -751.490          30.000  
C32  22374866.727   116511751.396        -876.778          28.000  
C40  36588564.389   190526216.156        -869.024          30.000  
E13  24272862.672   127554669.327        -879.747          22.000  
E26  24084216.469   126563197.198        1138.376          35.000  
G05  22353596.752   117468879.599        2812.583          22.000  
G06  21715556.858   114115931.202       -1516.166          28.000  
G09  22531680.367   118404758.359       -1576.157          28.000  
G12  23275080.822   122311245.9831      -2130.651          16.000  
G19  22729625.832   119444989.086       -3497.200          28.000  
G20  20510114.168   107781376.756         936.811          29.000  
G25  23556615.919   123790773.089        -697.537          37.000  
J03  38969918.112   204788267.900         575.979          24.000  
> 2025 05 23 06 11 28.0003479  0 17                     
C03  37184785.559   193630792.384         144.978          31.000  
C08  36551698.536   190334256.985         257.355          33.000  
C10  36159545.717   188292214.068        -464.705          34.000  
C13  37287757.673   194166884.658         435.995          40.000  
C30  21738083.788   113195899.372        -752.881          33.000  
C32  22375062.417   116512772.158        -876.999          30.000  
C40  36588760.078   190527227.465        -869.022          30.000  
E08  25283581.691   132866118.7601        157.543          18.000  
E13  24273057.762   127555692.951        -879.846          21.000  
E26  24084028.424   126562203.934        1137.288          36.000  
G05  22353088.829   117466210.902        2815.089          25.000  
G06  21715877.561   114117594.719       -1518.962          29.000  
G12  23275512.448   122313521.9561      -2132.450          16.000  
G19  22730321.876   119448629.404       -3498.595          28.000  
G20  20509963.897   107780586.619         935.391          29.000  
G25  23556778.332   123791613.752        -697.240          36.000  
J03  38969834.095   204787836.223         576.810          23.000  
> 2025 05 23 06 11 29.0002869  0 18                     
C03  37184802.534   193630792.270         142.367          31.000  
C08  36551679.237   190334142.846         257.296          33.000  
C10  36159663.423   188292819.729        -464.043          35.000  
C13  37287702.698   194166852.836         436.062          40.000  
C30  21738256.356   113196795.175        -755.067          34.000  
C32  22375260.467   116513790.948        -877.628          29.000  
C40  36588957.229   190528238.433        -869.468          30.000  
E08  25283570.486   132866104.8911        157.696          17.000  
E13  24273253.714   127556717.737        -881.704          26.000  
E26  24083838.543   126561211.685        1137.185          35.000  
G05  22352578.469   117463539.295        2817.968          24.000  
G06  21716196.428   114119260.611       -1527.086          30.000  
G09  22532337.625   118408200.8621      -1580.427          29.000  
G12  23275947.035   122315796.8291      -2131.966          16.000  
G19  22731014.584   119452270.912       -3497.785          26.000  
G20  20509815.088   107779796.555         932.786          29.000  
G25  23556938.308   123792455.438        -698.413          33.000  
J03  38969755.137   204787405.091         573.481          25.000  
> 2025 05 23 06 11 29.0002869  0 18                     
C03  37184802.534   193630792.270         142.367          31.000  
C08  36551679.237   190334142.846         257.296          33.000  
C10  36159663.423   188292819.729        -464.043          35.000  
C13  37287702.698   194166852.836         436.062          40.000  
C30  21738256.356   113196795.175        -755.067          34.000  
C32  22375260.467   116513790.948        -877.628          29.000  
C40  36588957.229   190528238.433        -869.468          30.000  
E08  25283570.486   132866104.8911        157.696          17.000  
E13  24273253.714   127556717.737        -881.704          26.000  
E26  24083838.543   126561211.685        1137.185          35.000  
G05  22352578.469   117463539.295        2817.968          24.000  
G06  21716196.428   114119260.611       -1527.086          30.000  
G09  22532337.625   118408200.862       -1580.427          29.000  
G12  23275947.035   122315796.8291      -2131.966          16.000  
G19  22731014.584   119452270.912       -3497.785          26.000  
G20  20509815.088   107779796.555         932.786          29.000  
G25  23556938.308   123792455.438        -698.413          33.000  
J03  38969755.137   204787405.091         573.481          25.000  
> 2025 05 23 06 11 31.0001648  0 18                     
C03  37184796.314   193630992.026         143.747          24.000  
C08  36551608.560   190333759.322         255.891          34.000  
C10  36159868.556   188293878.942        -464.707          34.000  
C13  37287561.871   194166110.741         436.108          39.000  
C30  21738575.710   113198433.947        -756.853          34.000  
C32  22375631.085   116515675.889        -880.019          25.000  
C40  36589316.456   190530105.043        -871.473          29.000  
E08  25283531.888   132865921.6591        153.841          10.000  
E13  24273621.034   127558609.5811       -878.617          18.000  
E26  24083435.097   126559070.652        1136.388          36.000  
G05  22351530.470   117458029.835        2819.519          24.000  
G06  21716809.878   114122433.321       -1517.419          22.000  
G09  22532974.759   118411497.458       -1585.462          30.000  
G12  23276707.083   122320161.372       -2104.914          27.000  
G19  22732374.517   119459397.744       -3501.894          27.000  
G20  20509488.089   107778060.642         933.813          27.000  
G25  23557233.379   123793985.288        -703.286          28.000  
J03  38969569.941   204786401.656         576.591          22.000  
> 2025 05 23 06 11 31.0001648  0 18                     
C03  37184796.314   193630992.026         143.747          24.000  
C08  36551608.560   190333759.322         255.891          34.000  
C10  36159868.556   188293878.942        -464.707          34.000  
C13  37287561.871   194166110.741         436.108          39.000  
C30  21738575.710   113198433.947        -756.853          34.000  
C32  22375631.085   116515675.889        -880.019          25.000  
C40  36589316.456   190530105.043        -871.473          29.000  
E08  25283531.888   132865921.6591        153.841          10.000  
E13  24273621.034   127558609.5811       -878.617          18.000  
E26  24083435.097   126559070.652        1136.388          36.000  
G05  22351530.470   117458029.835        2819.519          24.000  
G06  21716809.878   114122433.321       -1517.419          22.000  
G09  22532974.759   118411497.458       -1585.462          30.000  
G12  23276707.083   122320161.372       -2104.914          27.000  
G19  22732374.517   119459397.744       -3501.894          27.000  
G20  20509488.089   107778060.642         933.813          27.000  
G25  23557233.379   123793985.288        -703.286          28.000  
J03  38969569.941   204786401.656         576.591          22.000  
> 2025 05 23 06 11 32.0001038  0 17                     
C03  37184800.361   193630992.698         139.813          22.000  
C08  36551587.125   190333644.939         256.004          33.000  
C10  36159987.124   188294482.344        -465.177          33.000  
C13  37287506.859   194165815.834         436.702          40.000  
C30  21738748.840   113199330.076        -756.386          34.000  
C32  22375830.897   116516695.708        -881.018          27.000  
C40  36589511.771   190531117.745        -871.635          27.000  
E08  25283529.939   132865910.5851        134.527          11.000  
E13  24273818.448   127559630.1461       -879.754          20.000  
E26  24083247.877   126558077.406        1135.599          36.000  
G06  21717127.808   114124092.7041      -1518.916          18.000  
G09  22533307.079   118413225.261       -1583.608          26.000  
G12  23277138.335   122322406.355       -2102.947          28.000  
G19  22733070.185   119463041.320       -3502.523          26.000  
G20  20509341.641   107777269.174         933.579          28.000  
G25  23557395.417   123794831.536        -702.926          28.000  
J03  38969490.346   204785970.891         570.822          21.000  
> 2025 05 23 06 11 33.0000428  0 17                     
C08  36551565.578   190333531.224         256.545          32.000  
C10  36160108.578   188295089.757        -467.527          33.000  
C13  37287451.435   194165522.891         434.919          38.000  
C30  21738920.658   113200226.138        -756.298          34.000  
C32  22376025.200   116517717.640        -882.289          29.000  
C40  36589706.973   190532131.411        -874.242          27.000  
E08  25283530.576   132865918.6211        134.889          20.000  
E13  24274009.753   127560653.115        -883.676          26.000  
E26  24083061.144   126557085.274        1135.117          37.000  
G05  22350513.162   117452684.8311       2813.886          30.000  
G06  21717448.623   114125760.3321      -1525.069          20.000  
G09  22533635.389   118414952.546       -1584.694          28.000  
G12  23277570.074   122324651.548       -2103.881          31.000  
G19  22733764.243   119466688.706       -3503.807          30.000  
G20  20509191.782   107776481.428         931.496          32.000  
G25  23557557.942   123795675.985        -701.611          30.000  
J03  38969410.339   204785544.692         568.968          28.000  
> 2025 05 23 06 11 34.9999208  0 18                     
C03  37185305.286   193633642.5621        153.694          16.000  
C08  36551526.043   190333306.197         250.235          30.000  
C10  36160343.952   188296306.201        -469.551          32.000  
C13  37287343.547   194164941.730         427.769          39.000  
C30  21739267.556   113202022.380        -755.433          31.000  
C32  22376418.265   116519762.178        -876.886          33.000  
C40  36590098.240   190534154.196        -870.554          29.000  
E08  25283517.722   132865930.837         138.434          25.000  
E13  24274397.122   127562704.425        -880.418          28.000  
E26  24082684.342   126555105.574        1132.253          35.000  
G05  22349499.601   117447347.490        2809.720          33.000  
G06  21718086.619   114129104.208       -1530.922          24.000  
G09  22534295.869   118418409.225       -1585.105          21.000  
G12  23278433.513   122329149.590       -2110.269          33.000  
G19  22735155.317   119473977.691       -3500.192          31.000  
G20  20508894.725   107774908.323         926.572          34.000  
G25  23557882.055   123797366.864        -710.013          25.000  
J03  38969252.086   204784696.477         567.941          24.000  
> 2025 05 23 06 11 34.9999208  0 18                     
C03  37185305.286   193633642.5621        153.694          16.000  
C08  36551526.043   190333306.197         250.235          30.000  
C10  36160343.952   188296306.201        -469.551          32.000  
C13  37287343.547   194164941.730         427.769          39.000  
C30  21739267.556   113202022.380        -755.433          31.000  
C32  22376418.265   116519762.178        -876.886          33.000  
C40  36590098.240   190534154.196        -870.554          29.000  
E08  25283517.722   132865930.837         138.434          25.000  
E13  24274397.122   127562704.425        -880.418          28.000  
E26  24082684.342   126555105.574        1132.253          35.000  
G05  22349499.601   117447347.490        2809.720          33.000  
G06  21718086.619   114129104.208       -1530.922          24.000  
G09  22534295.869   118418409.225       -1585.105          21.000  
G12  23278433.513   122329149.590       -2110.269          33.000  
G19  22735155.317   119473977.691       -3500.192          31.000  
G20  20508894.725   107774908.323         926.572          34.000  
G25  23557882.055   123797366.864        -710.013          25.000  
J03  38969252.086   204784696.477         567.941          24.000  
> 2025 05 23 06 11 35.9998597  0 18                     
C03  37185286.699   193633544.995         153.787          20.000  
C08  36551477.776   190333043.318         246.701          34.000  
C10  36160431.192   188296762.813        -471.614          29.000  
C13  37287260.804   194164502.122         421.322          39.000  
C30  21739412.355   113202761.001        -752.828          32.000  
C32  22376586.449   116520623.353        -873.371          32.000  
C40  36590259.528   190535011.032        -872.873          33.000  
E08  25283482.347   132865776.571         142.092          23.000  
E13  24274568.903   127563566.608        -875.581          25.000  
E26  24082467.592   126553961.661        1130.073          38.000  
G05  22348964.471   117444530.383        2798.535          37.000  
G06  21718376.518   114130615.340       -1524.309          22.000  
G09  22534598.959   118419980.2781      -1583.867          17.000  
G12  23278836.135   122331247.972       -2114.280          28.000  
G19  22735820.556   119477460.102       -3498.084          35.000  
G20  20508716.948   107773969.444         922.347          36.000  
G25  23558016.662   123798062.361        -716.772          22.000  
J03  38969141.462   204784112.247         573.256          29.000  
> 2025 05 23 06 11 36.9997987  0 18                     
C03  37185313.043   193633534.7621        150.912          14.000  
C08  36551459.451   190332940.053         243.855          32.000  
C10  36160553.770   188297375.013        -474.099          27.000  
C13  37287208.603   194164224.872         416.917          34.000  
C30  21739584.399   113203654.258        -749.903          31.000  
C32  22376784.275   116521636.148        -870.636          28.000  
C40  36590457.953   190536021.830        -867.743          29.000  
E08  25283488.005   132865775.0541        150.308          19.000  
E13  24274764.031   127564582.735        -870.851          23.000  
E26  24082284.381   126553258.785        1127.085          38.000  
G05  22348460.783   117441876.803        2795.108          37.000  
G06  21718695.460   114132274.770       -1516.902          21.000  
G09  22534929.593   118421706.6731      -1581.546          16.000  
G12  23279268.398   122333511.167       -2124.172          25.000  
G19  22736515.438   119481097.728       -3492.939          32.000  
G20  20508568.214   107773191.141         919.839          35.000  
G25  23558182.410   123798922.4391       -723.571          18.000  
J03  38969061.980   204783679.445         579.034          31.000  
> 2025 05 23 06 11 37.9997377  0 18                     
C03  37185341.411   193633830.0491        153.038          11.000  
C08  36551440.452   190332839.273         240.593          29.000  
C10  36160671.176   188297991.189        -478.406          31.000  
C13  37287157.825   194163951.643         413.690          32.000  
C30  21739761.164   113204543.290        -749.398          29.000  
C32  22376976.329   116522646.752        -869.550          33.000  
C40  36590655.104   190537032.721        -870.379          30.000  
E08  25283486.094   132865764.5911        154.473          18.000  
E13  24274954.886   127565593.855        -866.514          25.000  
E26  24082098.098   126552277.651        1124.124          41.000  
G05  22347958.818   117439228.221        2789.350          34.000  
G06  21719012.228   114133928.702       -1510.162          23.000  
G09  22535251.757   118423418.730       -1566.057          25.000  
G12  23279703.884   122335780.371       -2131.190          23.000  
G19  22737207.846   119484731.887       -3492.613          34.000  
G20  20508424.201   107772415.199         917.844          30.000  
G25  23558351.080   123799789.4391       -725.991          16.000  
J03  38968979.125   204783242.747         580.272          30.000  
> 2025 05 23 06 11 39.9996156  0 18                     
C03  37185801.780   193636227.2551        153.126          14.000  
C08  36551375.884   190332491.443         236.799          33.000  
C10  36160885.115   188299080.299        -483.616          33.000  
C13  37287028.203   194163256.903         409.296          28.000  
C30  21740075.234   113206171.528        -748.855          25.000  
C32  22377335.668   116524510.075        -866.364          31.000  
C40  36591017.441   190538900.360        -868.805          27.000  
E08  25283450.007   132865570.798         160.020          21.000  
E13  24275307.929   127567447.613        -860.487          23.000  
E26  24081697.163   126550162.385        1122.325          40.000  
G05  22346925.620   117433788.720        2779.507          36.000  
G06  21719608.703   114137068.851       -1503.132          24.000  
G09  22535860.823   118426668.817       -1555.294          30.000  
G12  23280549.186   122340188.371       -2145.606          24.000  
G19  22738566.693   119491824.382       -3475.642          24.000  
G20  20508100.313   107770712.701         914.094          28.000  
G25  23558658.855   123801372.9221       -740.293          16.000  
J03  38968786.845   204782205.654         585.606          24.000  
> 2025 05 23 06 11 40.9995546  0 18                     
C03  37184742.089   193630709.7041        142.190          16.000  
C08  36551358.571   190332397.645         235.732          33.000  
C10  36161005.107   188299704.211        -483.524          32.000  
C13  37286982.409   194162992.016         405.984          27.000  
C30  21740248.589   113207060.000        -747.614          27.000  
C32  22377530.008   116525516.221        -864.668          33.000  
C40  36591213.580   190539910.706        -870.339          26.000  
E08  25283433.893   132865551.674         161.817          32.000  
E13  24275494.775   127568449.457        -860.083          28.000  
E26  24081513.165   126549183.369        1123.249          40.000  
G05  22346425.042   117431153.789        2779.275          36.000  
G06  21719917.564   114138713.646       -1501.575          27.000  
G09  22536180.177   118428368.228       -1554.549          30.000  
G12  23280987.857   122342477.467       -2149.623          22.000  
G19  22739258.389   119495442.0541      -3474.672          19.000  
G20  20507954.389   107769942.229         915.455          28.000  
G25  23558830.111   123802257.9931       -743.220          17.000  
J03  38968704.477   204781763.588         586.468          21.000  
> 2025 05 23 06 11 41.9994936  0 18                     
C03  37184756.291   193630709.698         141.176          21.000  
C08  36551339.797   190332303.117         238.005          32.000  
C10  36161123.338   188300329.306        -482.215          32.000  
C13  37286933.056   194162727.146         419.910          24.000  
C30  21740422.581   113207951.639        -751.376          27.000  
C32  22377726.485   116526525.919        -871.286          36.000  
C40  36591411.555   190540924.046        -873.927          24.000  
E08  25283428.010   132865532.429         159.083          33.000  
E13  24275687.354   127569450.906        -862.438          32.000  
E26  24081326.207   126548203.138        1124.301          40.000  
G05  22345923.601   117428518.214        2778.964          38.000  
G06  21720229.461   114140357.900       -1504.234          30.000  
G09  22536501.967   118430067.031       -1556.209          31.000  
G12  23281426.866   122344772.5801      -2153.579          19.000  
G19  22739954.619   119499060.5051      -3474.297          16.000  
G20  20507808.802   107769171.311         913.833          27.000  
G25  23559003.204   123803144.2931       -745.638          17.000  
J03  38968622.447   204781321.377         585.532          23.000  
> 2025 05 23 06 11 43.0004325  0 18                     
C03  37184759.926   193630650.168         142.197          21.000  
C08  36551311.354   190332147.063         240.124          31.000  
C10  36161233.399   188300893.064        -480.142          31.000  
C13  37286868.938   194162391.233         416.364          25.000  
C30  21740582.708   113208784.709        -752.142          28.000  
C32  22377910.295   116527480.580        -870.097          36.000  
C40  36591598.064   190541881.305        -861.463          22.000  
E08  25283417.254   132865456.564         159.413          31.000  
E13  24275868.466   127570396.782        -862.116          35.000  
E26  24081128.981   126547161.954        1124.089          39.000  
G05  22345411.294   117425817.704        2785.203          36.000  
G06  21720531.989   114141951.195       -1507.799          30.000  
G09  22536814.088   118431710.380       -1563.357          33.000  
G12  23281855.307   122347013.9231      -2156.700          16.000  
G19  22740640.882   119502633.0441      -3487.200          17.000  
G20  20507652.348   107768338.641         918.786          26.000  
G25  23559163.930   123804241.8951       -739.908          16.000  
J03  38968525.351   204780820.071         582.835          27.000  
> 2025 05 23 06 11 43.0004325  0 18                     
C03  37184759.926   193630650.168         142.197          21.000  
C08  36551311.354   190332147.063         240.124          31.000  
C10  36161233.399   188300893.064        -480.142          31.000  
C13  37286868.938   194162391.233         416.364          25.000  
C30  21740582.708   113208784.709        -752.142          28.000  
C32  22377910.295   116527480.580        -870.097          36.000  
C40  36591598.064   190541881.305        -861.463          22.000  
E08  25283417.254   132865456.564         159.413          31.000  
E13  24275868.466   127570396.782        -862.116          35.000  
E26  24081128.981   126547161.954        1124.089          39.000  
G05  22345411.294   117425817.704        2785.203          36.000  
G06  21720531.989   114141951.195       -1507.799          30.000  
G09  22536814.088   118431710.380       -1563.357          33.000  
G12  23281855.307   122347013.9231      -2156.700          16.000  
G19  22740640.882   119502633.0441      -3487.200          17.000  
G20  20507652.348   107768338.641         918.786          26.000  
G25  23559163.930   123804241.8951       -739.908          16.000  
J03  38968525.351   204780820.071         582.835          27.000  
> 2025 05 23 06 11 44.0003715  0 17                     
C03  37185033.599   193632227.3031        143.041          13.000  
C08  36551294.528   190332050.823         238.091          32.000  
C10  36161354.778   188301516.574        -482.692          32.000  
C13  37286818.835   194162118.727         416.181          24.000  
C30  21740756.250   113209680.807        -752.637          29.000  
C32  22378106.921   116528493.731        -873.479          36.000  
C40  36591794.091   190542885.609        -862.610          23.000  
E08  25283417.817   132865442.840         157.614          31.000  
E13  24276061.795   127571405.932        -865.015          35.000  
E26  24080944.272   126546183.289        1122.129          36.000  
G05  22344909.703   117423178.692        2782.059          37.000  
G06  21720846.433   114143601.977       -1510.101          31.000  
G09  22537138.426   118433419.319       -1565.114          35.000  
G12  23282292.067   122349297.1161      -2141.942          19.000  
G19  22741338.461   119506539.9041      -3489.121          16.000  
G20  20507505.412   107767564.617         917.878          23.000  
G25  23559335.074   123805124.8781       -734.982          19.000  
> 2025 05 23 06 11 46.0002494  0 18                     
C03  37184707.425   193630529.4361        148.446          16.000  
C08  36551231.871   190331701.121         239.501          31.000  
C10  36161565.831   188302601.122        -478.431          32.000  
C13  37286688.725   194161418.156         412.168          27.000  
C30  21741069.833   113211309.804        -752.580          26.000  
C32  22378468.171   116530365.403        -873.212          33.000  
C40  36592154.441   190544747.184        -873.180          22.000  
E08  25283387.538   132865259.633         154.582          32.000  
E13  24276423.045   127573261.119        -863.978          36.000  
E26  24080544.948   126544069.925        1122.304          35.000  
G05  22343877.818   117417737.377        2784.814          32.000  
G06  21721450.515   114146747.903       -1507.894          33.000  
G09  22537761.995   118436679.749       -1567.614          32.000  
G12  23283133.585   122353705.9831      -2140.800          18.000  
G19  22742690.226   119513653.381       -3493.248          24.000  
G20  20507184.334   107765865.126         914.054          23.000  
G25  23559642.062   123806731.293        -743.519          23.000  
J03  38968250.704   204779350.4311        580.425          27.000  
> 2025 05 23 06 11 46.0002494  0 18                     
C03  37184707.425   193630529.4361        148.446          16.000  
C08  36551231.871   190331701.121         239.501          31.000  
C10  36161565.831   188302601.122        -478.431          32.000  
C13  37286688.725   194161418.156         412.168          27.000  
C30  21741069.833   113211309.804        -752.580          26.000  
C32  22378468.171   116530365.403        -873.212          33.000  
C40  36592154.441   190544747.184        -873.180          22.000  
E08  25283387.538   132865259.633         154.582          32.000  
E13  24276423.045   127573261.119        -863.978          36.000  
E26  24080544.948   126544069.925        1122.304          35.000  
G05  22343877.818   117417737.377        2784.814          32.000  
G06  21721450.515   114146747.903       -1507.894          33.000  
G09  22537761.995   118436679.749       -1567.614          32.000  
G12  23283133.585   122353705.9831      -2140.800          18.000  
G19  22742690.226   119513653.381       -3493.248          24.000  
G20  20507184.334   107765865.126         914.054          23.000  
G25  23559642.062   123806731.293        -743.519          23.000  
J03  38968250.704   204779350.431         580.425          27.000  
> 2025 05 23 06 11 47.0001884  0 18                     
C03  37184710.798   193630523.779         145.700          28.000  
C08  36551215.757   190331601.235         240.606          29.000  
C10  36161686.123   188303220.775        -480.462          32.000  
C13  37286637.835   194161144.810         415.404          25.000  
C30  21741242.888   113212202.929        -752.226          27.000  
C32  22378663.411   116531379.028        -873.990          32.000  
C40  36592349.381   190545759.472        -873.716          21.000  
E08  25283382.516   132865247.136         153.233          30.000  
E13  24276614.387   127574269.830        -866.440          34.000  
E26  24080361.250   126543092.251        1119.779          37.000  
G05  22343375.740   117415095.026        2784.744          29.000  
G06  21721765.972   114148400.892       -1511.723          36.000  
G09  22538089.143   118438391.157       -1570.806          28.000  
G12  23283569.558   122355990.4211      -2144.204          19.000  
G19  22743382.222   119517286.081       -3492.188          27.000  
G20  20507037.811   107765094.043         912.745          27.000  
G25  23559811.819   123807616.474        -744.003          22.000  
J03  38968169.235   204778912.705         579.750          28.000  
> 2025 05 23 06 11 49.0000664  0 18                     
C03  37184697.944   193630519.137         146.102          33.000  
C08  36551180.719   190331402.915         241.325          28.000  
C10  36161931.391   188304459.669        -476.007          31.000  
C13  37286541.939   194160590.803         421.961          24.000  
C30  21741587.987   113213991.225        -754.947          28.000  
C32  22379055.877   116533414.365        -880.991          33.000  
C40  36592744.545   190547784.553        -868.058          21.000  
E08  25283388.849   132865232.671         145.723          22.000  
E13  24277002.356   127576290.387        -869.422          32.000  
E26  24079991.344   126541140.769        1119.287          37.000  
G05  22342372.972   117409804.859        2794.403          30.000  
G06  21722399.171   114151977.433       -1516.677          33.000  
G09  22538742.129   118441824.889       -1578.472          37.000  
G12  23284444.090   122360559.7251      -2140.945          20.000  
G19  22744767.000   119524552.172       -3490.178          25.000  
G20  20506747.649   107763557.502         912.459          28.000  
G25  23560149.423   123809386.236        -741.907          27.000  
J03  38968006.485   204778041.631         578.022          28.000  
> 2025 05 23 06 11 49.0000664  0 18                     
C03  37184697.944   193630519.137         146.102          33.000  
C08  36551180.719   190331402.915         241.325          28.000  
C10  36161931.391   188304459.669        -476.007          31.000  
C13  37286541.939   194160590.803         421.961          24.000  
C30  21741587.987   113213991.225        -754.947          28.000  
C32  22379055.877   116533414.365        -880.991          33.000  
C40  36592744.545   190547784.553        -868.058          21.000  
E08  25283388.849   132865232.671         145.723          22.000  
E13  24277002.356   127576290.387        -869.422          32.000  
E26  24079991.344   126541140.769        1119.287          37.000  
G05  22342372.972   117409804.859        2794.403          30.000  
G06  21722399.171   114151977.433       -1516.677          33.000  
G09  22538742.129   118441824.889       -1578.472          37.000  
G12  23284444.090   122360559.7251      -2140.945          20.000  
G19  22744767.000   119524552.172       -3490.178          25.000  
G20  20506747.649   107763557.502         912.459          28.000  
G25  23560149.423   123809386.236        -741.907          27.000  
J03  38968006.485   204778041.631         578.022          28.000  
> 2025 05 23 06 11 50.0000053  0 18                     
C03  37184663.918   193630360.230         149.248          32.000  
C08  36551132.003   190331150.751         239.574          28.000  
C10  36162018.481   188304922.644        -475.774          32.000  
C13  37286456.648   194160155.721         425.955          23.000  
C30  21741734.136   113214733.750        -754.221          27.000  
C32  22379223.611   116534281.241        -880.330          33.000  
C40  36592909.881   190548638.026        -867.139          21.000  
E08  25283370.712   132865074.045         147.527          22.000  
E13  24277167.991   127577149.946        -871.261          30.000  
E26  24079778.341   126540011.946        1117.248          36.000  
G05  22341840.091   117406998.251        2795.537          32.000  
G06  21722688.321   114153483.618       -1520.843          28.000  
G09  22539041.171   118443390.795       -1578.907          33.000  
G12  23284849.259   122362686.759       -2133.606          25.000  
G19  22745429.392   119528029.844       -3485.963          27.000  
G20  20506573.619   107762632.669         915.148          28.000  
G25  23560286.878   123810113.861        -741.310          29.000  
J03  38967895.412   204777451.349         578.214          25.000  
> 2025 05 23 06 11 50.9999443  0 18                     
C03  37184664.930   193630350.495         152.472          32.000  
C08  36551115.926   190331052.870         239.840          29.000  
C10  36162138.210   188305536.471        -473.488          31.000  
C13  37286406.695   194159870.864         420.223          23.000  
C30  21741907.528   113215627.976        -753.714          25.000  
C32  22379423.385   116535304.562        -882.194          34.000  
C40  36593104.259   190549643.206        -862.472          24.000  
E08  25283375.321   132865068.797         146.031          23.000  
E13  24277362.369   127578162.525        -873.676          29.000  
E26  24079593.182   126539035.816        1119.104          38.000  
G05  22341338.950   117404345.492        2795.434          32.000  
G06  21723007.412   114155144.934       -1520.166          25.000  
G09  22539371.955   118445114.540       -1582.786          27.000  
G12  23285280.773   122364960.674       -2129.607          28.000  
G19  22746120.526   119531658.075       -3488.288          27.000  
G20  20506431.330   107761859.392         917.734          27.000  
G25  23560456.073   123810997.738        -740.196          28.000  
J03  38967813.981   204777014.712         580.665          27.000  
> 2025 05 23 06 11 52.9998223  0 17                     
C03  37184660.545   193630332.142         151.495          32.000  
C08  36551082.462   190330850.541         245.167          28.000  
C10  36162377.857   188306764.098        -474.217          30.000  
C13  37286307.277   194159586.591         422.927          25.000  
C30  21742252.102   113217424.434        -759.355          25.000  
C32  22379819.823   116537352.986        -883.518          29.000  
C40  36593492.302   190551916.612        -860.769          24.000  
E08  25283364.341   132865068.533         138.420          23.000  
E13  24277756.109   127580469.473        -872.896          23.000  
E26  24079226.049   126537086.039        1118.256          36.000  
G05  22340332.060   117399044.852        2792.557          33.000  
G06  21723647.282   114158473.196       -1521.592          28.000  
G09  22540035.808   118448576.240       -1588.576          27.000  
G12  23286147.585   122369502.143       -2128.246          25.000  
G19  22747510.776   119538918.299       -3486.605          27.000  
G25  23560796.450   123812756.618        -736.101          26.000  
J03  38967653.105   204776139.003         582.216          23.000  
> 2025 05 23 06 11 52.9998223  0 17                     
C03  37184660.545   193630332.142         151.495          32.000  
C08  36551082.462   190330850.541         245.167          28.000  
C10  36162377.857   188306764.098        -474.217          30.000  
C13  37286307.277   194159586.591         422.927          25.000  
C30  21742252.102   113217424.434        -759.355          25.000  
C32  22379819.823   116537352.986        -883.518          29.000  
C40  36593492.302   190551916.612        -860.769          24.000  
E08  25283364.341   132865068.533         138.420          23.000  
E13  24277756.109   127580469.473        -872.896          23.000  
E26  24079226.049   126537086.039        1118.256          36.000  
G05  22340332.060   117399044.852        2792.557          33.000  
G06  21723647.282   114158473.196       -1521.592          28.000  
G09  22540035.808   118448576.240       -1588.576          27.000  
G12  23286147.585   122369502.143       -2128.246          25.000  
G19  22747510.776   119538918.299       -3486.605          27.000  
G25  23560796.450   123812756.618        -736.101          26.000  
J03  38967653.105   204776139.003         582.216          23.000  
> 2025 05 23 06 11 54.9997002  0 17                     
C03  37184629.517   193630162.523         149.385          30.000  
C08  36551016.358   190330493.937         239.120          24.000  
C10  36162593.258   188308112.678        -480.111          26.000  
C13  37286178.516   194158867.335         422.136          23.000  
C30  21742584.122   113219341.163        -760.990          21.000  
C32  22380189.018   116539516.243        -882.537          33.000  
C40  36593856.700   190553773.773        -869.567          21.000  
E08  25283342.606   132864912.701         145.378          26.000  
E13  24278109.415   127582339.934        -871.248          30.000  
E26  24078832.271   126534980.857        1121.410          26.000  
G05  22339298.226   117393597.300        2782.783          33.000  
G09  22540660.126   118451864.772       -1579.720          35.000  
G12  23286990.452   122373894.363       -2140.615          26.000  
G19  22748873.183   119546023.707       -3491.731          23.000  
G20  20505820.316   107758612.7251        909.814          24.000  
G25  23561105.986   123814368.044        -747.988          23.000  
J03  38967461.688   204775392.296         582.866          21.000  
> 2025 05 23 06 11 55.9996392  0 18                     
C03  37184629.554   193630157.402         147.489          25.000  
C08  36550999.007   190330397.198         238.954          22.000  
C10  36162710.514   188308733.132        -478.431          25.000  
C13  37286126.090   194158587.879         421.604          21.000  
C30  21742758.039   113220241.379        -758.276          25.000  
C32  22380386.019   116540539.334        -882.840          34.000  
C40  36594051.003   190554785.8281       -872.435          20.000  
E08  25283335.149   132864910.152         144.983          27.000  
E13  24278299.221   127583352.339        -871.764          31.000  
E26  24078643.440   126534006.687        1117.526          38.000  
G05  22338796.710   117390956.093        2797.418          28.000  
G06  21724561.537   114163292.0191      -1516.934          38.000  
G09  22540988.136   118453586.521       -1578.524          36.000  
G12  23287429.086   122376180.360       -2144.718          23.000  
G19  22749569.338   119549659.003       -3490.637          22.000  
G20  20505679.451   107757848.322         906.626          22.000  
G25  23561274.806   123815260.510        -751.624          21.000  
J03  38967375.685   204774954.323         579.943          28.000  
> 2025 05 23 06 11 55.9996392  0 18                     
C03  37184629.554   193630157.402         147.489          25.000  
C08  36550999.007   190330397.198         238.954          22.000  
C10  36162710.514   188308733.132        -478.431          25.000  
C13  37286126.090   194158587.879         421.604          21.000  
C30  21742758.039   113220241.379        -758.276          25.000  
C32  22380386.019   116540539.334        -882.840          34.000  
C40  36594051.003   190554785.8281       -872.435          20.000  
E08  25283335.149   132864910.152         144.983          27.000  
E13  24278299.221   127583352.339        -871.764          31.000  
E26  24078643.440   126534006.687        1117.526          38.000  
G05  22338796.710   117390956.093        2797.418          28.000  
G06  21724561.537   114163292.019       -1516.934          38.000  
G09  22540988.136   118453586.521       -1578.524          36.000  
G12  23287429.086   122376180.360       -2144.718          23.000  
G19  22749569.338   119549659.003       -3490.637          22.000  
G20  20505679.451   107757848.322         906.626          22.000  
G25  23561274.806   123815260.510        -751.624          21.000  
J03  38967375.685   204774954.323         579.943          28.000  
> 2025 05 23 06 11 56.9995782  0 18                     
C03  37184633.526   193630157.304         142.731          23.000  
C08  36550980.795   190330303.024         237.550          24.000  
C10  36162829.607   188309355.194        -479.525          26.000  
C13  37286070.703   194158311.806         414.630          24.000  
C30  21742926.298   113221142.986        -757.270          25.000  
C32  22380581.258   116541565.703        -882.781          33.000  
C40  36594247.142   190555803.1531       -874.238          19.000  
E08  25283331.326   132864909.666         144.558          30.000  
E13  24278493.861   127584369.108        -871.629          33.000  
E26  24078460.941   126533037.616        1114.752          36.000  
G05  22338296.132   117388304.029        2797.527          25.000  
G06  21724876.693   114164951.936       -1515.517          37.000  
G09  22541316.484   118455311.619       -1582.262          35.000  
G12  23287868.057   122378469.086       -2146.515          22.000  
G19  22750261.334   119553291.625       -3488.861          24.000  
G20  20505538.624   107757088.085         905.467          22.000  
G25  23561448.761   123816156.346        -752.641          22.000  
J03  38967292.118   204774520.949         579.059          28.000  
> 2025 05 23 06 11 58.9994561  0 18                     
C03  37185029.477   193632206.1491        151.582          17.000  
C08  36550914.166   190329956.892         237.706          31.000  
C10  36163034.889   188310440.196        -478.206          24.000  
C13  37285931.524   194157614.426         411.503          29.000  
C30  21743237.707   113222780.897        -756.195          31.000  
C32  22380945.731   116543459.120        -886.159          38.000  
C40  36594603.820   190557666.849        -866.006          30.000  
E08  25283304.870   132864749.471         143.889          30.000  
E13  24278854.137   127586242.125        -871.997          36.000  
E26  24078062.142   126530941.177        1113.527          30.000  
G05  22337264.171   117382858.922        2787.059          35.000  
G06  21725480.101   114168114.301       -1517.697          37.000  
G09  22541945.373   118458610.391       -1587.606          36.000  
G12  23288711.598   122382887.556       -2131.400          27.000  
G19  22751610.625   119560394.533       -3486.493          28.000  
G20  20505214.173   107755404.861         904.905          35.000  
G25  23561761.969   123817776.450        -740.190          22.000  
J03  38967098.676   204773490.343         581.568          32.000  
> 2025 05 23 06 11 58.9994561  0 18                     
C03  37185029.477   193632206.1491        151.582          17.000  
C08  36550914.166   190329956.892         237.706          31.000  
C10  36163034.889   188310440.196        -478.206          24.000  
C13  37285931.524   194157614.426         411.503          29.000  
C30  21743237.707   113222780.897        -756.195          31.000  
C32  22380945.731   116543459.120        -886.159          38.000  
C40  36594603.820   190557666.849        -866.006          30.000  
E08  25283304.870   132864749.471         143.889          30.000  
E13  24278854.137   127586242.125        -871.997          36.000  
E26  24078062.142   126530941.177        1113.527          30.000  
G05  22337264.171   117382858.922        2787.059          35.000  
G06  21725480.101   114168114.301       -1517.697          37.000  
G09  22541945.373   118458610.391       -1587.606          36.000  
G12  23288711.598   122382887.556       -2131.400          27.000  
G19  22751610.625   119560394.533       -3486.493          28.000  
G20  20505214.173   107755404.861         904.905          35.000  
G25  23561761.969   123817776.450        -740.190          22.000  
J03  38967098.676   204773490.343         581.568          32.000  
> 2025 05 23 06 12 00.0003950  0 18                     
C03  37185042.706   193632135.3731        150.306          18.000  
C08  36550885.424   190329801.236         237.411          30.000  
C10  36163144.351   188311000.166        -476.683          25.000  
C13  37285866.507   194157283.834         412.282          28.000  
C30  21743398.433   113223619.587        -756.973          31.000  
C32  22381133.139   116544428.224        -888.562          39.000  
C40  36594784.333   190558612.007        -862.741          30.000  
E08  25283295.913   132864688.236         141.081          36.000  
E13  24279036.748   127587198.454        -874.005          36.000  
E26  24077874.210   126529910.228        1112.057          26.000  
G05  22336749.765   117380150.422        2787.995          35.000  
G06  21725786.826   114169715.063       -1519.555          33.000  
G09  22542265.589   118460283.581       -1592.690          33.000  
G12  23289132.544   122385107.559       -2141.071          31.000  
G19  22752291.791   119563965.146       -3486.861          25.000  
G20  20505055.620   107754580.436         906.266          36.000  
G25  23561921.796   123818600.537        -754.583          22.000  
J03  38967003.680   204772990.573         581.338          30.000  
> 2025 05 23 06 12 01.0003340  0 17                     
C03  37184563.075   193629777.536         159.622          28.000  
C08  36550868.073   190329704.985         238.848          27.000  
C10  36163264.605   188311615.163        -472.226          26.000  
C13  37285820.076   194157010.985         418.906          28.000  
C30  21743570.852   113224517.841        -756.624          30.000  
C32  22381331.939   116545455.671        -889.191          38.000  
C40  36594980.135   190559613.838        -860.569          29.000  
E08  25283294.752   132864691.386         140.048          39.000  
E13  24279233.449   127588218.248        -876.410          38.000  
E26  24077689.575   126528942.412        1112.759          29.000  
G05  22336247.050   117377769.515        2791.701          39.000  
G06  21726105.842   114171378.892       -1523.147          38.000  
G09  22542601.394   118462024.701       -1598.776          29.000  
G12  23289566.681   122387390.331       -2135.609          30.000  
G19  22752984.049   119567595.436       -3485.807          24.000  
G20  20504912.357   107753815.682         909.406          35.000  
J03  38966920.974   204772553.545         580.055          33.000  
> 2025 05 23 06 12 02.0002730  0 18                     
C03  37184615.651   193630050.812         152.634          28.000  
C08  36550850.498   190329869.363         240.843          26.000  
C10  36163383.735   188312226.373        -471.073          27.000  
C13  37285771.323   194156731.213         423.784          25.000  
C30  21743740.946   113225416.335        -757.371          29.000  
C32  22381532.612   116546486.819        -890.359          35.000  
C40  36595171.215   190560615.527        -860.434          31.000  
E08  25283296.063   132864696.768         136.223          37.000  
E13  24279429.925   127589238.918        -878.864          40.000  
E26  24077506.214   126527973.622        1111.204          31.000  
G05  22335745.010   117375119.026        2795.505          36.000  
G06  21726423.435   114173043.247       -1521.117          42.000  
G09  22542933.677   118463766.133       -1598.921          28.000  
G12  23289999.994   122389665.605       -2134.374          30.000  
G19  22753676.083   119571220.288       -3482.945          25.000  
G20  20504767.970   107753048.013         911.630          31.000  
G25  23562267.007   123820389.8941       -750.522          22.000  
J03  38966838.344   204772116.608         580.814          35.000  
> 2025 05 23 06 12 03.0002120  0 18                     
C03  37184630.116   193630039.133         151.060          29.000  
C08  36550834.084   190329768.496         242.361          22.000  
C10  36163502.228   188312837.275        -471.027          28.000  
C13  37285712.938   194156449.223         420.905          29.000  
C30  21743916.400   113226313.144        -752.944          32.000  
C32  22381730.850   116547516.192        -887.066          37.000  
C40  36595364.057   190561615.650        -863.719          33.000  
E08  25283298.537   132864700.637         138.880          36.000  
E13  24279621.868   127590256.892        -876.397          40.000  
E26  24077316.521   126527005.301        1110.621          32.000  
G05  22335242.034   117372465.611        2796.156          31.000  
G06  21726739.791   114174705.444       -1517.956          43.000  
G09  22543266.222   118465503.971       -1593.488          29.000  
G12  23290432.069   122391941.788       -2137.787          31.000  
G19  22754363.882   119574841.036       -3477.691          22.000  
G20  20504623.545   107752277.956         914.450          27.000  
G25  23562437.964   123821282.225        -751.606          22.000  
J03  38966754.177   204771676.884         585.257          38.000  
> 2025 05 23 06 12 04.0001509  0 18                     
C03  37184600.212   193629875.965         149.250          27.000  
C08  36550785.892   190329512.293         243.269          22.000  
C10  36163592.841   188313297.233        -474.641          30.000  
C13  37285629.371   194156019.780         411.547          32.000  
C30  21744061.574   113227053.546        -754.547          35.000  
C32  22381900.008   116548388.649        -885.607          38.000  
C40  36595526.020   190562459.106        -855.260          30.000  
E08  25283271.330   132864544.768         141.586          32.000  
E13  24279788.627   127591116.381        -875.255          40.000  
E26  24077107.640   126525887.074        1104.740          32.000  
G05  22334711.176   117369654.409        2798.672          28.000  
G06  21727026.767   114176207.574       -1514.387          43.000  
G09  22543566.389   118467082.172       -1591.798          29.000  
G12  23290838.363   122394069.834       -2142.443          30.000  
G19  22755022.900   119578301.514       -3475.930          21.000  
G20  20504449.440   107751348.138         915.752          23.000  
G25  23562578.641   123822026.808        -760.536          23.000  
J03  38966640.931   204771077.910         585.957          39.000  
> 2025 05 23 06 12 05.0000899  0 17                     
C03  37184606.583   193629868.958         147.381          24.000  
C08  36550771.278   190329411.866         243.345          21.000  
C10  36163714.931   188313913.401        -475.984          26.000  
C13  37285579.680   194155753.796         406.847          29.000  
C30  21744234.330   113227947.323        -750.572          34.000  
C32  22382099.445   116549415.046        -882.746          38.000  
C40  36595722.159   190563452.516        -849.044          28.000  
E08  25283271.405   132864542.035         145.244          29.000  
E13  24279982.968   127592132.255        -872.974          39.000  
E26  24076929.638   126524930.556        1100.168          32.000  
G05  22334209.399   117367001.230        2784.883          27.000  
G06  21727342.524   114177863.427       -1510.840          41.000  
G12  23291274.936   122396354.566       -2141.410          26.000  
G19  22755712.198   119581919.3331      -3473.880          18.000  
G20  20504301.717   107750575.6391        916.756          19.000  
G25  23562751.097   123822934.707        -770.127          26.000  
J03  38966556.764   204770633.900         590.052          39.000  
> 2025 05 23 06 12 06.0000289  0 18                     
C03  37184593.729   193629860.245         152.754          24.000  
C08  36550753.028   190329311.006         242.400          22.000  
C10  36163835.185   188314530.309        -474.339          25.000  
C13  37285529.952   194155490.116         405.369          25.000  
C30  21744404.949   113228839.332        -747.891          34.000  
C32  22382297.645   116550440.744        -886.426          37.000  
C40  36595912.265   190564443.190        -847.999          33.000  
E08  25283274.741   132864534.782         152.000          27.000  
E13  24280174.872   127593146.158        -870.613          38.000  
E26  24076748.301   126523978.033        1096.593          32.000  
G05  22333709.982   117364361.289        2783.751          27.000  
G06  21727658.842   114179516.661       -1510.469          37.000  
G09  22544226.344   118470550.3261      -1591.161          27.000  
G12  23291714.769   122398640.099       -2144.640          21.000  
G19  22756401.758   119585535.3771      -3471.128          18.000  
G20  20504156.355   107750068.1861        917.480          16.000  
G25  23562926.813   123823853.219        -780.505          30.000  
J03  38966471.960   204770185.141         593.779          38.000  
> 2025 05 23 06 12 07.9999069  0 18                     
C03  37184566.335   193629826.075         162.530          20.000  
C08  36550720.538   190329129.937         229.764          25.000  
C10  36164071.309   188315753.202        -470.869          24.000  
C13  37285431.208   194154957.365         409.912          25.000  
C30  21744751.097   113230614.930        -748.632          34.000  
C32  22382696.557   116552493.199        -886.727          38.000  
C40  36596292.289   190566413.542        -843.315          33.000  
E08  25283275.528   132864517.695         150.264          28.000  
E13  24280563.291   127595169.108        -870.446          37.000  
E26  24076390.836   126522083.389        1088.363          31.000  
G05  22332709.762   117359079.970        2796.677          27.000  
G06  21728290.093   114182822.738       -1509.348          35.000  
G09  22544889.373   118474020.812       -1592.667          23.000  
G12  23292592.449   122403225.814       -2157.794          24.000  
G19  22757767.800   119592734.806       -3449.173          22.000  
G20  20503866.943   107748526.9221        910.974          16.000  
G25  23563285.252   123825717.877        -795.597          24.000  
J03  38966303.664   204769284.449         594.667          35.000  
> 2025 05 23 06 12 07.9999069  0 18                     
C03  37184566.335   193629826.075         162.530          20.000  
C08  36550720.538   190329129.937         229.764          25.000  
C10  36164071.309   188315753.202        -470.869          24.000  
C13  37285431.208   194154957.365         409.912          25.000  
C30  21744751.097   113230614.930        -748.632          34.000  
C32  22382696.557   116552493.199        -886.727          38.000  
C40  36596292.289   190566413.542        -843.315          33.000  
E08  25283275.528   132864517.695         150.264          28.000  
E13  24280563.291   127595169.108        -870.446          37.000  
E26  24076390.836   126522083.389        1088.363          31.000  
G05  22332709.762   117359079.970        2796.677          27.000  
G06  21728290.093   114182822.738       -1509.348          35.000  
G09  22544889.373   118474020.812       -1592.667          23.000  
G12  23292592.449   122403225.814       -2157.794          24.000  
G19  22757767.800   119592734.806       -3449.173          22.000  
G20  20503866.943   107748526.9221        910.974          16.000  
G25  23563285.252   123825717.877        -795.597          24.000  
J03  38966303.664   204769284.449         594.667          35.000  
> 2025 05 23 06 12 09.9997848  0 18                     
C03  37184526.463   193629640.295         153.652          21.000  
C08  36550658.780   190328800.322         229.615          27.000  
C10  36164284.462   188316825.981        -471.468          24.000  
C13  37285304.096   194154272.809         405.694          30.000  
C30  21745065.579   113232241.696        -752.756          33.000  
C32  22383064.402   116554395.102        -889.059          37.000  
C40  36596643.646   190568230.158        -847.176          27.000  
E08  25283245.249   132864349.732         145.633          27.000  
E13  24280925.740   127597042.792        -871.534          34.000  
E26  24075999.907   126520036.511        1091.248          32.000  
G05  22331680.274   117353638.668        2775.944          25.000  
G06  21728893.575   114185975.389       -1513.908          35.000  
G09  22545528.830   118477336.276       -1593.471          26.000  
G12  23293442.360   122407669.5501      -2157.013          19.000  
G19  22759107.273   119599759.0491      -3445.985          19.000  
G20  20503554.560   107746836.5231        909.726          16.000  
G25  23563616.523   123827436.346        -793.732          21.000  
J03  38966106.101   204768230.028         590.683          34.000  
> 2025 05 23 06 12 10.9997238  0 18                     
C03  37184329.649   193628562.260         174.960          21.000  
C08  36550641.243   190328711.196         231.877          24.000  
C10  36164403.030   188317438.681        -471.814          22.000  
C13  37285258.678   194154006.805         419.651          25.000  
C30  21745237.810   113233136.764        -752.296          34.000  
C32  22383260.616   116555424.350        -886.969          37.000  
C40  36596836.262   190569218.176        -849.678          26.000  
E08  25283241.801   132864346.606         145.463          27.000  
E13  24281118.656   127598056.721        -871.450          37.000  
E26  24075821.980   126519087.405        1090.772          30.000  
G05  22331180.071   117351005.786        2775.572          21.000  
G06  21729208.507   114187629.491       -1512.367          34.000  
G09  22545862.349   118479072.645       -1594.611          25.000  
G12  23293884.404   122409970.5771      -2159.934          16.000  
G19  22759787.952   119603352.384       -3452.480          25.000  
G20  20503417.105   107746087.0691        891.206          18.000  
G25  23563795.349   123828365.989        -788.087          27.000  
J03  38966021.410   204767781.084         592.234          34.000  
> 2025 05 23 06 12 11.9996627  0 18                     
C03  37184323.204   193628528.5421        173.586           5.000  
C08  36550593.725   190328466.515         233.611          23.000  
C10  36164492.818   188317896.341        -470.864          22.000  
C13  37285176.085   194153574.753         420.613          24.000  
C30  21745380.661   113233874.403        -750.463          34.000  
C32  22383429.249   116556301.203        -888.619          38.000  
C40  36596999.200   190570056.928        -850.553          30.000  
E08  25283215.569   132864189.259         144.657          30.000  
E13  24281281.893   127598914.388        -871.591          39.000  
E26  24075614.974   126517980.688        1094.722          31.000  
G05  22330652.286   117348218.7201       2775.643          16.000  
G06  21729494.359   114189128.736       -1512.938          38.000  
G09  22546167.088   118480656.993       -1596.623          24.000  
G12  23294292.572   122412111.6961      -2155.506          15.000  
G19  22760439.850   119606793.581       -3456.142          27.000  
G20  20503252.069   107745184.7311        890.830          18.000  
G25  23563942.697   123829142.617        -788.247          25.000  
J03  38965907.039   204767176.940         591.792          34.000  
> 2025 05 23 06 12 12.9996017  0 18                     
C03  37184352.134   193628500.5381        171.683           8.000  
C08  36550578.586   190328375.378         234.808          25.000  
C10  36164612.285   188318509.330        -471.294          24.000  
C13  37285123.771   194153297.446         408.015          24.000  
C30  21745555.890   113234769.651        -754.021          34.000  
C32  22383632.659   116557332.839        -891.798          39.000  
C40  36597191.517   190571049.510        -850.951          29.000  
E08  25283216.319   132864189.685         142.912          31.000  
E13  24281477.208   127599930.736        -872.875          42.000  
E26  24075433.449   126517029.987        1093.916          32.000  
G05  22330151.183   117345562.9301       2800.955          16.000  
G06  21729811.689   114190786.680       -1517.037          38.000  
G09  22546502.406   118482669.143       -1599.904          24.000  
G12  23294729.220   122414411.5011      -2159.023          15.000  
G19  22761127.424   119610396.966       -3460.529          29.000  
G20  20503111.316   107744437.5191        891.604          17.000  
G25  23564122.722   123830073.793        -787.567          21.000  
J03  38965823.846   204766730.769         589.905          34.000  
> 2025 05 23 06 12 13.9995407  0 18                     
C03  37185252.485   193633367.2831        177.072           5.000  
C08  36550561.273   190328281.050         235.800          25.000  
C10  36164732.577   188319120.051        -471.296          24.000  
C13  37285072.282   194153029.177         410.638          26.000  
C30  21745727.746   113235664.379        -756.290          34.000  
C32  22383830.297   116558363.387        -892.518          37.000  
C40  36597382.259   190572041.345        -852.906          32.000  
E08  25283215.794   132864189.770         140.816          28.000  
E13  24281672.748   127600948.055        -875.560          38.000  
E26  24075253.649   126516076.720        1094.873          32.000  
G05  22329647.906   117342904.3971       2801.383          18.000  
G06  21730128.645   114192443.980       -1515.143          36.000  
G09  22546833.452   118484407.393       -1596.379          25.000  
G12  23295171.189   122416713.7591      -2162.776          14.000  
G19  22761812.825   119613998.865       -3462.943          27.000  
G20  20502973.787   107743682.234         897.837          21.000  
G25  23564302.073   123830996.6151       -782.571          17.000  
J03  38965739.680   204766283.562         589.219          35.000  
> 2025 05 23 06 12 14.9994797  0 18                     
C03  37185283.177   193633332.0821        173.981          14.000  
C08  36550548.195   190328188.979         234.451          27.000  
C10  36164851.407   188319734.649        -472.460          26.000  
C13  37285022.928   194152761.070         412.214          26.000  
C30  21745901.438   113236562.579        -755.563          35.000  
C32  22384028.572   116559397.323        -892.324          38.000  
C40  36597572.141   190573037.010        -854.318          33.000  
E08  25283218.904   132864193.492         140.029          32.000  
E13  24281866.226   127601966.964        -875.720          39.000  
E26  24075077.783   126515387.307        1095.639          34.000  
G05  22329144.068   117340247.018        2801.103          22.000  
G06  21730445.338   114194103.523       -1515.452          38.000  
G09  22547165.435   118486148.250       -1597.688          21.000  
G12  23295611.996   122419020.4831      -2166.021          11.000  
G19  22762500.361   119617606.542       -3463.986          23.000  
G20  20502833.296   107742928.819         897.269          22.000  
G25  23564480.262   123831922.7381       -782.898          13.000  
J03  38965656.750   204765838.743         589.335          35.000  
> 2025 05 23 06 12 16.0004186  0 18                     
C03  37184435.551   193629113.0501        172.872           5.000  
C08  36550520.201   190328036.411         233.297          29.000  
C10  36164957.421   188320288.706        -474.856          27.000  
C13  37284956.562   194152429.522         412.033          31.000  
C30  21746065.012   113237399.054        -755.460          36.000  
C32  22384216.729   116560370.368        -892.937          38.000  
C40  36597754.002   190573970.248        -853.230          30.000  
E08  25283209.498   132864135.733         137.954          34.000  
E13  24282049.287   127602924.749        -875.417          42.000  
E26  24074881.007   126514368.809        1098.794          32.000  
G05  22328625.614   117337525.2951       2800.013          18.000  
G06  21730751.614   114195702.185       -1516.654          41.000  
G09  22547487.000   118487833.508       -1602.258          26.000  
G12  23296044.484   122421539.9831      -2169.367          11.000  
G19  22763177.180   119621154.376       -3466.179          22.000  
G20  20502680.290   107742112.198         897.296          21.000  
G25  23564647.134   123833056.2531       -782.713          13.000  
J03  38965562.203   204765330.788         589.732          35.000  
> 2025 05 23 06 12 17.0003576  0 18                     
C03  37184450.690   193629082.179         172.493          23.000  
C08  36550503.263   190327945.428         234.499          30.000  
C10  36165076.888   188320905.670        -474.597          26.000  
C13  37284906.946   194152159.702         413.433          32.000  
C30  21746238.442   113238298.616        -759.217          36.000  
C32  22384417.140   116561406.696        -893.185          37.000  
C40  36597948.118   190574966.580        -854.345          29.000  
E08  25283213.246   132864141.748         136.048          31.000  
E13  24282245.501   127603944.026        -875.825          42.000  
E26  24074701.881   126513414.455        1098.457          33.000  
G05  22328128.408   117334887.235        2781.106          28.000  
G06  21731069.843   114197365.880       -1521.941          39.000  
G09  22547822.617   118489580.332       -1601.320          23.000  
G12  23296487.727   122423854.4791      -2171.833          12.000  
G19  22763864.754   119624764.508       -3468.700          23.000  
G20  20502541.036   107741359.9241        896.197          18.000  
G25  23564825.361   123833980.9221       -782.121          13.000  
J03  38965479.310   204764886.845         585.999          35.000  
> 2025 05 23 06 12 17.0003576  0 18                     
C03  37184450.690   193629082.179         172.493          23.000  
C08  36550503.263   190327945.428         234.499          30.000  
C10  36165076.888   188320905.670        -474.597          26.000  
C13  37284906.946   194152159.702         413.433          32.000  
C30  21746238.442   113238298.616        -759.217          36.000  
C32  22384417.140   116561406.696        -893.185          37.000  
C40  36597948.118   190574966.580        -854.345          29.000  
E08  25283213.246   132864141.748         136.048          31.000  
E13  24282245.501   127603944.026        -875.825          42.000  
E26  24074701.881   126513414.455        1098.457          33.000  
G05  22328128.408   117334887.235        2781.106          28.000  
G06  21731069.843   114197365.880       -1521.941          39.000  
G09  22547822.617   118489580.332       -1601.320          23.000  
G12  23296487.727   122423854.4791      -2171.833          12.000  
G19  22763864.754   119624764.508       -3468.700          23.000  
G20  20502541.036   107741359.9241        896.197          18.000  
G25  23564825.361   123833980.9221       -782.121          13.000  
J03  38965479.310   204764886.845         585.999          35.000  
> 2025 05 23 06 12 19.0002355  0 18                     
C03  37184563.825   193629781.4001        171.389           5.000  
C08  36550438.620   190327603.916         235.597          27.000  
C10  36165285.656   188321981.351        -474.921          23.000  
C13  37284774.850   194151457.934         417.869          26.000  
C30  21746558.733   113239944.245        -760.692          37.000  
C32  22384789.595   116563321.886        -898.328          35.000  
C40  36598307.981   190576806.586        -855.997          29.000  
E08  25283191.773   132863999.795         127.913          26.000  
E13  24282605.365   127605823.221        -877.935          34.000  
E26  24074307.466   126511346.476        1099.404          33.000  
G05  22327109.526   117329751.554        2782.714          22.000  
G06  21731674.038   114200531.956       -1522.043          32.000  
G09  22548452.893   118492910.422       -1601.093          22.000  
G12  23297332.355   122428291.0491      -2155.854          16.000  
G19  22765212.134   119631834.581       -3472.932          23.000  
G20  20502226.367   107739697.364         896.957          23.000  
G25  23565145.951   123835671.9551       -780.514          13.000  
J03  38965281.859   204763842.069         586.875          34.000  
> 2025 05 23 06 12 20.0001745  0 17                     
C03  37184573.830   193629750.7531        167.997          12.000  
C08  36550419.846   190327508.073         235.416          26.000  
C10  36165404.187   188322594.713        -474.970          24.000  
C13  37284726.396   194151179.917         416.345          27.000  
C30  21746734.524   113240842.992        -759.741          36.000  
C32  22384989.669   116564359.022        -897.297          36.000  
C40  36598500.860   190577801.849        -858.656          29.000  
E08  25283193.085   132864011.949         131.135          28.000  
E13  24282801.541   127606842.408        -878.340          37.000  
E26  24074130.401   126510389.546        1097.148          34.000  
G05  22326611.384   117327109.808        2783.450          22.000  
G06  21731991.930   114202194.173       -1521.165          33.000  
G09  22548784.276   118494654.872       -1608.693          26.000  
G12  23297770.764   122430579.694       -2139.529          24.000  
G19  22765901.769   119635448.444       -3474.430          22.000  
G20  20502080.180   107738941.259         900.635          25.000  
J03  38965198.929   204763396.432         586.262          34.000  
> 2025 05 23 06 12 21.0001135  0 17                     
C03  37184594.628   193629729.2721        161.970          10.000  
C08  36550404.969   190327417.758         235.376          26.000  
C10  36165522.717   188323213.191        -474.198          24.000  
C13  37284677.342   194150909.025         409.220          26.000  
C30  21746908.516   113241746.716        -758.613          35.000  
C32  22385190.942   116565398.894        -896.486          34.000  
C40  36598693.439   190578805.052        -861.177          29.000  
E08  25283196.795   132864025.936         130.381          27.000  
E13  24282999.817   127607864.970        -876.806          33.000  
E26  24073952.137   126509435.601        1100.031          34.000  
G05  22326111.142   117324470.670        2786.796          22.000  
G06  21732311.022   114203859.753       -1520.527          31.000  
G09  22549117.458   118496407.839       -1607.896          26.000  
G12  23298209.473   122432863.184       -2138.043          23.000  
G19  22766595.002   119639067.342       -3488.080          24.000  
G20  20501939.390   107738186.086         901.843          27.000  
J03  38965115.399   204762956.301         585.644          32.000  
> 2025 05 23 06 12 22.0000524  0 15                     
C03  37185199.160   193633089.1751        170.964           5.000  
C08  36550359.250   190327165.423         235.671          25.000  
C10  36165610.406   188323669.440        -474.412          25.000  
C13  37284596.249   194150481.836         411.720          27.000  
C30  21747051.967   113242488.683        -761.224          36.000  
C32  22385362.873   116566278.331        -896.852          33.000  
C40  36598858.475   190579644.513        -856.721          27.000  
E08  25283169.963   132863877.341         131.425          30.000  
E13  24283162.754   127608724.056        -877.372          34.000  
E26  24073739.434   126508317.844        1100.868          33.000  
G09  22549423.397   118497999.803       -1606.555          25.000  
G12  23298614.942   122434981.289       -2134.533          22.000  
G19  22767262.190   119642537.811       -3480.311          24.000  
G20  20501765.660   107737267.101         903.293          26.000  
J03  38965001.628   204762353.145         587.032          33.000  
> 2025 05 23 06 12 22.9999914  0 17                     
C03  37185222.806   193633061.3991        169.848          16.000  
C08  36550342.125   190327072.633         236.694          25.000  
C10  36165729.986   188324287.199        -474.589          23.000  
C13  37284546.446   194150212.672         413.875          26.000  
C30  21747228.207   113243394.728        -762.577          36.000  
C32  22385564.896   116567317.672        -896.508          32.000  
C40  36599047.307   190580644.034        -856.737          26.000  
E08  25283175.022   132863891.512         129.935          29.000  
E13  24283360.879   127609747.148        -878.562          34.000  
E26  24073555.624   126507360.557        1103.162          31.000  
G05  22325080.269   117319019.6531       2792.601          24.000  
G06  21732919.713   114207029.9231      -1523.608          33.000  
G09  22549762.724   118499751.797       -1606.372          25.000  
G12  23299050.503   122437259.161       -2133.056          23.000  
G19  22767955.572   119646163.209       -3480.044          26.000  
G25  23565838.809   123839318.1321       -739.245          18.000  
J03  38964919.448   204761911.522         585.147          33.000  
> 2025 05 23 06 12 23.9999304  0 17                     
C08  36550325.449   190326977.246         236.719          25.000  
C10  36165851.215   188324902.423        -474.831          22.000  
C13  37284494.694   194149938.676         416.274          26.000  
C30  21747402.199   113244296.744        -762.623          36.000  
C32  22385766.469   116568355.968        -898.967          33.000  
C40  36599241.085   190581639.712        -856.037          24.000  
E08  25283181.130   132863904.249         129.563          27.000  
E13  24283556.156   127610768.545        -878.342          34.000  
E26  24073375.861   126506400.448        1102.160          33.000  
G05  22324579.728   117316368.722        2794.060          24.000  
G06  21733236.706   114208695.045       -1524.648          35.000  
G09  22550096.206   118501499.637       -1606.301          24.000  
G12  23299489.512   122439534.779       -2134.975          24.000  
G19  22768639.212   119649784.664       -3478.584          28.000  
G20  20501482.132   107736014.9861        904.347          26.000  
G25  23566007.105   123840200.4501       -740.680          17.000  
J03  38964835.318   204761468.685         584.667          33.000  
> 2025 05 23 06 12 24.9998693  0 18                     
C03  37184369.559   193628769.6871        167.104          22.000  
C08  36550277.932   190326727.163         237.039          24.000  
C10  36165942.501   188325362.966        -475.746          22.000  
C13  37284415.099   194149508.187         419.678          26.000  
C30  21747547.449   113245044.786        -763.757          35.000  
C32  22385935.402   116569241.348        -902.006          34.000  
C40  36599406.421   190582482.428        -857.653          24.000  
E08  25283148.603   132863759.715         130.891          31.000  
E13  24283719.993   127611630.598        -878.289          38.000  
E26  24073164.657   126505284.915        1102.247          33.000  
G05  22324048.945   117313561.387        2793.986          24.000  
G06  21733524.956   114210205.580       -1524.018          37.000  
G09  22550399.146   118503093.612       -1606.463          25.000  
G12  23299896.780   122441656.713       -2136.478          23.000  
G19  22769295.307   119653247.575       -3481.660          28.000  
G20  20501306.903   107735097.888         903.733          25.000  
G25  23566150.256   123840929.3461       -742.134          18.000  
J03  38964723.646   204760870.433         585.621          33.000  
> 2025 05 23 06 12 25.9998083  0 18                     
C03  37184390.994   193628745.277         167.711          20.000  
C08  36550263.691   190326632.775         237.838          22.000  
C10  36166064.067   188325980.883        -475.793          21.000  
C13  37284363.085   194149230.834         421.275          26.000  
C30  21747720.879   113245950.898        -763.507          35.000  
C32  22386136.413   116570284.579        -899.106          36.000  
C40  36599600.236   190583483.245        -859.324          25.000  
E08  25283154.749   132863774.131         126.813          28.000  
E13  24283916.507   127612652.828        -879.110          40.000  
E26  24072982.234   126504327.613        1101.447          33.000  
G05  22323547.242   117310913.290        2780.170          23.000  
G06  21733843.786   114211873.772       -1523.747          36.000  
G09  22550729.667   118504843.834       -1606.086          24.000  
G12  23300332.828   122443936.594       -2138.218          25.000  
G19  22769986.479   119656873.652       -3484.400          26.000  
G20  20501166.151   107734338.600         903.560          25.000  
G25  23566323.386   123841816.2481       -744.586          19.000  
J03  38964640.753   204760428.857         587.154          33.000  
> 2025 05 23 06 12 26.9997473  0 18                     
C03  37185289.735   193633561.4641        171.153           5.000  
C08  36550246.566   190326538.401         237.853          22.000  
C10  36166180.050   188326597.680        -474.961          20.000  
C13  37284311.483   194148953.571         413.094          26.000  
C30  21747896.819   113246858.048        -765.062          35.000  
C32  22386337.836   116571327.900        -899.672          35.000  
C40  36599791.766   190584485.799        -860.397          26.000  
E08  25283159.508   132863792.416         127.078          27.000  
E13  24284110.435   127613677.133        -879.387          38.000  
E26  24072803.220   126503369.651        1103.234          33.000  
G05  22323051.348   117308276.556        2790.354          25.000  
G06  21734163.027   114213542.244       -1525.214          34.000  
G09  22551060.900   118506594.567       -1605.913          24.000  
G12  23300767.789   122446218.128       -2138.439          24.000  
G19  22770678.962   119660503.449       -3486.666          25.000  
G20  20501021.013   107733581.766         901.330          24.000  
G25  23566495.430   123842706.8761       -747.344          19.000  
J03  38964557.973   204759988.407         584.789          33.000  
> 2025 05 23 06 12 27.9996863  0 18                     
C03  37185310.195   193633538.2761        162.157          14.000  
C08  36550228.653   190326443.280         237.577          24.000  
C10  36166301.840   188327214.532        -474.520          20.000  
C13  37284263.891   194148945.762         415.282          25.000  
C30  21748072.573   113247765.456        -765.954          35.000  
C32  22386539.671   116572369.177        -904.306          31.000  
C40  36599983.109   190585488.427        -861.121          28.000  
E08  25283159.883   132863811.510         123.067          29.000  
E13  24284308.373   127614699.666        -879.812          35.000  
E26  24072620.122   126502409.126        1104.006          32.000  
G05  22322548.671   117305629.337        2793.717          27.000  
G06  21734482.081   114215212.247       -1527.261          34.000  
G09  22551395.544   118508345.442       -1607.428          23.000  
G12  23301204.362   122448500.418       -2137.277          27.000  
G19  22771371.857   119664134.931       -3486.569          25.000  
G20  20500880.786   107732824.968         900.692          24.000  
G25  23566668.785   123843599.8661       -750.147          19.000  
J03  38964475.905   204759549.550         582.268          33.000  
> 2025 05 23 06 12 28.9996252  0 18                     
C03  37185298.991   193633363.3561        159.022          15.000  
C08  36550181.174   190326191.780         236.437          24.000  
C10  36166388.967   188327673.507        -476.178          25.000  
C13  37284182.835   194148513.238         419.384          23.000  
C30  21748217.560   113248518.440        -768.692          36.000  
C32  22386714.637   116573257.594        -903.931          32.000  
C40  36600142.186   190586334.731        -863.096          29.000  
E08  25283139.384   132863672.317         125.731          29.000  
E13  24284475.545   127615563.611        -880.061          36.000  
E26  24072407.457   126501290.293        1103.930          33.000  
G05  22322014.029   117302821.821        2791.623          27.000  
G06  21734771.868   114216996.864       -1529.319          34.000  
G09  22551707.215   118509938.315       -1609.280          22.000  
G12  23301612.267   122450620.095       -2136.997          25.000  
G19  22772032.487   119667603.658       -3486.232          25.000  
G20  20500708.292   107731910.645         898.931          23.000  
G25  23566811.074   123844337.4401       -752.925          20.000  
J03  38964363.070   204758952.535         581.801          33.000  
> 2025 05 23 06 12 29.9995642  0 18                     
C03  37183874.377   193626191.0791        161.808           5.000  
C08  36550164.685   190326098.128         235.656          24.000  
C10  36166509.184   188328292.469        -476.721          27.000  
C13  37284130.071   194148236.116         418.550          26.000  
C30  21748392.039   113249427.980        -769.801          36.000  
C32  22386913.700   116574302.932        -904.621          34.000  
C40  36600338.550   190587340.297        -863.681          29.000  
E08  25283140.284   132863691.748         121.954          29.000  
E13  24284670.710   127616588.390        -881.340          36.000  
E26  24072228.780   126500328.924        1105.024          33.000  
G05  22321515.474   117300174.322        2789.468          25.000  
G06  21735091.147   114218668.478       -1528.212          32.000  
G09  22552040.585   118511692.952       -1611.382          25.000  
G12  23302052.662   122452900.370       -2140.144          25.000  
G19  22772725.608   119671231.191       -3484.658          24.000  
G20  20500566.491   107731155.876         897.793          24.000  
G25  23566985.853   123845234.7191       -754.979          19.000  
J03  38964282.126   204758514.549         581.244          34.000  
> 2025 05 23 06 12 30.9995032  0 18                     
C03  37183899.934   193626324.5491        161.103           5.000  
C08  36550147.372   190326003.089         237.506          26.000  
C10  36166627.977   188328907.920        -475.683          27.000  
C13  37284070.787   194147960.803         416.434          31.000  
C30  21748569.891   113250335.482        -768.298          36.000  
C32  22387118.833   116575348.155        -903.601          30.000  
C40  36600534.989   190588343.857        -864.759          27.000  
E08  25283143.357   132863711.824         122.564          31.000  
E13  24284871.346   127617611.711        -882.037          34.000  
E26  24072047.481   126499365.908        1104.757          32.000  
G05  22321015.495   117297527.057        2789.778          23.000  
G06  21735411.101   114220340.036       -1531.061          33.000  
G09  22552376.427   118513446.916       -1612.117          23.000  
G12  23302488.935   122455182.868       -2140.937          24.000  
G19  22773416.404   119674858.659       -3486.148          22.000  
G20  20500423.265   107730399.639         899.388          22.000  
G25  23567157.409   123846133.1331       -756.197          17.000  
J03  38964199.459   204758074.556         584.078          34.000  
> 2025 05 23 06 12 30.9995032  0 18                     
C03  37183899.934   193626324.5491        161.103           5.000  
C08  36550147.372   190326003.089         237.506          26.000  
C10  36166627.977   188328907.920        -475.683          27.000  
C13  37284070.787   194147960.803         416.434          31.000  
C30  21748569.891   113250335.482        -768.298          36.000  
C32  22387118.833   116575348.155        -903.601          30.000  
C40  36600534.989   190588343.857        -864.759          27.000  
E08  25283143.357   132863711.824         122.564          31.000  
E13  24284871.346   127617611.711        -882.037          34.000  
E26  24072047.481   126499365.908        1104.757          32.000  
G05  22321015.495   117297527.057        2789.778          23.000  
G06  21735411.101   114220340.036       -1531.061          33.000  
G09  22552376.427   118513446.916       -1612.117          23.000  
G12  23302488.935   122455182.868       -2140.937          24.000  
G19  22773416.404   119674858.659       -3486.148          22.000  
G20  20500423.265   107730399.639         899.388          22.000  
G25  23567157.409   123846133.1331       -756.197          17.000  
J03  38964199.459   204758074.556         584.078          34.000  
> 2025 05 23 06 12 33.0003811  0 18                     
C03  37184180.240   193627783.4251        170.107          13.000  
C08  36550102.103   190325751.080         238.505          29.000  
C10  36166857.318   188330085.297        -476.695          25.000  
C13  37283958.665   194147353.089         417.606          32.000  
C30  21748911.055   113252099.612        -769.910          36.000  
C32  22387507.064   116577380.575        -905.911          35.000  
C40  36600913.627   190590561.609        -866.613          25.000  
E08  25283145.155   132863694.999         120.976          31.000  
E13  24285250.284   127619602.244        -882.925          34.000  
E26  24071673.340   126497380.029        1106.379          32.000  
G05  22319995.301   117292182.579        2781.329          31.000  
G06  21736037.367   114223626.424       -1528.776          34.000  
G09  22553039.868   118516900.911       -1614.139          23.000  
G12  23303349.939   122459693.3071      -2143.315          20.000  
G19  22774787.655   119682062.077       -3489.824          23.000  
G20  20500131.567   107728826.157         900.234          24.000  
G25  23567501.571   123847872.3921       -756.250          15.000  
J03  38964022.281   204757135.914         582.290          34.000  
> 2025 05 23 06 12 33.0003811  0 18                     
C03  37184180.240   193627783.4251        170.107          13.000  
C08  36550102.103   190325751.080         238.505          29.000  
C10  36166857.318   188330085.297        -476.695          25.000  
C13  37283958.665   194147353.089         417.606          32.000  
C30  21748911.055   113252099.612        -769.910          36.000  
C32  22387507.064   116577380.575        -905.911          35.000  
C40  36600913.627   190590561.609        -866.613          25.000  
E08  25283145.155   132863694.999         120.976          31.000  
E13  24285250.284   127619602.244        -882.925          34.000  
E26  24071673.340   126497380.029        1106.379          32.000  
G05  22319995.301   117292182.579        2781.329          31.000  
G06  21736037.367   114223626.424       -1528.776          34.000  
G09  22553039.868   118516900.911       -1614.139          23.000  
G12  23303349.939   122459693.3071      -2143.315          20.000  
G19  22774787.655   119682062.077       -3489.824          23.000  
G20  20500131.567   107728826.157         900.234          24.000  
G25  23567501.571   123847872.3921       -756.250          15.000  
J03  38964022.281   204757135.914         582.290          34.000  
> 2025 05 23 06 12 34.0003200  0 18                     
C03  37184191.557   193627597.9091        172.706          14.000  
C08  36550053.162   190325498.092         238.396          32.000  
C10  36166948.680   188330544.113        -473.825          23.000  
C13  37283879.145   194146920.900         417.220          31.000  
C30  21749059.077   113252854.962        -771.840          37.000  
C32  22387682.368   116578536.505        -909.225          34.000  
C40  36601082.635   190591409.937        -862.472          24.000  
E08  25283121.397   132863559.247         119.860          30.000  
E13  24285412.696   127620470.832        -883.415          36.000  
E26  24071459.513   126496258.296        1107.507          32.000  
G05  22319464.893   117289386.979        2781.272          27.000  
G06  21736326.592   114225141.979       -1532.961          36.000  
G09  22553344.982   118518499.784       -1615.157          24.000  
G12  23303756.682   122461827.185       -2148.653          27.000  
G19  22775451.920   119685807.406       -3492.128          23.000  
G20  20499960.910   107727912.169         898.826          25.000  
G25  23567642.998   123848615.4921       -756.294          16.000  
J03  38963910.084   204756540.435         579.184          34.000  
> 2025 05 23 06 12 36.0001980  0 18                     
C03  37184431.729   193629093.4421        168.146          10.000  
C08  36550019.323   190325303.044         239.577          27.000  
C10  36167193.948   188332069.528        -473.326          24.000  
C13  37283772.756   194146367.619         418.900          30.000  
C30  21749411.071   113254680.944        -774.937          37.000  
C32  22388087.125   116580632.935        -909.434          38.000  
C40  36601472.703   190593421.787        -867.376          24.000  
E08  25283137.323   132863608.101         117.737          28.000  
E13  24285808.160   127622522.296        -883.667          35.000  
E26  24071093.204   126494327.588        1108.382          32.000  
G05  22318468.121   117284104.106        2786.358          24.000  
G06  21736967.885   114228490.985       -1534.624          35.000  
G09  22554018.353   118522016.635       -1615.328          22.000  
G12  23304630.915   122466404.405       -2145.072          26.000  
G19  22776839.097   119693080.909       -3494.151          24.000  
G20  20499605.993   107726407.341         892.578          23.000  
G25  23567998.589   123850414.6551       -758.459          19.000  
J03  38963745.535   204755664.828         580.204          33.000  
> 2025 05 23 06 12 37.0001370  0 18                     
C03  37184850.201   193631272.3271        161.354          17.000  
C08  36550004.296   190325205.950         238.779          25.000  
C10  36167315.626   188332684.596        -474.347          22.000  
C13  37283723.553   194146090.800         418.313          29.000  
C30  21749588.511   113255597.093        -774.630          36.000  
C32  22388288.548   116581682.291        -909.629          37.000  
C40  36601671.128   190594431.633        -870.962          24.000  
E08  25283139.085   132863633.418         115.161          29.000  
E13  24286006.585   127623825.903        -885.610          33.000  
E26  24070912.392   126493361.602        1108.721          32.000  
G05  22317968.030   117281462.180        2784.490          25.000  
G06  21737288.626   114230168.672       -1534.857          33.000  
G09  22554355.282   118523776.950       -1617.899          22.000  
G12  23305072.472   122468981.613       -2144.798          26.000  
G19  22777533.379   119696719.224       -3497.610          23.000  
G20  20499475.546   107725656.925         894.760          21.000  
G25  23568177.828   123851609.8661       -763.972          20.000  
J03  38963664.554   204755228.617         579.342          35.000  
> 2025 05 23 06 12 37.0001370  0 18                     
C03  37184850.201   193631272.3271        161.354          17.000  
C08  36550004.296   190325205.950         238.779          25.000  
C10  36167315.626   188332684.596        -474.347          22.000  
C13  37283723.553   194146090.800         418.313          29.000  
C30  21749588.511   113255597.093        -774.630          36.000  
C32  22388288.548   116581682.291        -909.629          37.000  
C40  36601671.128   190594431.633        -870.962          24.000  
E08  25283139.085   132863633.418         115.161          29.000  
E13  24286006.585   127623825.903        -885.610          33.000  
E26  24070912.392   126493361.602        1108.721          32.000  
G05  22317968.030   117281462.180        2784.490          25.000  
G06  21737288.626   114230168.672       -1534.857          33.000  
G09  22554355.282   118523776.950       -1617.899          22.000  
G12  23305072.472   122468981.613       -2144.798          26.000  
G19  22777533.379   119696719.224       -3497.610          23.000  
G20  20499475.546   107725656.925         894.760          21.000  
G25  23568177.828   123851609.8661       -763.972          20.000  
J03  38963664.554   204755228.617         579.342          35.000  
> 2025 05 23 06 12 39.0000149  0 18                     
C03  37184855.373   193631085.1211        155.956          17.000  
C08  36549938.716   190325121.858         241.605          26.000  
C10  36167527.354   188333764.379        -475.532          22.000  
C13  37283594.117   194145386.167         418.412          29.000  
C30  21749911.462   113257273.190        -774.944          37.000  
C32  22388664.862   116583629.668        -911.490          34.000  
C40  36602029.755   190596298.611        -864.668          27.000  
E08  25283122.971   132863532.271         113.949          29.000  
E13  24286367.310   127625726.756        -885.826          35.000  
E26  24070513.743   126491272.965        1110.280          32.000  
G05  22316941.915   117276320.609        2784.241          29.000  
G06  21737900.877   114233365.024       -1535.701          33.000  
G09  22554996.313   118527145.505       -1620.988          23.000  
G12  23305919.460   122473401.673       -2146.004          27.000  
G19  22778893.313   119703848.262       -3503.593          21.000  
G20  20499187.520   107723992.916         897.475          24.000  
G25  23568504.976   123853268.279        -765.058          21.000  
J03  38963470.663   204754202.307         580.149          32.000  
> 2025 05 23 06 12 39.9999539  0 18                     
C03  37184067.968   193627198.8551        155.012           5.000  
C08  36549912.784   190325026.671         241.104          21.000  
C10  36167648.620   188334384.758        -476.458          23.000  
C13  37283538.206   194145113.385         418.807          23.000  
C30  21750092.387   113258196.314        -780.831          37.000  
C32  22388861.676   116584689.006        -914.398          32.000  
C40  36602221.472   190597310.970        -868.126          29.000  
E08  25283132.714   132863566.739         110.008          30.000  
E13  24286566.822   127626761.435        -887.362          37.000  
E26  24070340.313   126490309.779        1111.162          31.000  
G05  22316440.512   117273685.017        2782.415          28.000  
G06  21738224.803   114235049.556       -1539.836          35.000  
G09  22555334.629   118528914.631       -1623.040          22.000  
G12  23306357.307   122475693.071       -2147.258          30.000  
G19  22779590.780   119707498.830       -3503.965          23.000  
G20  20499052.164   107723243.607         895.892          23.000  
G25  23568687.100   123854181.5021       -766.554          19.000  
J03  38963386.871   204753770.384         577.370          31.000  
> 2025 05 23 06 12 39.9999539  0 18                     
C03  37184067.968   193627198.8551        155.012           5.000  
C08  36549912.784   190325026.671         241.104          21.000  
C10  36167648.620   188334384.758        -476.458          23.000  
C13  37283538.206   194145113.385         418.807          23.000  
C30  21750092.387   113258196.314        -780.831          37.000  
C32  22388861.676   116584689.006        -914.398          32.000  
C40  36602221.472   190597310.970        -868.126          29.000  
E08  25283132.714   132863566.739         110.008          30.000  
E13  24286566.822   127626761.435        -887.362          37.000  
E26  24070340.313   126490309.779        1111.162          31.000  
G05  22316440.512   117273685.017        2782.415          28.000  
G06  21738224.803   114235049.556       -1539.836          35.000  
G09  22555334.629   118528914.631       -1623.040          22.000  
G12  23306357.307   122475693.071       -2147.258          30.000  
G19  22779590.780   119707498.830       -3503.965          23.000  
G20  20499052.164   107723243.607         895.892          23.000  
G25  23568687.100   123854181.5021       -766.554          19.000  
J03  38963386.871   204753770.384         577.370          31.000  
> 2025 05 23 06 12 41.9998319  0 17                     
C08  36549873.849   190324828.8701        240.088          18.000  
C10  36167890.291   188335616.0361       -473.892          19.000  
C13  37283422.823   194144557.313         419.914          22.000  
C30  21750450.976   113260305.913        -777.950          37.000  
C32  22389259.238   116586796.310        -912.432          31.000  
C40  36602608.541   190599336.040        -874.525          29.000  
E08  25283137.248   132863629.591         111.399          30.000  
E13  24286959.888   127628817.292        -886.752          37.000  
E26  24069976.402   126488369.902        1112.951          30.000  
G05  22315433.547   117268404.746        2783.568          29.000  
G06  21738868.195   114238407.441       -1537.027          35.000  
G09  22556009.500   118532446.9971      -1623.307          20.000  
G12  23307231.539   122480270.629       -2146.909          30.000  
G19  22780985.152   119714789.438       -3502.486          22.000  
G20  20498779.690   107721738.278         895.032          24.000  
G25  23569032.498   123856000.7211       -767.190          12.000  
J03  38963223.821   204752901.252         577.698          31.000  
> 2025 05 23 06 12 42.9997708  0 18                     
C03  37184711.173   193630548.3801        148.101          13.000  
C08  36549828.093   190324575.3631        240.342          18.000  
C10  36167980.940   188336074.1231       -472.948          19.000  
C13  37283343.191   194144124.511         420.211          22.000  
C30  21750598.886   113261068.223        -776.558          37.000  
C32  22389433.230   116587693.256        -913.632          30.000  
C40  36602771.441   190600194.811        -871.349          28.000  
E08  25283113.078   132863504.086         110.665          30.000  
E13  24287126.085   127629689.491        -887.108          38.000  
E26  24069767.559   126487243.304        1112.526          30.000  
G05  22314901.827   117265607.936        2783.696          29.000  
G06  21739159.106   114239930.183       -1536.333          35.000  
G09  22556316.000   118534055.990       -1623.075          20.000  
G12  23307639.969   122482402.979       -2146.770          31.000  
G19  22781652.603   119718276.398       -3502.601          20.000  
G20  20498611.919   107720830.051         895.236          26.000  
G25  23569173.513   123856755.4451       -767.682          16.000  
J03  38963110.612   204752309.585         579.443          32.000  
> 2025 05 23 06 12 42.9997708  0 18                     
C03  37184711.173   193630548.3801        148.101          13.000  
C08  36549828.093   190324575.3631        240.342          18.000  
C10  36167980.940   188336074.1231       -472.948          19.000  
C13  37283343.191   194144124.511         420.211          22.000  
C30  21750598.886   113261068.223        -776.558          37.000  
C32  22389433.230   116587693.256        -913.632          30.000  
C40  36602771.441   190600194.811        -871.349          28.000  
E08  25283113.078   132863504.086         110.665          30.000  
E13  24287126.085   127629689.491        -887.108          38.000  
E26  24069767.559   126487243.304        1112.526          30.000  
G05  22314901.827   117265607.936        2783.696          29.000  
G06  21739159.106   114239930.183       -1536.333          35.000  
G09  22556316.000   118534055.990       -1623.075          20.000  
G12  23307639.969   122482402.979       -2146.770          31.000  
G19  22781652.603   119718276.398       -3502.601          20.000  
G20  20498611.919   107720830.051         895.236          26.000  
G25  23569173.513   123856755.4451       -767.682          16.000  
J03  38963110.612   204752309.585         579.443          32.000  
> 2025 05 23 06 12 44.9996488  0 18                     
C03  37184849.864   193631270.459         161.737          21.000  
C08  36549800.699   190324379.467         239.044          22.000  
C10  36168222.461   188337303.292        -474.238          22.000  
C13  37283248.344   194143569.236         418.879          25.000  
C30  21750950.131   113262904.551        -775.796          37.000  
C32  22389856.725   116589802.107        -912.731          30.000  
C40  36603172.751   190602216.583        -868.052          27.000  
E08  25283143.544   132863568.080         112.327          30.000  
E13  24287523.198   127631746.167        -884.654          35.000  
E26  24069388.809   126485306.958        1108.900          30.000  
G05  22313901.008   117260327.551        2783.088          26.000  
G06  21739795.153   114243287.003       -1533.405          35.000  
G09  22556988.922   118537588.660       -1622.657          23.000  
G12  23308517.349   122486983.278       -2147.809          26.000  
G19  22783043.227   119725564.763       -3501.097          20.000  
G20  20498331.201   107719327.823         892.159          25.000  
G25  23569524.758   123858575.3171       -767.263          17.000  
J03  38962949.212   204751438.557         582.302          36.000  
> 2025 05 23 06 12 45.9995878  0 18                     
C03  37184882.167   193631255.3571        156.950          12.000  
C08  36549787.434   190324284.815         235.705          23.000  
C10  36168342.003   188337921.725        -478.522          22.000  
C13  37283200.902   194143293.294         416.532          25.000  
C30  21751127.533   113263819.524        -771.242          37.000  
C32  22390062.907   116590855.337        -909.583          35.000  
C40  36603372.038   190603224.760        -864.079          24.000  
E08  25283141.071   132863596.535         115.757          29.000  
E13  24287718.587   127632769.386        -882.386          34.000  
E26  24069210.058   126484346.324        1102.346          30.000  
G05  22313402.078   117257687.899        2782.710          22.000  
G06  21740114.357   114244962.418       -1530.756          33.000  
G09  22557323.715   118539354.108       -1623.869          22.000  
G12  23308954.671   122489272.750       -2149.103          22.000  
G19  22783736.273   119729208.1171      -3500.342          19.000  
G20  20498192.322   107718579.165         891.814          25.000  
G25  23569703.659   123859486.7771       -767.493          17.000  
J03  38962866.993   204750996.841         586.637          37.000  
> 2025 05 23 06 12 46.9995267  0 18                     
C03  37184886.776   193631462.7381        154.275           5.000  
C08  36549743.177   190324035.550         233.209          22.000  
C10  36168431.154   188338383.133        -478.524          24.000  
C13  37283119.171   194142862.016         415.819          25.000  
C30  21751271.845   113264573.617        -769.893          37.000  
C32  22390233.002   116591749.444        -910.673          34.000  
C40  36603536.736   190604072.800        -863.563          24.000  
E08  25283117.799   132863462.405         120.752          33.000  
E13  24287886.583   127633635.296        -881.319          35.000  
E26  24068997.018   126483232.814        1098.514          29.000  
G05  22312871.558   117254891.023        2781.489          21.000  
G06  21740404.069   114246475.470       -1526.725          38.000  
G09  22557631.714   118540963.325       -1623.216          22.000  
G12  23309362.502   122491407.150       -2149.633          20.000  
G19  22784399.526   119732690.2671      -3499.237          16.000  
G20  20498023.051   107717673.120         890.449          23.000  
G25  23569847.671   123860238.4251       -767.156          14.000  
J03  38962753.185   204750392.765         589.343          38.000  
> 2025 05 23 06 12 47.9994657  0 18                     
C03  37184239.374   193628091.7001        158.976          10.000  
C08  36549715.146   190323947.981         231.366          23.000  
C10  36168547.923   188339006.374        -477.640          24.000  
C13  37283073.153   194142592.871         411.945          27.000  
C30  21751450.072   113265484.536        -768.587          35.000  
C32  22390437.610   116592799.760        -907.723          35.000  
C40  36603727.854   190605078.273        -860.022          23.000  
E08  25283121.846   132863483.436         127.707          36.000  
E13  24288079.200   127634658.180        -877.982          41.000  
E26  24068815.793   126482283.481        1093.442          29.000  
G05  22312373.753   117252261.464        2775.267          21.000  
G06  21740720.800   114248143.168       -1522.308          39.000  
G09  22557967.332   118542732.059       -1623.046          23.000  
G12  23309800.049   122493699.971       -2150.058          20.000  
G19  22785093.096   119736334.0741      -3498.404          18.000  
G20  20497884.397   107716931.268         885.066          24.000  
G25  23570024.099   123861145.1791       -760.866          14.000  
J03  38962670.292   204750213.707         592.687          35.000  
> 2025 05 23 06 12 47.9994657  0 18                     
C03  37184239.374   193628091.7001        158.976          10.000  
C08  36549715.146   190323947.981         231.366          23.000  
C10  36168547.923   188339006.374        -477.640          24.000  
C13  37283073.153   194142592.871         411.945          27.000  
C30  21751450.072   113265484.536        -768.587          35.000  
C32  22390437.610   116592799.760        -907.723          35.000  
C40  36603727.854   190605078.273        -860.022          23.000  
E08  25283121.846   132863483.436         127.707          36.000  
E13  24288079.200   127634658.180        -877.982          41.000  
E26  24068815.793   126482283.481        1093.442          29.000  
G05  22312373.753   117252261.464        2775.267          21.000  
G06  21740720.800   114248143.168       -1522.308          39.000  
G09  22557967.332   118542732.059       -1623.046          23.000  
G12  23309800.049   122493699.971       -2150.058          20.000  
G19  22785093.096   119736334.0741      -3498.404          18.000  
G20  20497884.397   107716931.268         885.066          24.000  
G25  23570024.099   123861145.1791       -760.866          14.000  
J03  38962670.292   204750213.707         592.687          35.000  
> 2025 05 23 06 12 50.0003436  0 18                     
C03  37184138.082   193627564.535         177.346          22.000  
C08  36549672.913   190323711.302         227.195          21.000  
C10  36168775.203   188340181.289        -477.577          23.000  
C13  37282957.471   194141997.873         405.041          25.000  
C27  25092051.559   130660896.8951      -2620.034          38.000  
C30  21751788.575   113267237.133        -764.382          37.000  
C32  22390832.474   116594835.124        -906.017          34.000  
E08  25283119.785   132863452.453         125.931          32.000  
E13  24288458.175   127636633.475        -875.234          40.000  
E26  24068451.283   126480324.801        1087.471          26.000  
G05  22311366.188   117246934.493        2774.785          25.000  
G06  21741345.904   114251406.493       -1518.194          38.000  
G09  22558626.613   118546193.434       -1616.853          22.000  
G12  23310668.285   122498237.860       -2162.493          21.000  
G19  22786462.885   119743542.647       -3483.510          22.000  
G20  20497598.133   107715395.756         878.634          21.000  
G25  23570361.403   123862889.6981       -759.566          17.000  
J03  38962490.154   204749246.252         596.001          36.000  
> 2025 05 23 06 12 50.0003436  0 18                     
C03  37184138.082   193627564.535         177.346          22.000  
C08  36549672.913   190323711.302         227.195          21.000  
C10  36168775.203   188340181.289        -477.577          23.000  
C13  37282957.471   194141997.873         405.041          25.000  
C27  25092051.559   130660896.895       -2620.034          38.000  
C30  21751788.575   113267237.133        -764.382          37.000  
C32  22390832.474   116594835.124        -906.017          34.000  
E08  25283119.785   132863452.453         125.931          32.000  
E13  24288458.175   127636633.475        -875.234          40.000  
E26  24068451.283   126480324.801        1087.471          26.000  
G05  22311366.188   117246934.493        2774.785          25.000  
G06  21741345.904   114251406.493       -1518.194          38.000  
G09  22558626.613   118546193.434       -1616.853          22.000  
G12  23310668.285   122498237.860       -2162.493          21.000  
G19  22786462.885   119743542.647       -3483.510          22.000  
G20  20497598.133   107715395.756         878.634          21.000  
G25  23570361.403   123862889.6981       -759.566          17.000  
J03  38962490.154   204749246.252         596.001          36.000  
> 2025 05 23 06 12 52.0002216  0 16                     
C03  37184166.075   193627493.985         175.616          24.000  
C08  36549647.843   190323544.238         226.135          27.000  
C10  36169010.952   188341420.995        -478.879          25.000  
C13  37282858.951   194141476.933         404.795          30.000  
C27  25093113.237   130666411.045       -2615.707          38.000  
C30  21752139.745   113269051.877        -763.848          39.000  
C32  22391238.206   116596932.589        -906.341          35.000  
E08  25283126.193   132863481.081         128.730          36.000  
E13  24288849.517   127638669.052        -874.034          40.000  
E26  24068094.642   126478440.775        1085.267          29.000  
G06  21741979.478   114254729.481       -1517.613          38.000  
G09  22559300.059   118549715.611       -1618.135          24.000  
G19  22787769.193   119750789.348       -3479.617          21.000  
G20  20497322.137   107713925.681         878.190          28.000  
G25  23570712.573   123864694.6971       -759.385          17.000  
J03  38962320.584   204748342.016         597.653          37.000  
> 2025 05 23 06 12 52.0002216  0 16                     
C03  37184166.075   193627493.985         175.616          24.000  
C08  36549647.843   190323544.238         226.135          27.000  
C10  36169010.952   188341420.995        -478.879          25.000  
C13  37282858.951   194141476.933         404.795          30.000  
C27  25093113.237   130666411.045       -2615.707          38.000  
C30  21752139.745   113269051.877        -763.848          39.000  
C32  22391238.206   116596932.589        -906.341          35.000  
E08  25283126.193   132863481.081         128.730          36.000  
E13  24288849.517   127638669.052        -874.034          40.000  
E26  24068094.642   126478440.775        1085.267          29.000  
G06  21741979.478   114254729.481       -1517.613          38.000  
G09  22559300.059   118549715.611       -1618.135          24.000  
G19  22787769.193   119750789.348       -3479.617          21.000  
G20  20497322.137   107713925.681         878.190          28.000  
G25  23570712.573   123864694.6971       -759.385          17.000  
J03  38962320.584   204748342.016         597.653          37.000  
> 2025 05 23 06 12 54.0000996  0 17                     
C03  37184151.498   193627433.624         181.085          23.000  
C08  36549618.875   190323379.862         224.426          26.000  
C10  36169254.796   188342662.937        -479.450          23.000  
C13  37282761.331   194140945.475         396.513          26.000  
C27  25094174.614   130671925.519       -2617.184          35.000  
C30  21752490.314   113270865.231        -766.489          39.000  
C32  22391643.338   116599032.669        -910.122          35.000  
E08  25283135.300   132863511.625         127.642          37.000  
E13  24289239.659   127640704.313        -876.530          39.000  
E26  24067735.603   126476564.113        1079.373          30.000  
G05  22309358.103   117236438.9931       2763.889          30.000  
G06  21742612.752   114258053.675       -1520.767          39.000  
G09  22559968.109   118553245.511       -1624.449          23.000  
G12  23312423.795   122507485.2961      -2177.873          30.000  
G19  22789156.745   119758006.383       -3456.950          27.000  
G25  23571069.138   123866804.2651       -759.238          17.000  
J03  38962151.914   204747436.749         595.512          36.000  
> 2025 05 23 06 12 54.0000996  0 17                     
C03  37184151.498   193627433.624         181.085          23.000  
C08  36549618.875   190323379.862         224.426          26.000  
C10  36169254.796   188342662.937        -479.450          23.000  
C13  37282761.331   194140945.475         396.513          26.000  
C27  25094174.614   130671925.519       -2617.184          35.000  
C30  21752490.314   113270865.231        -766.489          39.000  
C32  22391643.338   116599032.669        -910.122          35.000  
E08  25283135.300   132863511.625         127.642          37.000  
E13  24289239.659   127640704.313        -876.530          39.000  
E26  24067735.603   126476564.113        1079.373          30.000  
G05  22309358.103   117236438.993        2763.889          30.000  
G06  21742612.752   114258053.675       -1520.767          39.000  
G09  22559968.109   118553245.511       -1624.449          23.000  
G12  23312423.795   122507485.296       -2177.873          30.000  
G19  22789156.745   119758006.383       -3456.950          27.000  
G25  23571069.138   123866804.2651       -759.238          17.000  
J03  38962151.914   204747436.749         595.512          36.000  
> 2025 05 23 06 12 55.9999775  0 18                     
C03  37184071.790   193627207.773         170.362          25.000  
C08  36549556.856   190323059.612         225.609          28.000  
C10  36169462.889   188343750.134        -480.698          25.000  
C13  37282633.058   194140279.588         402.598          31.000  
C27  25095208.936   130677292.053       -2620.707          33.000  
C30  21752813.228   113272526.068        -766.773          38.000  
C32  22392019.015   116600979.753        -909.890          34.000  
E08  25283114.651   132863664.503         124.913          38.000  
E13  24289597.649   127642584.924        -876.486          42.000  
E26  24067351.906   126474528.785        1085.228          29.000  
G05  22308333.450   117231045.770        2763.674          34.000  
G06  21743218.970   114261219.911       -1519.598          40.000  
G09  22560615.099   118556626.102       -1627.425          23.000  
G12  23313275.243   122511963.972       -2175.850          33.000  
G19  22790505.849   119765047.446       -3459.163          25.000  
G20  20496740.389   107710838.4121        874.983          29.000  
G25  23571398.648   123868452.7961       -759.379          17.000  
J03  38961950.790   204746375.799         595.121          36.000  
> 2025 05 23 06 12 55.9999775  0 18                     
C03  37184071.790   193627207.773         170.362          25.000  
C08  36549556.856   190323059.612         225.609          28.000  
C10  36169462.889   188343750.134        -480.698          25.000  
C13  37282633.058   194140279.588         402.598          31.000  
C27  25095208.936   130677292.053       -2620.707          33.000  
C30  21752813.228   113272526.068        -766.773          38.000  
C32  22392019.015   116600979.753        -909.890          34.000  
E08  25283114.651   132863664.503         124.913          38.000  
E13  24289597.649   127642584.924        -876.486          42.000  
E26  24067351.906   126474528.785        1085.228          29.000  
G05  22308333.450   117231045.770        2763.674          34.000  
G06  21743218.970   114261219.911       -1519.598          40.000  
G09  22560615.099   118556626.102       -1627.425          23.000  
G12  23313275.243   122511963.972       -2175.850          33.000  
G19  22790505.849   119765047.446       -3459.163          25.000  
G20  20496740.389   107710838.412         874.983          29.000  
G25  23571398.648   123868452.7961       -759.379          17.000  
J03  38961950.790   204746375.799         595.121          36.000  
> 2025 05 23 06 12 56.9999165  0 18                     
C03  37184056.576   193627184.855         160.482          23.000  
C08  36549544.939   190322975.947         226.429          27.000  
C10  36169584.980   188344372.899        -480.706          23.000  
C13  37282584.866   194140017.894         406.066          27.000  
C27  25095739.943   130680052.573       -2617.584          36.000  
C30  21752988.982   113273435.318        -769.054          35.000  
C32  22392222.649   116602031.998        -912.676          34.000  
E08  25283119.523   132863682.474         124.971          35.000  
E13  24289794.088   127643603.547        -875.863          42.000  
E26  24067179.901   126473883.800        1083.001          27.000  
G05  22307836.169   117228425.588        2765.501          31.000  
G06  21743538.024   114262884.682       -1522.284          38.000  
G09  22560946.744   118558396.049       -1626.770          25.000  
G12  23313719.011   122514281.343       -2174.922          31.000  
G19  22791195.146   119768652.306       -3463.791          32.000  
G20  20496602.860   107710374.901         873.390          26.000  
G25  23571577.999   123869356.2461       -815.572          17.000  
J03  38961866.024   204745924.513         595.229          35.000  
> 2025 05 23 06 12 57.9998555  0 18                     
C03  37184046.645   193627167.185         159.273          23.000  
C08  36549529.912   190322891.526         225.987          25.000  
C10  36169704.560   188344992.954        -480.618          23.000  
C13  37282539.560   194139751.743         409.681          24.000  
C27  25096270.838   130682810.151       -2615.979          37.000  
C30  21753167.021   113274345.530        -768.675          37.000  
C32  22392427.070   116603085.812        -911.668          33.000  
E08  25283126.980   132863699.792         126.952          32.000  
E13  24289989.815   127644623.904        -877.224          37.000  
E26  24067003.585   126472942.564        1086.698          26.000  
G05  22307338.176   117225803.996        2764.529          28.000  
G06  21743857.266   114264551.418       -1522.564          34.000  
G09  22561285.172   118560162.253       -1611.574          24.000  
G12  23314160.867   122516596.321       -2168.633          28.000  
G19  22791884.931   119772259.206       -3461.798          31.000  
G20  20496466.716   107709643.016         875.807          25.000  
G25  23571774.025   123870316.627        -817.390          24.000  
J03  38961780.546   204745471.927         595.841          37.000  
> 2025 05 23 06 12 59.9997334  0 18                     
C03  37184013.106   193626974.683         157.273          25.000  
C08  36549469.092   190322570.960         223.446          28.000  
C10  36169915.051   188346080.537        -480.081          28.000  
C13  37282407.989   194139073.592         399.812          32.000  
C27  25097300.963   130688167.536       -2615.407          37.000  
C30  21753487.237   113276007.829        -768.705          38.000  
C32  22392804.546   116605029.098        -912.887          35.000  
E08  25283105.433   132863576.858         125.188          32.000  
E13  24290349.004   127646504.603        -876.465          39.000  
E26  24066612.993   126470903.215        1080.095          29.000  
G05  22306318.020   117220401.192        2780.195          25.000  
G06  21744461.385   114267718.298       -1520.235          37.000  
G09  22561929.764   118563529.490       -1627.315          27.000  
G12  23315023.408   122521068.810       -2175.604          21.000  
G19  22793234.635   119779312.218       -3463.826          23.000  
G20  20496161.265   107708022.658         874.372          26.000  
G25  23572121.822   123872085.201        -822.144          27.000  
J03  38961580.621   204744407.350         596.624          37.000  
> 2025 05 23 06 12 59.9997334  0 18                     
C03  37184013.106   193626974.683         157.273          25.000  
C08  36549469.092   190322570.960         223.446          28.000  
C10  36169915.051   188346080.537        -480.081          28.000  
C13  37282407.989   194139073.592         399.812          32.000  
C27  25097300.963   130688167.536       -2615.407          37.000  
C30  21753487.237   113276007.829        -768.705          38.000  
C32  22392804.546   116605029.098        -912.887          35.000  
E08  25283105.433   132863576.858         125.188          32.000  
E13  24290349.004   127646504.603        -876.465          39.000  
E26  24066612.993   126470903.215        1080.095          29.000  
G05  22306318.020   117220401.192        2780.195          25.000  
G06  21744461.385   114267718.298       -1520.235          37.000  
G09  22561929.764   118563529.490       -1627.315          27.000  
G12  23315023.408   122521068.810       -2175.604          21.000  
G19  22793234.635   119779312.218       -3463.826          23.000  
G20  20496161.265   107708022.658         874.372          26.000  
G25  23572121.822   123872085.201        -822.144          27.000  
J03  38961580.621   204744407.350         596.624          37.000  
> 2025 05 23 06 13 01.9996114  0 18                     
C03  37184017.078   193626945.167         155.152          20.000  
C08  36549440.386   190322407.627         222.427          24.000  
C10  36170158.858   188347321.535        -480.151          24.000  
C13  37282308.832   194138551.861         402.068          28.000  
C27  25098362.902   130693678.345       -2614.039          38.000  
C30  21753839.268   113277823.946        -767.707          35.000  
C32  22393210.840   116607137.880        -914.343          36.000  
E08  25283117.499   132863612.736         122.909          34.000  
E13  24290743.905   127648539.512        -876.145          37.000  
E26  24066257.814   126469029.539        1077.978          27.000  
G05  22305320.086   117215124.2931       2780.822          18.000  
G06  21745096.720   114271043.765       -1519.111          37.000  
G09  22562602.273   118567066.885       -1625.211          27.000  
G12  23315910.568   122525699.0751      -2171.069          18.000  
G19  22794606.860   119786517.585       -3458.684          23.000  
G20  20495882.833   107706562.321         873.099          21.000  
G25  23572500.235   123874324.029        -825.961          21.000  
J03  38961411.314   204743499.830         597.419          37.000  
> 2025 05 23 06 13 02.9995504  0 18                     
C03  37183774.246   193625669.438         187.070          22.000  
C08  36549427.495   190322327.746         222.814          24.000  
C10  36170279.674   188347942.066        -487.620          23.000  
C13  37282260.865   194138294.256         398.703          27.000  
C27  25098892.336   130696433.120       -2613.254          38.000  
C30  21754014.347   113278733.425        -767.909          36.000  
C32  22393414.699   116608191.223        -912.434          36.000  
E08  25283116.300   132863630.884         124.845          36.000  
E13  24290936.072   127649556.671        -874.990          41.000  
E26  24066082.435   126468091.569        1082.799          25.000  
G05  22304822.130   117212492.6481       2775.061          16.000  
G06  21745415.100   114272706.154       -1520.014          39.000  
G09  22562938.340   118568833.634       -1623.450          29.000  
G12  23316353.062   122528006.3981      -2164.830          15.000  
G19  22795293.684   119790119.604       -3458.490          24.000  
G20  20495747.926   107705832.0911        873.758          18.000  
G25  23572691.803   123875295.0371       -826.436          16.000  
J03  38961325.873   204743045.444         597.284          37.000  
> 2025 05 23 06 13 02.9995504  0 18                     
C03  37183774.246   193625669.438         187.070          22.000  
C08  36549427.495   190322327.746         222.814          24.000  
C10  36170279.674   188347942.066        -487.620          23.000  
C13  37282260.865   194138294.256         398.703          27.000  
C27  25098892.336   130696433.120       -2613.254          38.000  
C30  21754014.347   113278733.425        -767.909          36.000  
C32  22393414.699   116608191.223        -912.434          36.000  
E08  25283116.300   132863630.884         124.845          36.000  
E13  24290936.072   127649556.671        -874.990          41.000  
E26  24066082.435   126468091.569        1082.799          25.000  
G05  22304822.130   117212492.6481       2775.061          16.000  
G06  21745415.100   114272706.154       -1520.014          39.000  
G09  22562938.340   118568833.634       -1623.450          29.000  
G12  23316353.062   122528006.3981      -2164.830          15.000  
G19  22795293.684   119790119.604       -3458.490          24.000  
G20  20495747.926   107705832.0911        873.758          18.000  
G25  23572691.803   123875295.0371       -826.436          16.000  
J03  38961325.873   204743045.444         597.284          37.000  
> 2025 05 23 06 13 05.0004283  0 18                     
C03  37184995.263   193632027.8311        182.516           5.000  
C08  36549389.684   190322104.444         222.040          24.000  
C10  36170512.875   188349124.420        -477.747          24.000  
C13  37282155.601   194137718.759         398.028          29.000  
C27  25099942.771   130701884.853       -2616.467          38.000  
C30  21754355.473   113280492.220        -770.973          37.000  
C32  22393809.188   116610239.884        -915.208          34.000  
E08  25283116.563   132863605.521         123.317          37.000  
E13  24291313.474   127651533.539        -877.531          42.000  
E26  24065720.548   126466153.967        1077.612          24.000  
G05  22303819.287   117207164.5601       2774.600          15.000  
G06  21746037.731   114275972.049       -1522.242          40.000  
G09  22563605.341   118572308.299       -1626.933          28.000  
G12  23317225.721   122532847.9721      -2163.501          11.000  
G19  22796655.004   119797263.122       -3461.028          25.000  
G20  20495465.484   107704314.515         867.569          20.000  
G25  23573054.514   123877172.3771       -826.695          10.000  
J03  38961142.962   204742073.362         596.880          37.000  
> 2025 05 23 06 13 06.0003672  0 17                     
C03  37184984.021   193631827.8961        189.329          18.000  
C08  36549346.964   190321871.912         220.784          23.000  
C10  36170604.462   188349589.138        -479.288          24.000  
C13  37282077.805   194137308.207         401.111          26.000  
C27  25100443.874   130704487.886       -2616.330          38.000  
C30  21754503.720   113281250.199        -771.878          37.000  
C32  22393983.218   116611143.639        -916.294          34.000  
E08  25283090.331   132863471.015         121.699          37.000  
E13  24291479.109   127652397.499        -877.489          42.000  
E26  24065508.445   126465064.821        1078.361          26.000  
G05  22303290.603   117204379.0821       2773.581          11.000  
G06  21746326.581   114277479.373       -1522.741          40.000  
G09  22563914.277   118573921.225       -1625.828          28.000  
G12  23317639.584   122534998.0761      -2162.596          11.000  
G19  22797311.100   119800710.903       -3462.122          25.000  
G20  20495298.650   107703434.9651        868.068          19.000  
J03  38961028.891   204741465.220         596.504          37.000  
> 2025 05 23 06 13 07.0003062  0 16                     
C03  37185008.567   193632097.4311        188.848          17.000  
C08  36549329.538   190321791.268         221.436          24.000  
C10  36170727.039   188350209.677        -482.004          24.000  
C13  37282027.702   194137045.931         402.080          30.000  
C27  25100974.469   130707244.279       -2619.929          36.000  
C30  21754681.460   113282163.034        -772.970          36.000  
C32  22394190.037   116612198.305        -917.333          36.000  
E08  25283096.589   132863491.781         119.841          35.000  
E13  24291674.836   127653416.479        -877.479          42.000  
E26  24065329.731   126464127.012        1080.182          26.000  
G05  22302798.906   117201765.2721       2755.241          12.000  
G06  21746644.624   114279143.020       -1523.726          40.000  
G09  22564252.406   118575688.745       -1627.425          25.000  
G19  22797999.386   119804314.633       -3463.892          24.000  
G20  20495161.008   107702707.477         869.998          20.000  
J03  38960943.712   204741011.158         595.489          37.000  
> 2025 05 23 06 13 08.0002452  0 16                     
C03  37184165.850   193627709.1551        181.697           5.000  
C08  36549315.148   190321713.050         222.947          25.000  
C10  36170844.258   188350833.946        -482.554          23.000  
C13  37281981.234   194137059.141         399.036          29.000  
C27  25101506.001   130710006.787       -2621.107          37.000  
C30  21754857.138   113283077.287        -771.979          36.000  
C32  22394395.695   116613258.275        -916.527          35.000  
E08  25283104.983   132863516.897         118.657          36.000  
E13  24291872.399   127654440.493        -879.394          42.000  
E26  24065154.952   126463191.799        1080.038          27.000  
G05  22302304.548   117199155.8101       2754.340          13.000  
G06  21746963.303   114280810.933       -1523.330          40.000  
G09  22564589.972   118577460.732       -1628.111          25.000  
G19  22798688.009   119807923.810       -3466.333          29.000  
G20  20495023.103   107701982.141         870.627          22.000  
J03  38960858.272   204740560.573         595.519          37.000  
> 2025 05 23 06 13 09.0001841  0 16                     
C03  37184159.892   193627514.4681        181.234          10.000  
C08  36549271.716   190321478.020         223.183          23.000  
C10  36170936.632   188351304.244        -482.200          22.000  
C13  37281900.927   194136647.875         400.380          27.000  
C27  25102007.592   130712615.959       -2622.582          37.000  
C30  21755003.474   113283835.493        -774.428          35.000  
C32  22394568.413   116614163.698        -919.673          36.000  
E08  25283077.739   132863385.764         117.663          37.000  
E13  24292036.123   127655305.895        -878.836          42.000  
E26  24064949.932   126462098.995        1081.027          25.000  
G05  22301780.249   117196389.0971       2754.656          16.000  
G06  21747252.940   114282585.412       -1527.055          40.000  
G09  22564900.594   118579352.630       -1629.767          25.000  
G19  22799345.791   119811377.426       -3467.844          27.000  
G20  20494856.456   107701098.6311        871.660          20.000  
J03  38960744.088   204739954.151         592.169          37.000  
> 2025 05 23 06 13 10.0001231  0 16                     
C03  37184496.671   193629431.5001        175.322           5.000  
C08  36549257.738   190321395.376         224.603          28.000  
C10  36171059.659   188352198.962        -482.274          27.000  
C13  37281851.874   194136386.480         401.910          29.000  
C27  25102541.035   130715379.794       -2626.662          37.000  
C30  21755179.865   113284750.864        -775.158          36.000  
C32  22394774.183   116615222.522        -920.370          37.000  
E08  25283086.246   132863411.391         116.054          38.000  
E13  24292232.300   127656328.410        -880.942          42.000  
E26  24064769.569   126461159.748        1082.610          26.000  
G05  22301288.102   117194059.224        2756.461          23.000  
G06  21747572.032   114284252.402       -1527.558          40.000  
G09  22565167.522   118580755.299       -1629.862          24.000  
G19  22800033.927   119814987.584       -3470.760          23.000  
G20  20494717.765   107700369.490         870.799          27.000  
J03  38960660.259   204739502.058         595.003          37.000  
> 2025 05 23 06 13 11.0000621  0 18                     
C03  37184513.497   193629393.6801        179.438           7.000  
C08  36549242.486   190321311.318         225.203          26.000  
C10  36171183.511   188352820.468        -481.859          24.000  
C13  37281803.045   194136125.098         402.908          29.000  
C27  25103073.204   130718149.572       -2632.747          38.000  
C30  21755357.379   113285666.579        -776.970          37.000  
C32  22394979.278   116616281.750        -920.611          38.000  
C40  36607979.923   190627357.3281       -856.535          27.000  
E08  25283092.279   132863439.750         112.973          38.000  
E13  24292429.001   127657352.670        -882.194          41.000  
E26  24064594.828   126460218.169        1087.313          28.000  
G05  22300798.878   117191440.898        2760.354          26.000  
G06  21747890.449   114285921.487       -1529.258          41.000  
G09  22565509.323   118582525.712       -1631.122          22.000  
G12  23319828.818   122546526.5881      -2181.483          13.000  
G19  22800723.787   119818601.713       -3475.389          27.000  
G20  20494580.797   107699641.394         870.408          26.000  
J03  38960575.755   204739049.972         592.626          38.000  
> 2025 05 23 06 13 12.0000011  0 18                     
C03  37184538.267   193629648.4531        180.692           5.000  
C08  36549227.983   190321229.622         227.709          27.000  
C10  36171303.015   188353446.509        -480.491          24.000  
C13  37281754.966   194135865.633         406.764          30.000  
C27  25103608.521   130720930.554       -2638.584          38.000  
C30  21755536.243   113286590.588        -782.513          36.000  
C32  22395186.323   116617611.326        -924.180          38.000  
C40  36608183.370   190628361.361        -862.743          24.000  
E08  25283099.362   132863475.099         109.653          37.000  
E13  24292626.452   127658379.993        -883.522          41.000  
E26  24064409.144   126459276.175        1088.079          26.000  
G05  22300301.110   117188827.031        2759.447          24.000  
G06  21748210.814   114287598.357       -1533.908          41.000  
G09  22565859.668   118584303.436       -1633.855          22.000  
G12  23320275.996   122548853.5051      -2179.564          15.000  
G19  22801413.497   119822225.329       -3482.297          33.000  
G20  20494443.979   107698915.962         872.376          27.000  
J03  38960492.000   204738606.443         587.809          38.000  
> 2025 05 23 06 13 12.9999400  0 18                     
C03  37184453.651   193629207.1521        181.752          15.000  
C08  36549182.640   190320984.495         230.114          26.000  
C10  36171396.776   188353909.210        -480.411          23.000  
C13  37281678.444   194135441.089         410.173          27.000  
C27  25104115.695   130723556.527       -2648.258          39.000  
C30  21755683.666   113287356.250        -782.948          37.000  
C32  22395361.926   116618520.712        -925.651          38.000  
C40  36608351.178   190629210.463        -869.540          26.000  
E08  25283077.702   132863352.272         105.372          34.000  
E13  24292791.263   127659250.447        -886.687          41.000  
E26  24064201.313   126458170.334        1091.526          27.000  
G05  22299775.499   117186050.852        2761.612          24.000  
G06  21748501.238   114289117.135       -1535.720          40.000  
G09  22566174.375   118585922.7291      -1636.599          19.000  
G12  23320697.729   122551011.3171      -2173.310          18.000  
G19  22802075.664   119825694.284       -3487.621          35.000  
G20  20494272.723   107698026.688         874.515          26.000  
J03  38960378.004   204738003.083         587.296          38.000  
> 2025 05 23 06 13 13.9998790  0 18                     
C03  37184472.875   193629167.1841        183.334           9.000  
C08  36549166.788   190320896.168         231.783          29.000  
C10  36171509.535   188354530.487        -479.860          26.000  
C13  37281630.214   194135170.544         414.956          25.000  
C27  25104652.661   130726347.918       -2651.620          39.000  
C30  21755862.080   113288281.932        -784.457          37.000  
C32  22395568.820   116619586.969        -925.359          38.000  
C40  36608549.379   190630222.707        -872.921          27.000  
E08  25283085.234   132863392.125         102.606          35.000  
E13  24292990.063   127660279.261        -887.381          41.000  
E26  24064029.869   126457219.798        1095.473          28.000  
G05  22299279.080   117183431.092        2764.946          26.000  
G06  21748821.754   114290797.232       -1538.205          40.000  
G09  22566517.975   118587707.2831      -1642.866          17.000  
G12  23321136.063   122553326.7791      -2171.557          20.000  
G19  22802768.522   119829329.091       -3495.371          32.000  
G20  20494132.457   107697294.707         876.801          28.000  
J03  38960295.299   204737560.637         584.690          38.000  
> 2025 05 23 06 13 14.9998180  0 17                     
C08  36549148.089   190320806.946         232.622          31.000  
C10  36171630.839   188355153.986        -481.773          27.000  
C13  37281577.638   194134899.701         405.776          30.000  
C27  25105190.676   130729139.581       -2649.360          38.000  
C30  21756043.642   113289208.086        -784.867          39.000  
C32  22395774.366   116620655.244        -925.725          37.000  
C40  36608745.930   190631236.367        -870.869          27.000  
E08  25283100.112   132863433.015         103.668          37.000  
E13  24293187.814   127661310.291        -885.934          41.000  
E26  24063843.285   126456266.709        1098.888          32.000  
G05  22298771.119   117180808.829        2768.824          26.000  
G06  21749143.619   114292479.941       -1535.733          41.000  
G09  22566864.123   118589493.2191      -1643.769          15.000  
G12  23321576.946   122555641.0601      -2167.921          19.000  
G19  22803461.829   119832969.105       -3496.505          32.000  
G20  20493996.239   107696562.721         876.693          28.000  
J03  38960213.043   204737120.630         586.107          39.000  
> 2025 05 23 06 13 15.9997570  0 18                     
C03  37183941.605   193626541.3931        167.786          20.000  
C08  36549139.170   190320716.838         232.368          27.000  
C10  36171751.430   188355779.914        -486.993          27.000  
C13  37281527.948   194134636.587         405.327          30.000  
C27  25105729.178   130731933.002       -2654.779          35.000  
C30  21756222.693   113290136.372        -787.234          38.000  
C32  22395980.398   116621720.579        -922.926          38.000  
C40  36608940.570   190632247.797        -871.389          28.000  
E08  25283104.384   132863473.050         103.658          36.000  
E13  24293384.253   127662335.721        -883.000          40.000  
E26  24063664.085   126455310.518        1099.126          32.000  
G05  22298271.440   117178182.176        2772.897          31.000  
G06  21749464.172   114294156.916       -1536.164          41.000  
G09  22567211.057   118591279.9821      -1644.080          17.000  
G12  23322016.217   122557949.182       -2162.249          22.000  
G19  22804156.523   119836609.647       -3502.652          31.000  
G20  20493858.709   107695830.215         875.709          28.000  
J03  38960129.176   204736678.926         585.193          37.000  
> 2025 05 23 06 13 16.9996959  0 18                     
C03  37183893.676   193626359.043         165.949          23.000  
C08  36549089.142   190320470.006         230.958          32.000  
C10  36171843.504   188356252.532        -490.663          27.000  
C13  37281447.041   194134215.237         407.392          30.000  
C27  25106241.261   130734578.001       -2666.291          33.000  
C30  21756372.327   113290909.508        -791.064          35.000  
C32  22396156.713   116622626.395        -922.888          40.000  
C40  36609105.494   190633105.625        -876.109          28.000  
E08  25283089.431   132863353.235          99.209          30.000  
E13  24293551.574   127663475.082        -882.639          37.000  
E26  24063454.867   126454192.676        1105.235          29.000  
G05  22297744.743   117175389.515        2781.175          29.000  
G06  21749754.708   114295677.224       -1539.569          36.000  
G09  22567527.076   118592909.9241      -1646.879          16.000  
G12  23322425.171   122560092.665       -2155.858          22.000  
G19  22804824.798   119840101.829       -3516.201          32.000  
G20  20493687.565   107694939.319         875.740          33.000  
J03  38960016.192   204736077.953         584.198          34.000  
> 2025 05 23 06 13 17.9996349  0 18                     
C03  37183836.753   193625995.143         151.750          30.000  
C08  36549072.991   190320381.010         236.216          29.000  
C10  36171967.356   188356887.335        -492.854          27.000  
C13  37281399.412   194133948.884         413.239          31.000  
C27  25106783.023   130737391.214       -2678.914          31.000  
C30  21756556.137   113291844.899        -795.047          32.000  
C32  22396363.008   116623693.555        -927.600          36.000  
C40  36609303.394   190634130.489        -885.001          26.000  
E08  25283103.859   132863401.322          93.949          24.000  
E13  24293750.374   127664504.902        -885.351          32.000  
E26  24063270.832   126453228.395        1113.025          36.000  
G05  22297245.925   117172749.783        2788.149          26.000  
G06  21750078.222   114297364.216       -1543.283          31.000  
G09  22567882.068   118595020.0701      -1660.838          20.000  
G12  23322863.205   122562389.527       -2148.127          24.000  
G19  22805524.551   119843768.899       -3531.442          33.000  
G20  20493551.197   107694207.110         879.423          30.000  
J03  38959935.286   204735640.643         580.217          30.000  
> 2025 05 23 06 13 17.9996349  0 18                     
C03  37183836.753   193625995.143         151.750          30.000  
C08  36549072.991   190320381.010         236.216          29.000  
C10  36171967.356   188356887.335        -492.854          27.000  
C13  37281399.412   194133948.884         413.239          31.000  
C27  25106783.023   130737391.214       -2678.914          31.000  
C30  21756556.137   113291844.899        -795.047          32.000  
C32  22396363.008   116623693.555        -927.600          36.000  
C40  36609303.394   190634130.489        -885.001          26.000  
E08  25283103.859   132863401.322          93.949          24.000  
E13  24293750.374   127664504.902        -885.351          32.000  
E26  24063270.832   126453228.395        1113.025          36.000  
G05  22297245.925   117172749.783        2788.149          26.000  
G06  21750078.222   114297364.216       -1543.283          31.000  
G09  22567882.068   118595020.0701      -1660.838          20.000  
G12  23322863.205   122562389.527       -2148.127          24.000  
G19  22805524.551   119843768.899       -3531.442          33.000  
G20  20493551.197   107694207.110         879.423          30.000  
J03  38959935.286   204735640.643         580.217          30.000  
> 2025 05 23 06 13 18.9995739  0 19                     
C03  37183864.484   193625986.803         147.392          31.000  
C08  36549053.055   190320282.894         242.981          33.000  
C10  36172089.821   188357520.629        -492.399          25.000  
C13  37281344.400   194133673.028         422.290          39.000  
C27  25107326.397   130740223.041       -2702.461          32.000  
C30  21756738.861   113293047.922        -799.037          30.000  
C32  22396570.914   116624762.345        -931.270          30.000  
C40  36609503.206   190635160.925        -893.408          29.000  
E08  25283117.200   132863448.6201         94.896          19.000  
E13  24293949.286   127665536.389        -891.257          25.000  
E26  24063083.911   126452251.979        1121.780          35.000  
G05  22296746.021   117170101.940        2792.456          26.000  
G06  21750402.147   114299051.250       -1549.433          25.000  
G09  22568229.677   118596823.7191      -1663.020          16.000  
G12  23323300.752   122564675.055       -2140.550          26.000  
G19  22806226.515   119847448.095       -3543.714          35.000  
G20  20493410.145   107693467.496         884.502          29.000  
G25  23575513.149   123890157.4531       -761.218          34.000  
J03  38959854.791   204735207.113         573.016          28.000  
> 2025 05 23 06 13 19.9995129  0 19                     
C03  37183865.833   193625981.856         144.800          31.000  
C08  36549031.320   190320178.093         248.599          33.000  
C10  36172210.787   188358146.804        -484.908          28.000  
C13  37281287.889   194133387.968         428.508          40.000  
C27  25107873.668   130743068.069       -2708.605          34.000  
C30  21756922.783   113293989.276        -801.932          27.000  
C32  22396779.720   116625837.120        -934.956          26.000  
C40  36609704.516   190636197.996        -898.046          29.000  
E08  25283116.750   132863494.7411         96.930          16.000  
E13  24294151.197   127666569.380        -892.941          20.000  
E26  24062896.991   126451268.114        1126.075          33.000  
G05  22296244.319   117167461.477        2780.942          37.000  
G06  21750727.572   114300746.257       -1555.378          23.000  
G09  22568575.488   118598627.7461      -1663.330          16.000  
G12  23323736.501   122566959.679       -2150.517          30.000  
G19  22806929.679   119851133.516       -3545.625          33.000  
G20  20493269.093   107692721.139         889.910          34.000  
G25  23575683.282   123891057.342        -754.002          35.000  
J03  38959776.396   204734779.340         567.895          23.000  
> 2025 05 23 06 13 20.9994518  0 19                     
C03  37183818.203   193625826.060         141.033          30.000  
C08  36548981.891   190319913.687         251.367          34.000  
C10  36172301.362   188358615.141        -482.025          31.000  
C13  37281204.884   194132944.390         430.465          39.000  
C27  25108390.848   130745763.982       -2713.272          28.000  
C30  21757073.916   113294780.468        -807.683          32.000  
C32  22396957.834   116626759.407        -942.580          27.000  
C40  36609878.134   190637081.970        -900.013          27.000  
E08  25283105.695   132863381.9611         98.368          10.000  
E13  24294325.413   127667449.6681       -903.988          19.000  
E26  24062680.278   126450123.763        1134.018          34.000  
G05  22295714.323   117164667.622        2780.961          38.000  
G06  21751023.805   114302289.204       -1558.459          24.000  
G09  22568894.205   118600274.5141      -1634.342          16.000  
G12  23324145.155   122569095.355       -2143.483          28.000  
G19  22807605.448   119854666.554       -3551.609          29.000  
G20  20493097.649   107691815.613         893.702          35.000  
G25  23575823.622   123891793.827        -750.425          32.000  
J03  38959667.908   204734200.686         561.956          23.000  
> 2025 05 23 06 13 23.0003297  0 19                     
C03  37183808.647   193625775.732         137.664          29.000  
C08  36548930.065   190319635.475         251.156          34.000  
C10  36172532.839   188359804.934        -482.934          32.000  
C13  37281083.206   194132304.369         433.303          37.000  
C27  25109483.629   130751420.709       -2722.723          25.000  
C30  21757428.908   113296624.473        -811.745          34.000  
C32  22397366.488   116628871.056        -946.043          29.000  
C40  36610272.398   190639110.243        -903.077          25.000  
E08  25283114.127   132863407.3291        101.890           9.000  
E13  24294709.485   127669488.174        -907.330          26.000  
E26  24062291.185   126448080.448        1135.491          33.000  
G05  22294698.964   117159323.570        2788.244          33.000  
G06  21751666.897   114305649.732       -1574.089          34.000  
G09  22569570.874   118603776.678       -1641.283          21.000  
G12  23325004.998   122573614.767       -2143.180          26.000  
G19  22809004.617   119862010.240       -3563.862          31.000  
G20  20492802.091   107690252.950         893.736          36.000  
G25  23576151.932   123893515.568        -744.632          27.000  
J03  38959503.659   204733311.324         568.831          26.000  
> 2025 05 23 06 13 23.0003297  0 19                     
C03  37183808.647   193625775.732         137.664          29.000  
C08  36548930.065   190319635.475         251.156          34.000  
C10  36172532.839   188359804.934        -482.934          32.000  
C13  37281083.206   194132304.369         433.303          37.000  
C27  25109483.629   130751420.709       -2722.723          25.000  
C30  21757428.908   113296624.473        -811.745          34.000  
C32  22397366.488   116628871.056        -946.043          29.000  
C40  36610272.398   190639110.243        -903.077          25.000  
E08  25283114.127   132863407.3291        101.890           9.000  
E13  24294709.485   127669488.174        -907.330          26.000  
E26  24062291.185   126448080.448        1135.491          33.000  
G05  22294698.964   117159323.570        2788.244          33.000  
G06  21751666.897   114305649.732       -1574.089          34.000  
G09  22569570.874   118603776.678       -1641.283          21.000  
G12  23325004.998   122573614.767       -2143.180          26.000  
G19  22809004.617   119862010.240       -3563.862          31.000  
G20  20492802.091   107690252.950         893.736          36.000  
G25  23576151.932   123893515.568        -744.632          27.000  
J03  38959503.659   204733311.324         568.831          26.000  
> 2025 05 23 06 13 25.0002077  0 18                     
C03  37183819.477   193625790.785         128.971          29.000  
C08  36548890.230   190319414.698         253.730          33.000  
C10  36172775.109   188361053.895        -485.243          30.000  
C13  37280974.718   194131723.559         433.655          36.000  
C27  25110584.504   130757150.593       -2727.101          28.000  
C30  21757797.990   113298533.235        -815.351          32.000  
C32  22397787.434   116631046.006        -947.649          26.000  
C40  36610675.956   190641200.647        -906.768          25.000  
E13  24295118.739   127671588.671        -908.929          22.000  
E26  24061916.782   126446089.552        1139.241          34.000  
G05  22293696.195   117154037.058        2781.456          29.000  
G06  21752322.281   114309072.174       -1566.804          26.000  
G09  22570250.541   118607343.2681      -1641.637          20.000  
G12  23325875.932   122578176.434       -2136.783          23.000  
G19  22810418.776   119869423.461       -3566.355          33.000  
G20  20492519.124   107688748.595         895.470          33.000  
G25  23576491.634   123895282.348        -737.025          23.000  
J03  38959346.905   204732749.533         555.031          25.000  
> 2025 05 23 06 13 25.0002077  0 18                     
C03  37183819.477   193625790.785         128.971          29.000  
C08  36548890.230   190319414.698         253.730          33.000  
C10  36172775.109   188361053.895        -485.243          30.000  
C13  37280974.718   194131723.559         433.655          36.000  
C27  25110584.504   130757150.593       -2727.101          28.000  
C30  21757797.990   113298533.235        -815.351          32.000  
C32  22397787.434   116631046.006        -947.649          26.000  
C40  36610675.956   190641200.647        -906.768          25.000  
E13  24295118.739   127671588.671        -908.929          22.000  
E26  24061916.782   126446089.552        1139.241          34.000  
G05  22293696.195   117154037.058        2781.456          29.000  
G06  21752322.281   114309072.174       -1566.804          26.000  
G09  22570250.541   118607343.2681      -1641.637          20.000  
G12  23325875.932   122578176.434       -2136.783          23.000  
G19  22810418.776   119869423.461       -3566.355          33.000  
G20  20492519.124   107688748.595         895.470          33.000  
G25  23576491.634   123895282.348        -737.025          23.000  
J03  38959346.905   204732749.533         555.031          25.000  
> 2025 05 23 06 13 27.0000856  0 19                     
C03  37183794.145   193625669.869         124.172          27.000  
C08  36548822.627   190319309.632         253.751          32.000  
C10  36172988.111   188362151.820        -485.274          30.000  
C13  37280836.964   194130984.774         434.816          36.000  
C27  25111660.309   130763004.757       -2731.638          26.000  
C30  21758140.503   113300293.279        -817.521          31.000  
C32  22398178.214   116633069.094        -948.848          30.000  
C40  36611050.847   190643143.438        -908.521          26.000  
E08  25283158.084   132863892.1971         58.999          25.000  
E13  24295484.036   127673537.909        -910.978          26.000  
E26  24061511.013   126443941.707        1139.582          34.000  
G05  22292661.761   117148608.756        2779.330          27.000  
G06  21752949.297   114312343.132       -1576.850          30.000  
G09  22570910.534   118610792.825       -1662.694          28.000  
G12  23326718.799   122582580.744       -2136.655          21.000  
G19  22811803.667   119876691.623       -3573.544          32.000  
G20  20492205.391   107687089.356         894.859          34.000  
G25  23576798.172   123896884.781        -735.468          22.000  
J03  38959162.383   204731773.107         553.489          27.000  
> 2025 05 23 06 13 28.0000246  0 19                     
C03  37183802.614   193625690.007         125.192          26.000  
C08  36548802.016   190319200.074         253.345          31.000  
C10  36173111.401   188362780.830        -486.225          30.000  
C13  37280781.577   194130692.785         433.983          34.000  
C27  25112215.000   130765878.300       -2731.407          29.000  
C30  21758326.449   113301254.468        -818.057          30.000  
C32  22398389.942   116634160.707        -949.810          29.000  
C40  36611255.980   190644195.461        -909.514          25.000  
E08  25283183.042   132863977.954          58.894          23.000  
E13  24295683.174   127674594.298        -911.191          24.000  
E26  24061320.419   126442947.498        1139.666          35.000  
G05  22292161.483   117145975.226        2778.482          26.000  
G06  21753277.644   114314065.552       -1578.590          27.000  
G09  22571254.171   118612599.240       -1664.609          25.000  
G12  23327154.172   122584863.691       -2135.971          20.000  
G19  22812512.751   119880407.793       -3571.698          31.000  
G20  20492064.564   107686339.087         894.998          32.000  
G25  23576966.431   123897765.941        -736.846          24.000  
J03  38959084.212   204731364.280         555.305          26.000  
> 2025 05 23 06 13 28.9999636  0 19                     
C03  37183810.146   193625704.646         129.233          28.000  
C08  36548782.567   190319086.868         252.734          32.000  
C10  36173231.955   188363407.823        -486.878          29.000  
C13  37280726.153   194130401.183         430.686          31.000  
C27  25112763.958   130768750.686       -2731.865          29.000  
C30  21758511.758   113302211.421        -819.080          30.000  
C32  22398598.935   116635250.699        -949.972          29.000  
C40  36611461.675   190645245.296        -910.139          25.000  
E08  25283196.270   132864060.577          58.223          24.000  
E13  24295886.770   127675645.808        -910.921          26.000  
E26  24061133.686   126441950.336        1139.243          34.000  
G05  22291660.567   117143337.025        2782.081          26.000  
G06  21753606.254   114315785.934       -1578.529          28.000  
G09  22571600.169   118614407.094       -1665.956          27.000  
G12  23327589.808   122587139.845       -2135.628          22.000  
G19  22813219.100   119884118.893       -3571.280          31.000  
G20  20491922.500   107685585.894         894.796          32.000  
G25  23577133.752   123898645.491        -741.697          30.000  
J03  38959007.203   204730950.093         557.015          27.000  
> 2025 05 23 06 13 28.9999636  0 19                     
C03  37183810.146   193625704.646         129.233          28.000  
C08  36548782.567   190319086.868         252.734          32.000  
C10  36173231.955   188363407.823        -486.878          29.000  
C13  37280726.153   194130401.183         430.686          31.000  
C27  25112763.958   130768750.686       -2731.865          29.000  
C30  21758511.758   113302211.421        -819.080          30.000  
C32  22398598.935   116635250.699        -949.972          29.000  
C40  36611461.675   190645245.296        -910.139          25.000  
E08  25283196.270   132864060.577          58.223          24.000  
E13  24295886.770   127675645.808        -910.921          26.000  
E26  24061133.686   126441950.336        1139.243          34.000  
G05  22291660.567   117143337.025        2782.081          26.000  
G06  21753606.254   114315785.934       -1578.529          28.000  
G09  22571600.169   118614407.094       -1665.956          27.000  
G12  23327589.808   122587139.845       -2135.628          22.000  
G19  22813219.100   119884118.893       -3571.280          31.000  
G20  20491922.500   107685585.894         894.796          32.000  
G25  23577133.752   123898645.491        -741.697          30.000  
J03  38959007.203   204730950.093         557.015          27.000  
> 2025 05 23 06 13 30.9998415  0 19                     
C03  37183787.812   193625573.359         129.098          26.000  
C08  36548710.467   190318707.870         254.776          33.000  
C10  36173447.056   188364507.435        -486.766          30.000  
C13  37280587.799   194129665.974         434.185          38.000  
C27  25113843.960   130774343.882       -2736.183          28.000  
C30  21758853.971   113303979.648        -821.695          28.000  
C32  22398992.413   116637278.000        -951.775          27.000  
C40  36611835.366   190647194.478        -911.069          24.000  
E08  25283202.416   132864073.605          55.273          22.000  
E13  24296261.661   127677598.687        -911.608          23.000  
E26  24060726.718   126439797.730        1142.568          30.000  
G05  22290625.833   117137900.689        2785.005          30.000  
G06  21754232.970   114319070.561       -1578.638          23.000  
G09  22572263.460   118617868.809       -1668.377          22.000  
G12  23328429.677   122591541.163       -2135.556          21.000  
G19  22814606.689   119891395.540       -3576.437          27.000  
G20  20491609.067   107683931.546         891.351          31.000  
G25  23577439.691   123900252.665        -737.884          28.000  
J03  38958822.681   204729964.870         557.939          23.000  
> 2025 05 23 06 13 30.9998415  0 19                     
C03  37183787.812   193625573.359         129.098          26.000  
C08  36548710.467   190318707.870         254.776          33.000  
C10  36173447.056   188364507.435        -486.766          30.000  
C13  37280587.799   194129665.974         434.185          38.000  
C27  25113843.960   130774343.882       -2736.183          28.000  
C30  21758853.971   113303979.648        -821.695          28.000  
C32  22398992.413   116637278.000        -951.775          27.000  
C40  36611835.366   190647194.478        -911.069          24.000  
E08  25283202.416   132864073.605          55.273          22.000  
E13  24296261.661   127677598.687        -911.608          23.000  
E26  24060726.718   126439797.730        1142.568          30.000  
G05  22290625.833   117137900.689        2785.005          30.000  
G06  21754232.970   114319070.561       -1578.638          23.000  
G09  22572263.460   118617868.809       -1668.377          22.000  
G12  23328429.677   122591541.163       -2135.556          21.000  
G19  22814606.689   119891395.540       -3576.437          27.000  
G20  20491609.067   107683931.546         891.351          31.000  
G25  23577439.691   123900252.665        -737.884          28.000  
J03  38958822.681   204729964.870         557.939          23.000  
> 2025 05 23 06 13 31.9997805  0 19                     
C03  37183789.461   193625586.633         126.211          29.000  
C08  36548691.730   190318597.222         251.897          31.000  
C10  36173568.322   188365135.925        -487.471          30.000  
C13  37280531.887   194129373.909         433.086          39.000  
C27  25114399.026   130777222.737       -2738.306          25.000  
C30  21759039.993   113304941.273        -822.323          26.000  
C32  22399204.516   116638371.300        -953.372          26.000  
C40  36612040.574   190648246.731        -912.710          24.000  
E08  25283225.350   132864160.365          55.506          24.000  
E13  24296465.969   127678653.292        -912.704          23.000  
E26  24060537.399   126438800.115        1139.288          30.000  
G05  22290122.632   117135258.067        2785.260          31.000  
G06  21754563.192   114320791.000       -1579.638          25.000  
G09  22572608.970   118619679.564       -1669.114          24.000  
G12  23328866.324   122593819.420       -2137.616          25.000  
G19  22815314.649   119895114.043       -3576.952          25.000  
G20  20491466.815   107683182.660         892.130          31.000  
G25  23577608.624   123901134.522        -738.831          26.000  
J03  38958743.985   204729549.745         557.998          26.000  
> 2025 05 23 06 13 32.9997195  0 19                     
C03  37183786.950   193625601.567         126.834          32.000  
C08  36548670.932   190318484.938         255.339          31.000  
C10  36173688.726   188365763.294        -485.438          30.000  
C13  37280476.014   194129078.831         438.225          35.000  
C27  25114951.431   130780100.679       -2738.254          21.000  
C30  21759226.351   113305905.277        -822.405          25.000  
C32  22399414.258   116639466.072        -953.187          27.000  
C40  36612244.620   190649565.400        -912.125          24.000  
E08  25283242.925   132864247.449          54.399          23.000  
E13  24296667.317   127679708.110        -912.832          25.000  
E26  24060349.317   126437802.839        1140.983          35.000  
G05  22289618.568   117132615.705        2785.647          28.000  
G06  21754893.750   114322513.184       -1579.482          23.000  
G09  22572956.917   118621490.0091      -1669.405          19.000  
G12  23329301.511   122596104.075       -2141.921          22.000  
G19  22816024.445   119898831.560       -3576.235          26.000  
G20  20491326.100   107682430.459         895.087          32.000  
G25  23577776.995   123902016.462        -738.753          29.000  
J03  38958668.625   204729134.418         558.150          24.000  
> 2025 05 23 06 13 33.9996585  0 19                     
C03  37183798.492   193625617.500         126.272          30.000  
C08  36548649.796   190318373.292         254.590          31.000  
C10  36173813.290   188366391.109        -486.495          30.000  
C13  37280419.802   194128786.431         434.486          39.000  
C27  25115505.297   130782978.469       -2734.317          23.000  
C30  21759412.372   113306868.350        -822.954          23.000  
C32  22399623.363   116640561.079        -952.878          30.000  
C40  36612447.130   190650617.564        -911.767          26.000  
E08  25283258.664   132864336.858          54.141          25.000  
E13  24296866.529   127680764.562        -912.203          28.000  
E26  24060157.000   126436805.845        1141.005          36.000  
G05  22289115.666   117129974.269        2786.213          30.000  
G06  21755222.473   114324235.105       -1579.091          27.000  
G09  22573304.526   118623301.866       -1669.144          23.000  
G12  23329734.561   122598390.637       -2140.341          28.000  
G19  22816734.503   119902550.516       -3576.803          31.000  
G20  20491185.048   107681679.975         893.475          32.000  
G25  23577946.227   123902897.751        -738.867          27.000  
J03  38958592.628   204728720.148         557.028          28.000  
> 2025 05 23 06 13 34.9995974  0 19                     
C03  37183772.597   193625473.886         129.986          31.000  
C08  36548600.518   190318105.422         252.053          32.000  
C10  36173903.415   188366862.095        -486.956          31.000  
C13  37280335.149   194128339.430         432.348          38.000  
C27  25116029.822   130785697.220       -2733.420          23.000  
C30  21759569.351   113307677.222        -823.680          23.000  
C32  22399805.825   116641498.017        -952.577          30.000  
C40  36612623.296   190651515.534        -912.872          25.000  
E08  25283252.556   132864268.102          51.796          24.000  
E13  24297043.594   127681663.225        -914.027          29.000  
E26  24059941.637   126435649.855        1141.225          34.000  
G05  22288582.523   117127173.468        2786.240          30.000  
G06  21755520.954   114325799.778       -1580.092          29.000  
G09  22573620.995   118624956.6621      -1669.306          18.000  
G12  23330137.369   122600516.048       -2138.935          25.000  
G19  22817413.721   119906112.995       -3578.705          31.000  
G20  20491015.253   107680773.053         892.502          31.000  
G25  23578086.118   123903623.541        -739.858          27.000  
J03  38958485.489   204728151.073         553.724          27.000  
> 2025 05 23 06 13 36.9994754  0 19                     
C03  37183776.645   193625499.069         126.529          31.000  
C08  36548559.596   190317881.280         253.759          31.000  
C10  36174148.795   188368118.155        -487.701          30.000  
C13  37280226.174   194127754.283         432.661          39.000  
C27  25117141.602   130791448.695       -2736.074          26.000  
C30  21759942.443   113309606.687        -824.223          24.000  
C32  22400230.181   116643686.870        -954.414          27.000  
C40  36613030.264   190653618.149        -910.802          25.000  
E08  25283282.385   132864451.003          49.627          20.000  
E13  24297441.569   127683775.821        -915.824          25.000  
E26  24059563.448   126433652.455        1141.356          33.000  
G05  22287581.966   117121887.096        2786.457          30.000  
G06  21756181.247   114329245.737       -1582.039          25.000  
G09  22574319.062   118628846.6211      -1669.314          13.000  
G12  23331005.718   122605078.275       -2138.367          28.000  
G19  22818831.289   119913555.575       -3581.342          32.000  
G20  20490731.199   107679273.124         893.165          31.000  
G25  23578422.635   123905387.813        -738.814          25.000  
J03  38958326.449   204727325.505         556.710          24.000  
> 2025 05 23 06 13 38.0004143  0 19                     
C03  37183767.951   193625455.626         125.943          30.000  
C08  36548525.420   190317711.730         255.645          31.000  
C10  36174259.719   188368691.097        -487.669          30.000  
C13  37280159.020   194127403.806         434.742          39.000  
C27  25117681.528   130794271.718       -2738.485          25.000  
C30  21760117.522   113310516.116        -825.529          24.000  
C32  22400435.838   116644724.306        -955.357          25.000  
C40  36613224.530   190654613.475        -912.085          25.000  
E08  25283290.180   132864486.1571         48.289          18.000  
E13  24297634.635   127684776.840        -914.425          24.000  
E26  24059365.585   126432592.347        1145.093          34.000  
G05  22287067.822   117119183.805        2785.716          31.000  
G06  21756501.725   114331187.739       -1582.906          23.000  
G09  22574654.829   118630601.8001      -1669.247          13.000  
G12  23331432.623   122607303.336       -2137.223          23.000  
G19  22819530.405   119917226.833       -3584.374          32.000  
G20  20490577.406   107678465.221         891.440          32.000  
G25  23578508.376   123905897.396        -738.446          20.000  
J03  38958236.212   204726854.036         555.507          24.000  
> 2025 05 23 06 13 39.0003533  0 19                     
C03  37183777.506   193625473.760         124.584          31.000  
C08  36548506.196   190317597.278         258.056          32.000  
C10  36174380.797   188369319.230        -489.314          30.000  
C13  37280104.421   194127108.116         438.017          36.000  
C27  25118236.707   130797152.936       -2740.526          21.000  
C30  21760303.955   113311482.837        -826.765          23.000  
C32  22400646.855   116645822.989        -956.914          29.000  
C40  36613422.655   190655668.990        -919.258          24.000  
E08  25283311.728   132864580.791          46.990          21.000  
E13  24297836.058   127685833.831        -915.875          26.000  
E26  24059171.282   126431589.432        1145.524          34.000  
G05  22286568.330   117116544.345        2780.159          29.000  
G06  21756830.859   114332912.539       -1584.258          26.000  
G09  22574999.553   118632412.4971      -1669.987          19.000  
G12  23331867.284   122609576.9481      -2131.234          18.000  
G19  22820241.775   119920954.793       -3590.792          34.000  
G20  20490435.866   107677715.488         892.860          32.000  
G25  23578684.616   123906778.839        -736.771          20.000  
J03  38958160.627   204726441.917         553.870          26.000  
> 2025 05 23 06 13 39.0003533  0 19                     
C03  37183777.506   193625473.760         124.584          31.000  
C08  36548506.196   190317597.278         258.056          32.000  
C10  36174380.797   188369319.230        -489.314          30.000  
C13  37280104.421   194127108.116         438.017          36.000  
C27  25118236.707   130797152.936       -2740.526          21.000  
C30  21760303.955   113311482.837        -826.765          23.000  
C32  22400646.855   116645822.989        -956.914          29.000  
C40  36613422.655   190655668.990        -919.258          24.000  
E08  25283311.728   132864580.791          46.990          21.000  
E13  24297836.058   127685833.831        -915.875          26.000  
E26  24059171.282   126431589.432        1145.524          34.000  
G05  22286568.330   117116544.345        2780.159          29.000  
G06  21756830.859   114332912.539       -1584.258          26.000  
G09  22574999.553   118632412.4971      -1669.987          19.000  
G12  23331867.284   122609576.9481      -2131.234          18.000  
G19  22820241.775   119920954.793       -3590.792          34.000  
G20  20490435.866   107677715.488         892.860          32.000  
G25  23578684.616   123906778.839        -736.771          20.000  
J03  38958160.627   204726441.917         553.870          26.000  
> 2025 05 23 06 13 41.0002312  0 19                     
C03  37183766.676   193625630.282         129.704          28.000  
C08  36548435.707   190317212.151         255.470          32.000  
C10  36174595.711   188370422.894        -485.026          32.000  
C13  37279961.982   194126361.371         438.901          39.000  
C27  25119324.616   130802775.083       -2746.200          24.000  
C30  21760648.079   113313266.450        -828.336          23.000  
C32  22401042.543   116647865.158        -956.912          30.000  
C40  36613807.851   190657633.372        -917.017          25.000  
E08  25283324.281   132864619.677          45.901          23.000  
E13  24298217.057   127687798.108        -917.424          25.000  
E26  24058763.527   126429426.398        1145.682          30.000  
G05  22285532.210   117111100.488        2789.049          31.000  
G06  21757459.787   114336215.139       -1588.292          25.000  
G09  22575667.453   118635893.3231      -1676.294          16.000  
G12  23332706.066   122613976.829       -2137.378          20.000  
G19  22821634.274   119928261.522       -3586.266          32.000  
G20  20490124.045   107676327.762         894.514          30.000  
G25  23579009.854   123908373.0071       -730.841          19.000  
J03  38957979.215   204725469.129         551.124          23.000  
> 2025 05 23 06 13 41.0002312  0 19                     
C03  37183766.676   193625630.282         129.704          28.000  
C08  36548435.707   190317212.151         255.470          32.000  
C10  36174595.711   188370422.894        -485.026          32.000  
C13  37279961.982   194126361.371         438.901          39.000  
C27  25119324.616   130802775.083       -2746.200          24.000  
C30  21760648.079   113313266.450        -828.336          23.000  
C32  22401042.543   116647865.158        -956.912          30.000  
C40  36613807.851   190657633.372        -917.017          25.000  
E08  25283324.281   132864619.677          45.901          23.000  
E13  24298217.057   127687798.108        -917.424          25.000  
E26  24058763.527   126429426.398        1145.682          30.000  
G05  22285532.210   117111100.488        2789.049          31.000  
G06  21757459.787   114336215.139       -1588.292          25.000  
G09  22575667.453   118635893.3231      -1676.294          16.000  
G12  23332706.066   122613976.829       -2137.378          20.000  
G19  22821634.274   119928261.522       -3586.266          32.000  
G20  20490124.045   107676327.762         894.514          30.000  
G25  23579009.854   123908373.0071       -730.841          19.000  
J03  38957979.215   204725469.129         551.124          23.000  
> 2025 05 23 06 13 42.0001702  0 19                     
C03  37183775.370   193625644.104         126.345          30.000  
C08  36548414.721   190317099.244         254.489          31.000  
C10  36174715.628   188371052.306        -489.861          32.000  
C13  37279907.120   194126068.416         434.867          37.000  
C27  25119881.031   130805661.653       -2746.305          23.000  
C30  21760837.248   113314234.685        -828.964          22.000  
C32  22401255.396   116648963.832        -958.563          27.000  
C40  36614015.007   190658691.359        -916.912          24.000  
E08  25283341.969   132864716.806          45.263          20.000  
E13  24298414.320   127688858.312        -918.162          23.000  
E26  24058572.260   126428426.073        1143.685          32.000  
G05  22285031.256   117108457.412        2784.601          29.000  
G06  21757790.458   114337946.763       -1588.890          23.000  
G09  22576017.611   118637711.248       -1676.563          20.000  
G12  23333142.864   122616257.9421      -2138.599          20.000  
G19  22822346.281   119931989.223       -3587.510          31.000  
G20  20489982.843   107675576.941         894.272          29.000  
G25  23579179.536   123909247.7541       -730.584          16.000  
J03  38957903.067   204725061.923         550.307          21.000  
> 2025 05 23 06 13 44.0000482  0 19                     
C03  37183781.516   193625671.535         132.986          28.000  
C08  36548371.401   190316870.390         253.942          30.000  
C10  36174959.809   188372307.775        -486.573          31.000  
C13  37279794.548   194125478.355         435.557          37.000  
C27  25120992.211   130811432.8261      -2744.318          19.000  
C30  21761213.938   113316173.641        -829.184          21.000  
C32  22401677.654   116651154.505        -952.038          26.000  
C40  36614416.280   190660800.047        -911.115          25.000  
E08  25283390.985   132864906.5791         47.799          18.000  
E13  24298821.289   127690974.365        -915.902          22.000  
E26  24058197.069   126426424.542        1143.020          31.000  
G05  22284033.997   117103181.926        2773.695          27.000  
G06  21758450.151   114341399.5841      -1582.657          20.000  
G09  22576717.776   118641340.7041      -1670.528          17.000  
G12  23334016.309   122620821.6121      -2140.188          17.000  
G19  22823766.248   119939440.392       -3582.003          33.000  
G20  20489700.288   107674075.069         891.147          29.000  
G25  23579532.542   123911278.887        -739.731          24.000  
J03  38957747.925   204724245.253         551.414          22.000  
> 2025 05 23 06 13 44.9999871  0 19                     
C03  37183753.073   193625527.536         129.481          28.000  
C08  36548321.074   190316603.498         252.932          31.000  
C10  36175051.883   188372780.819        -488.852          32.000  
C13  37279710.943   194125031.423         432.527          38.000  
C27  25121515.986   130814161.1001      -2737.629          19.000  
C30  21761369.867   113316982.975        -823.730          21.000  
C32  22401860.265   116652364.921        -951.723          26.000  
C40  36614588.698   190661695.608        -912.477          24.000  
E08  25283381.729   132864843.8861         49.743          18.000  
E13  24298993.707   127691875.197        -915.736          23.000  
E26  24057974.961   126425270.595        1140.965          33.000  
G05  22283503.402   117100395.963        2784.772          27.000  
G06  21758747.582   114342967.571       -1583.305          23.000  
G09  22577032.895   118642998.125       -1672.622          21.000  
G12  23334426.163   122623236.746       -2146.342          21.000  
G19  22824448.313   119943284.810       -3581.521          32.000  
G20  20489530.044   107673171.765         887.894          29.000  
G25  23579677.079   123912007.198        -743.281          25.000  
J03  38957640.637   204723679.809         551.715          21.000  
> 2025 05 23 06 13 45.9999261  0 19                     
C03  37183744.492   193625543.254         126.539          29.000  
C08  36548303.199   190316493.894         252.518          31.000  
C10  36175173.411   188373413.625        -489.969          32.000  
C13  37279656.194   194124741.944         434.507          39.000  
C27  25122066.518   130817039.6511      -2735.964          19.000  
C30  21761555.851   113317948.247        -825.102          23.000  
C32  22402075.628   116653460.831        -955.864          27.000  
C40  36614793.868   190662754.238        -915.686          24.000  
E08  25283392.934   132864937.950          48.061          22.000  
E13  24299197.678   127692934.336        -913.161          20.000  
E26  24057790.401   126424542.017        1139.633          34.000  
G05  22283000.762   117097757.600        2781.243          31.000  
G06  21759077.766   114344694.674       -1583.747          24.000  
G09  22577377.170   118644813.759       -1673.762          24.000  
G12  23334860.974   122625526.393       -2146.410          25.000  
G19  22825159.234   119947007.368       -3578.345          30.000  
G20  20489389.553   107672428.893         887.004          30.000  
G25  23579850.472   123912895.762        -746.886          22.000  
J03  38957566.700   204723271.128         554.305          23.000  
> 2025 05 23 06 13 45.9999261  0 19                     
C03  37183744.492   193625543.254         126.539          29.000  
C08  36548303.199   190316493.894         252.518          31.000  
C10  36175173.411   188373413.625        -489.969          32.000  
C13  37279656.194   194124741.944         434.507          39.000  
C27  25122066.518   130817039.6511      -2735.964          19.000  
C30  21761555.851   113317948.247        -825.102          23.000  
C32  22402075.628   116653460.831        -955.864          27.000  
C40  36614793.868   190662754.238        -915.686          24.000  
E08  25283392.934   132864937.950          48.061          22.000  
E13  24299197.678   127692934.336        -913.161          20.000  
E26  24057790.401   126424542.017        1139.633          34.000  
G05  22283000.762   117097757.600        2781.243          31.000  
G06  21759077.766   114344694.674       -1583.747          24.000  
G09  22577377.170   118644813.759       -1673.762          24.000  
G12  23334860.974   122625526.393       -2146.410          25.000  
G19  22825159.234   119947007.368       -3578.345          30.000  
G20  20489389.553   107672428.893         887.004          30.000  
G25  23579850.472   123912895.762        -746.886          22.000  
J03  38957566.700   204723271.128         554.305          23.000  
> 2025 05 23 06 13 47.9998041  0 19                     
C03  37183763.866   193625571.124         129.079          32.000  
C08  36548262.314   190316276.224         246.087          30.000  
C10  36175421.527   188374672.334        -489.058          33.000  
C13  37279548.456   194124166.319         428.594          39.000  
C27  25123167.543   130822782.2771      -2721.336          15.000  
C30  21761928.680   113319882.543        -824.946          23.000  
C32  22402497.324   116655653.937        -954.896          29.000  
C40  36615199.375   190664860.666        -907.024          23.000  
E08  25283431.495   132865126.1331         48.697          19.000  
E13  24299601.086   127695044.743        -910.263          22.000  
E26  24057412.250   126422559.030        1132.038          33.000  
G05  22281996.944   117092488.570        2772.765          29.000  
G06  21759736.898   114348143.7271      -1581.548          19.000  
G09  22578071.376   118648449.220       -1675.928          22.000  
G12  23335731.459   122630106.5751      -2147.117          17.000  
G19  22826572.643   119954432.037       -3563.197          33.000  
G20  20489110.634   107670944.986         883.084          29.000  
G25  23580200.517   123914689.633        -759.564          23.000  
J03  38957409.497   204722442.282         563.301          23.000  
> 2025 05 23 06 13 48.9997430  0 19                     
C03  37183733.362   193625426.033         136.545          32.000  
C08  36548213.823   190316016.412         246.192          30.000  
C10  36175514.238   188375145.328        -489.281          32.000  
C13  37279465.188   194123725.047         423.967          38.000  
C27  25123690.756   130825486.0231      -2714.188          14.000  
C30  21762086.146   113320690.058        -822.562          23.000  
C32  22402682.071   116656592.630        -949.825          29.000  
C40  36615370.931   190665749.532        -902.410          25.000  
E08  25283421.077   132865062.0901         59.237          19.000  
E13  24299776.240   127695939.8321       -905.625          19.000  
E26  24057197.374   126421417.560        1128.678          32.000  
G05  22281468.785   117089705.448        2766.339          26.000  
G06  21760035.866   114349710.3601      -1579.968          18.000  
G09  22578388.332   118650104.107       -1671.102          24.000  
G12  23336138.652   122632239.6391      -2147.150          15.000  
G19  22827246.951   119957976.742       -3555.458          32.000  
G20  20488940.127   107670049.475         880.197          28.000  
G25  23580350.488   123915440.709        -768.747          29.000  
J03  38957300.147   204721860.230         572.299          26.000  
> 2025 05 23 06 13 49.9996820  0 18                     
C03  37183738.084   193625429.976         143.043          31.000  
C08  36548196.660   190315913.473         246.544          30.000  
C10  36175631.981   188375776.836        -487.545          31.000  
C13  37279411.450   194123446.013         423.279          35.000  
C27  25124245.297   130828342.0091      -2710.896          16.000  
C30  21762269.544   113321650.684        -816.677          23.000  
C32  22402895.448   116657684.988        -949.421          27.000  
C40  36615573.516   190666792.469        -899.954          25.000  
E08  25283440.189   132865146.7111         55.052          15.000  
E13  24299978.225   127696989.456        -909.272          22.000  
E26  24057013.826   126420438.732        1124.874          32.000  
G05  22280971.055   117087083.644        2766.280          27.000  
G06  21760364.963   114351427.8961      -1573.064          19.000  
G09  22578739.314   118651919.611       -1672.651          22.000  
G12  23336582.270   122634543.9761      -2160.456          17.000  
G19  22827951.688   119961675.570       -3555.338          34.000  
G20  20488802.447   107669315.528         877.756          29.000  
G25  23580528.490   123916358.685        -778.649          29.000  
> 2025 05 23 06 13 49.9996820  0 18                     
C03  37183738.084   193625429.976         143.043          31.000  
C08  36548196.660   190315913.473         246.544          30.000  
C10  36175631.981   188375776.836        -487.545          31.000  
C13  37279411.450   194123446.013         423.279          35.000  
C27  25124245.297   130828342.0091      -2710.896          16.000  
C30  21762269.544   113321650.684        -816.677          23.000  
C32  22402895.448   116657684.988        -949.421          27.000  
C40  36615573.516   190666792.469        -899.954          25.000  
E08  25283440.189   132865146.7111         55.052          15.000  
E13  24299978.225   127696989.456        -909.272          22.000  
E26  24057013.826   126420438.732        1124.874          32.000  
G05  22280971.055   117087083.644        2766.280          27.000  
G06  21760364.963   114351427.8961      -1573.064          19.000  
G09  22578739.314   118651919.611       -1672.651          22.000  
G12  23336582.270   122634543.9761      -2160.456          17.000  
G19  22827951.688   119961675.570       -3555.338          34.000  
G20  20488802.447   107669315.528         877.756          29.000  
G25  23580528.490   123916358.685        -778.649          29.000  
> 2025 05 23 06 13 51.9995600  0 19                     
C03  37183757.008   193625417.485         152.139          27.000  
C08  36548158.924   190315713.848         240.124          29.000  
C10  36175880.846   188377304.106        -490.869          33.000  
C13  37279305.961   194122884.654         421.313          38.000  
C27  25125345.872   130834038.9521      -2702.637          16.000  
C30  21762639.825   113323568.878        -816.704          24.000  
C32  22403316.394   116659864.366        -947.828          27.000  
C40  36615976.474   190668872.321        -896.329          25.000  
E08  25283469.906   132865317.3531         60.801          20.000  
E13  24300377.586   127699092.891        -908.091          23.000  
E26  24056642.121   126418485.840        1119.651          32.000  
G05  22279973.982   117081841.118        2766.175          32.000  
G06  21761017.948   114354848.842       -1567.006          22.000  
G09  22579367.716   118655549.021       -1670.616          25.000  
G12  23337458.901   122639155.964       -2164.675          27.000  
G19  22829361.949   119969067.743       -3549.907          34.000  
G20  20488526.076   107667850.391         874.926          29.000  
G25  23580884.381   123918207.639        -793.583          26.000  
J03  38957063.574   204720557.3371        582.294          23.000  
> 2025 05 23 06 13 52.9994989  0 19                     
C03  37183732.538   193625239.884         170.093          27.000  
C08  36548111.669   190315458.263         241.992          31.000  
C10  36175974.194   188377777.843        -489.680          32.000  
C13  37279223.631   194122448.453         421.429          39.000  
C27  25125858.630   130836723.5901      -2702.526          18.000  
C30  21762794.031   113324368.312        -816.427          23.000  
C32  22403497.282   116660796.129        -949.665          28.000  
C40  36616146.569   190669752.706        -895.308          26.000  
E08  25283461.024   132865239.5721         62.290          20.000  
E13  24300552.478   127700265.0511       -904.592          19.000  
E26  24056431.479   126417353.983        1116.974          31.000  
G05  22279441.963   117079056.928        2768.712          34.000  
G06  21761314.855   114356401.535       -1567.037          21.000  
G09  22579695.802   118657202.751       -1669.869          26.000  
G12  23337871.228   122641304.073       -2165.882          24.000  
G19  22830036.295   119972598.764       -3545.507          34.000  
G20  20488358.305   107666961.330         872.916          30.000  
G25  23581034.390   123918983.795        -784.857          27.000  
J03  38956951.264   204719960.812         569.191          23.000  
> 2025 05 23 06 13 52.9994989  0 19                     
C03  37183732.538   193625239.884         170.093          27.000  
C08  36548111.669   190315458.263         241.992          31.000  
C10  36175974.194   188377777.843        -489.680          32.000  
C13  37279223.631   194122448.453         421.429          39.000  
C27  25125858.630   130836723.5901      -2702.526          18.000  
C30  21762794.031   113324368.312        -816.427          23.000  
C32  22403497.282   116660796.129        -949.665          28.000  
C40  36616146.569   190669752.706        -895.308          26.000  
E08  25283461.024   132865239.5721         62.290          20.000  
E13  24300552.478   127700265.0511       -904.592          19.000  
E26  24056431.479   126417353.983        1116.974          31.000  
G05  22279441.963   117079056.928        2768.712          34.000  
G06  21761314.855   114356401.535       -1567.037          21.000  
G09  22579695.802   118657202.751       -1669.869          26.000  
G12  23337871.228   122641304.073       -2165.882          24.000  
G19  22830036.295   119972598.764       -3545.507          34.000  
G20  20488358.305   107666961.330         872.916          30.000  
G25  23581034.390   123918983.795        -784.857          27.000  
J03  38956951.264   204719960.812         569.191          23.000  
> 2025 05 23 06 13 54.0004378  0 19                     
C03  37183712.489   193625153.472         161.703          29.000  
C08  36548083.226   190315295.678         241.538          30.000  
C10  36176081.857   188378345.200        -488.504          31.000  
C13  37279159.812   194122367.179         420.314          38.000  
C27  25126396.495   130839504.0981      -2693.819          19.000  
C30  21762969.447   113325265.564        -816.355          23.000  
C32  22403696.681   116661828.652        -952.937          28.000  
C40  36616335.176   190670727.690        -894.521          26.000  
E08  25283462.561   132865256.242          64.050          20.000  
E13  24300743.183   127701249.233        -905.381          22.000  
E26  24056230.656   126416317.170        1118.226          30.000  
G05  22278929.655   117076368.629        2763.685          32.000  
G06  21761631.174   114358047.467       -1565.055          23.000  
G09  22580034.905   118658954.908       -1669.152          23.000  
G12  23338301.168   122643556.993       -2171.743          23.000  
G19  22830727.654   119976223.729       -3541.376          31.000  
G20  20488208.746   107666168.643         872.697          31.000  
G25  23581201.411   123919851.879        -787.624          29.000  
J03  38956859.265   204719470.863         577.587          22.000  
> 2025 05 23 06 13 56.0003158  0 19                     
C03  37183709.828   193625139.163         142.500          21.000  
C08  36548049.387   190315104.380         236.427          30.000  
C10  36176328.624   188379606.361        -491.229          30.000  
C13  37279056.121   194121817.955         416.356          38.000  
C27  25127487.777   130845166.4711      -2686.292          19.000  
C30  21763341.527   113327180.170        -814.730          26.000  
C32  22404126.021   116664014.242        -952.476          28.000  
C40  36616734.837   190672795.505        -891.165          25.000  
E08  25283500.672   132865692.5181         67.280          18.000  
E13  24301136.848   127703341.291        -900.949          27.000  
E26  24055864.646   126414379.665        1111.345          33.000  
G05  22277936.780   117071137.427        2759.819          29.000  
G06  21762284.459   114361461.753       -1563.507          21.000  
G09  22580749.647   118662579.9931      -1669.888          19.000  
G12  23339183.195   122648194.490       -2174.234          29.000  
G19  22832132.519   119983584.170       -3533.028          31.000  
G20  20487936.272   107664716.072         869.501          31.000  
G25  23581562.399   123921727.716        -796.664          32.000  
J03  38956697.415   204718602.997         576.819          25.000  
> 2025 05 23 06 13 57.0002548  0 19                     
C03  37183731.863   193625449.288         146.331          21.000  
C08  36548033.648   190315011.003         235.568          32.000  
C10  36176452.888   188380239.644        -488.854          30.000  
C13  37279004.407   194121544.289         414.958          39.000  
C27  25128037.147   130848282.6121      -2682.298          19.000  
C30  21763527.548   113328398.327        -812.769          26.000  
C32  22404336.326   116665110.426        -953.898          29.000  
C40  36616935.248   190673827.403        -888.715          24.000  
E08  25283514.912   132865767.0001         70.390          18.000  
E13  24301331.563   127704384.016        -901.412          26.000  
E26  24055682.223   126413414.867        1108.669          32.000  
G05  22277439.575   117068521.058        2760.872          32.000  
G06  21762610.783   114363167.022       -1560.668          24.000  
G09  22581096.357   118664386.917       -1664.403          21.000  
G12  23339621.341   122650509.956       -2173.266          34.000  
G19  22832833.283   119987259.397       -3532.002          29.000  
G20  20487799.117   107663991.702         866.925          32.000  
G25  23581741.525   123922669.567        -800.527          36.000  
J03  38956616.621   204718170.702         575.947          24.000  
> 2025 05 23 06 13 58.0001937  0 19                     
C03  37183701.247   193625288.082         148.962          21.000  
C08  36547985.943   190314760.613         237.180          33.000  
C10  36176546.086   188380713.627        -488.765          31.000  
C13  37278924.025   194121114.975         417.275          40.000  
C27  25128558.149   130850947.1661      -2678.182          17.000  
C30  21763681.604   113329193.972        -809.565          25.000  
C32  22404520.061   116666049.411        -952.649          27.000  
C40  36617106.092   190674699.911        -887.729          24.000  
E08  25283502.583   132865680.3221         72.431          19.000  
E13  24301510.202   127705269.826        -903.754          24.000  
E26  24055472.331   126412294.400        1107.374          30.000  
G05  22276909.504   117065746.220        2760.638          36.000  
G06  21762906.341   114364709.974       -1558.926          25.000  
G09  22581412.001   118666037.482       -1668.235          29.000  
G12  23340033.818   122652671.020       -2175.572          31.000  
G19  22833505.081   119990774.532       -3530.689          27.000  
G20  20487630.596   107663111.081         866.623          31.000  
G25  23581893.183   123923456.948        -802.503          36.000  
J03  38956507.159   204717579.197         578.858          23.000  
> 2025 05 23 06 13 58.0001937  0 19                     
C03  37183701.247   193625288.082         148.962          21.000  
C08  36547985.943   190314760.613         237.180          33.000  
C10  36176546.086   188380713.627        -488.765          31.000  
C13  37278924.025   194121114.975         417.275          40.000  
C27  25128558.149   130850947.1661      -2678.182          17.000  
C30  21763681.604   113329193.972        -809.565          25.000  
C32  22404520.061   116666049.411        -952.649          27.000  
C40  36617106.092   190674699.911        -887.729          24.000  
E08  25283502.583   132865680.3221         72.431          19.000  
E13  24301510.202   127705269.826        -903.754          24.000  
E26  24055472.331   126412294.400        1107.374          30.000  
G05  22276909.504   117065746.220        2760.638          36.000  
G06  21762906.341   114364709.974       -1558.926          25.000  
G09  22581412.001   118666037.482       -1668.235          29.000  
G12  23340033.818   122652671.020       -2175.572          31.000  
G19  22833505.081   119990774.532       -3530.689          27.000  
G20  20487630.596   107663111.081         866.623          31.000  
G25  23581893.183   123923456.948        -802.503          36.000  
J03  38956507.159   204717579.197         578.858          23.000  
> 2025 05 23 06 13 59.0001327  0 19                     
C03  37183686.782   193625214.231         154.153          28.000  
C08  36547969.080   190314666.602         236.877          33.000  
C10  36176668.626   188381344.256        -491.715          31.000  
C13  37278872.686   194120842.869         413.244          40.000  
C27  25129102.797   130853767.0101      -2678.161          18.000  
C30  21763865.602   113330145.753        -807.149          24.000  
C32  22404729.541   116667143.627        -950.666          29.000  
C40  36617306.878   190675729.130        -886.965          24.000  
E08  25283518.997   132865750.5761         74.668          19.000  
E13  24301713.386   127706315.693        -900.091          27.000  
E26  24055292.680   126411331.409        1107.709          29.000  
G05  22276410.574   117063129.766        2761.859          35.000  
G06  21763230.342   114366411.834       -1557.139          25.000  
G09  22581758.486   118667851.971       -1670.627          27.000  
G12  23340478.336   122654992.755       -2177.271          28.000  
G19  22834206.820   119994448.907       -3532.488          25.000  
G20  20487495.614   107662388.755         867.151          30.000  
G25  23582074.782   123924403.983        -802.818          36.000  
J03  38956427.039   204717405.568         583.018          24.000  
> 2025 05 23 06 14 01.0000107  0 18                     
C03  37183707.467   193625192.679         151.079          27.000  
C08  36547933.704   190314475.477         240.818          32.000  
C10  36176911.758   188382607.912        -490.335          31.000  
C13  37278769.258   194120293.682         419.180          40.000  
C30  21764231.049   113332028.436        -798.675          21.000  
C32  22405147.751   116669327.948        -953.581          29.000  
C40  36617703.804   190677793.271        -890.169          24.000  
E08  25283548.676   132865891.3261         63.845          18.000  
E13  24302109.712   127708399.315        -903.593          25.000  
E26  24054924.235   126409394.348        1113.959          30.000  
G05  22275417.062   117057893.935        2763.273          30.000  
G06  21763883.290   114369818.224       -1564.392          25.000  
G09  22582458.802   118671481.048       -1673.411          24.000  
G12  23341364.222   122659632.451       -2173.918          28.000  
G19  22835610.748   120001806.569       -3539.785          22.000  
G20  20487219.206   107660939.049         871.104          32.000  
G25  23582433.633   123926285.218        -791.681          36.000  
J03  38956262.453   204716526.804         582.193          22.000  
> 2025 05 23 06 14 01.9999496  0 18                     
C03  37183653.243   193625027.501         144.252          31.000  
C08  36547887.874   190314219.257         241.291          32.000  
C10  36177005.330   188383083.480        -491.532          30.000  
C13  37278686.852   194119858.894         420.920          40.000  
C30  21764385.779   113332828.672        -815.993          21.000  
C32  22405331.862   116670267.438        -957.166          28.000  
C40  36617874.123   190678668.672        -890.771          22.000  
E08  25283525.929   132865811.625          60.845          20.000  
E13  24302276.734   127709285.042        -905.753          24.000  
E26  24054710.520   126408262.519        1116.947          31.000  
G05  22274888.266   117055115.062        2764.260          33.000  
G06  21764178.922   114371369.131       -1567.932          25.000  
G09  22582779.917   118673137.792       -1675.583          21.000  
G12  23341774.676   122661787.688       -2168.910          26.000  
G19  22836284.719   120005332.8471      -3547.097          19.000  
G20  20487051.959   107660052.574         870.993          31.000  
G25  23582582.368   123927060.148        -786.111          35.000  
J03  38956150.668   204715928.804         582.571          21.000  
> 2025 05 23 06 14 02.9998886  0 18                     
C03  37183653.617   193625030.903         135.974          32.000  
C08  36547867.863   190314122.161         242.203          32.000  
C10  36177128.620   188383718.713        -491.762          30.000  
C13  37278634.164   194119582.276         422.311          40.000  
C30  21764573.224   113333787.678        -815.875          20.000  
C32  22405546.588   116671370.073        -962.530          28.000  
C40  36618078.357   190679713.654        -897.987          25.000  
E08  25283537.396   132865896.434          57.072          24.000  
E13  24302475.871   127710336.010        -905.895          25.000  
E26  24054522.326   126407287.438        1120.747          34.000  
G05  22274390.685   117052496.094        2764.771          36.000  
G06  21764508.769   114373085.111       -1572.637          23.000  
G09  22583128.351   118674962.9301      -1681.531          19.000  
G12  23342213.047   122664100.575       -2168.704          33.000  
G19  22836989.006   120009028.640       -3557.225          26.000  
G20  20486915.329   107659326.211         872.689          31.000  
G25  23582760.520   123927988.008        -783.197          34.000  
J03  38956072.497   204715492.154         581.202          22.000  
> 2025 05 23 06 14 02.9998886  0 18                     
C03  37183653.617   193625030.903         135.974          32.000  
C08  36547867.863   190314122.161         242.203          32.000  
C10  36177128.620   188383718.713        -491.762          30.000  
C13  37278634.164   194119582.276         422.311          40.000  
C30  21764573.224   113333787.678        -815.875          20.000  
C32  22405546.588   116671370.073        -962.530          28.000  
C40  36618078.357   190679713.654        -897.987          25.000  
E08  25283537.396   132865896.434          57.072          24.000  
E13  24302475.871   127710336.010        -905.895          25.000  
E26  24054522.326   126407287.438        1120.747          34.000  
G05  22274390.685   117052496.094        2764.771          36.000  
G06  21764508.769   114373085.111       -1572.637          23.000  
G09  22583128.351   118674962.9301      -1681.531          19.000  
G12  23342213.047   122664100.575       -2168.704          33.000  
G19  22836989.006   120009028.640       -3557.225          26.000  
G20  20486915.329   107659326.211         872.689          31.000  
G25  23582760.520   123927988.008        -783.197          34.000  
J03  38956072.497   204715492.154         581.202          22.000  
> 2025 05 23 06 14 03.9998276  0 18                     
C03  37183655.191   193625039.497         130.779          31.000  
C08  36547848.151   190314020.076         244.164          33.000  
C10  36177248.912   188384348.789        -491.387          30.000  
C13  37278581.775   194119301.124         422.307          39.000  
C30  21764760.670   113334742.7071       -817.676          19.000  
C32  22405759.216   116672472.218        -961.122          28.000  
C40  36618280.192   190680752.617        -899.759          26.000  
E08  25283554.859   132865981.820          55.814          26.000  
E13  24302682.803   127711383.411        -905.585          27.000  
E26  24054338.628   126406305.306        1123.668          34.000  
G05  22273891.606   117049873.073        2765.160          35.000  
G06  21764832.620   114374799.448       -1572.942          26.000  
G09  22583476.485   118676786.0751      -1682.263          16.000  
G12  23342648.721   122666409.525       -2165.400          35.000  
G19  22837694.793   120012729.623       -3563.321          26.000  
G20  20486777.499   107658595.298         873.749          31.000  
G25  23582938.072   123929175.877        -780.364          33.000  
J03  38955992.228   204715056.512         575.486          24.000  
> 2025 05 23 06 14 04.9997666  0 18                     
C03  37183658.601   193625050.681         129.190          31.000  
C08  36547831.475   190313916.425         244.153          32.000  
C10  36177368.941   188384981.259        -491.637          30.000  
C13  37278528.824   194119020.773         421.378          39.000  
C30  21764946.354   113335707.485        -823.926          22.000  
C32  22405971.281   116673573.656        -960.537          28.000  
C40  36618480.866   190681792.970        -903.717          28.000  
E08  25283572.959   132866068.675          54.353          25.000  
E13  24302882.277   127712430.661        -907.054          26.000  
E26  24054151.370   126405323.463        1123.723          36.000  
G05  22273392.863   117047251.203        2763.965          33.000  
G06  21765159.506   114376513.975       -1572.715          26.000  
G09  22583826.155   118678604.9841      -1677.445          15.000  
G12  23343087.429   122668717.726       -2166.608          34.000  
G19  22838401.816   120016436.476       -3566.029          25.000  
G20  20486640.007   107657865.588         872.098          31.000  
G25  23583115.361   123930097.698        -782.858          34.000  
J03  38955909.897   204714625.260         571.812          21.000  
> 2025 05 23 06 14 06.9996445  0 18                     
C03  37183642.487   193624925.693         122.408          29.000  
C08  36547765.296   190313560.591         242.057          32.000  
C10  36177589.663   188386094.665        -491.745          30.000  
C13  37278394.292   194118308.449         419.544          39.000  
C30  21765291.490   113337482.939        -823.564          23.000  
C32  22406362.286   116675620.696        -960.828          35.000  
C40  36618854.782   190683731.263        -903.580          29.000  
E08  25283584.126   132866089.594          54.978          29.000  
E13  24303255.594   127714373.849        -908.127          32.000  
E26  24053751.822   126403211.320        1120.732          36.000  
G05  22272368.548   117041854.200        2762.833          34.000  
G06  21765785.248   114379790.179       -1573.150          26.000  
G09  22584482.476   118682090.370       -1678.101          30.000  
G12  23343940.714   122673183.547       -2171.755          30.000  
G19  22839783.335   120023687.260       -3560.958          25.000  
G20  20486335.792   107656254.177         870.324          30.000  
G25  23583441.011   123931799.736        -790.302          36.000  
J03  38955722.902   204713620.301         565.862          21.000  
> 2025 05 23 06 14 07.9995835  0 18                     
C03  37183641.026   193624946.121         125.255          31.000  
C08  36547747.646   190313464.606         241.371          33.000  
C10  36177715.913   188386729.263        -490.630          31.000  
C13  37278342.166   194118034.152         420.634          39.000  
C30  21765480.097   113338449.897        -823.533          24.000  
C32  22406576.075   116676723.675        -959.879          33.000  
C40  36619055.980   190684777.048        -900.080          29.000  
E08  25283600.053   132866179.144          54.825          25.000  
E13  24303449.897   127715425.056        -905.922          29.000  
E26  24053567.487   126402239.455        1118.546          35.000  
G05  22271871.229   117039236.335        2762.867          34.000  
G06  21766112.059   114381506.034       -1571.580          26.000  
G09  22584829.373   118683911.950       -1679.130          28.000  
G12  23344383.245   122675501.935       -2172.549          31.000  
G19  22840489.083   120027387.949       -3554.018          31.000  
G20  20486200.324   107655530.807         867.921          31.000  
G25  23583619.125   123932735.599        -791.767          33.000  
J03  38955644.394   204713196.801         581.057          27.000  
> 2025 05 23 06 14 08.9995225  0 18                     
C03  37183641.626   193624960.538         129.559          32.000  
C08  36547730.857   190313365.720         241.759          33.000  
C10  36177836.730   188387362.200        -492.465          31.000  
C13  37278290.302   194117755.126         421.705          39.000  
C30  21765667.467   113339413.913        -822.413          26.000  
C32  22406792.226   116677827.081        -963.239          31.000  
C40  36619257.441   190686082.158        -896.937          28.000  
E08  25283622.238   132866267.052          54.503          22.000  
E13  24303649.259   127716471.758        -905.773          27.000  
E26  24053380.416   126401264.963        1118.314          34.000  
G05  22271374.473   117036617.304        2760.796          35.000  
G06  21766439.133   114383219.883       -1569.809          24.000  
G09  22585177.132   118685733.090       -1679.795          24.000  
G12  23344826.338   122677818.406       -2172.225          32.000  
G19  22841192.397   120031083.048       -3552.242          33.000  
G20  20486063.618   107654805.767         869.207          31.000  
G25  23583798.101   123933671.382        -794.631          29.000  
J03  38955561.651   204712760.177         580.130          25.000  
> 2025 05 23 06 14 08.9995225  0 18                     
C03  37183641.626   193624960.538         129.559          32.000  
C08  36547730.857   190313365.720         241.759          33.000  
C10  36177836.730   188387362.200        -492.465          31.000  
C13  37278290.302   194117755.126         421.705          39.000  
C30  21765667.467   113339413.913        -822.413          26.000  
C32  22406792.226   116677827.081        -963.239          31.000  
C40  36619257.441   190686082.158        -896.937          28.000  
E08  25283622.238   132866267.052          54.503          22.000  
E13  24303649.259   127716471.758        -905.773          27.000  
E26  24053380.416   126401264.963        1118.314          34.000  
G05  22271374.473   117036617.304        2760.796          35.000  
G06  21766439.133   114383219.883       -1569.809          24.000  
G09  22585177.132   118685733.090       -1679.795          24.000  
G12  23344826.338   122677818.406       -2172.225          32.000  
G19  22841192.397   120031083.048       -3552.242          33.000  
G20  20486063.618   107654805.767         869.207          31.000  
G25  23583798.101   123933671.382        -794.631          29.000  
J03  38955561.651   204712760.177         580.130          25.000  
> 2025 05 23 06 14 09.9994614  0 18                     
C03  37183612.621   193624811.641         137.647          33.000  
C08  36547681.467   190313110.309         239.463          32.000  
C10  36177924.944   188387838.607        -490.104          31.000  
C13  37278208.233   194117320.399         419.674          39.000  
C30  21765821.935   113340219.828        -821.089          26.000  
C32  22406976.373   116678774.562        -964.579          29.000  
C40  36619427.498   190686960.582        -893.581          27.000  
E08  25283601.927   132866196.2581         55.519          20.000  
E13  24303824.712   127717361.743        -905.531          25.000  
E26  24053168.838   126400134.015        1115.726          35.000  
G05  22270848.113   117033841.479        2761.181          35.000  
G06  21766735.103   114384772.116       -1568.860          24.000  
G09  22585491.689   118687397.283       -1679.785          24.000  
G12  23345235.330   122679974.608       -2173.485          32.000  
G19  22841866.705   120034616.702       -3547.927          35.000  
G20  20485896.409   107653921.507         869.531          30.000  
G25  23583949.272   123934450.577        -797.147          24.000  
J03  38955450.503   204712165.733         577.090          26.000  
> 2025 05 23 06 14 12.0003393  0 18                     
C03  37183606.175   193624749.826         143.909          33.000  
C08  36547636.348   190313133.231         233.769          24.000  
C10  36178161.930   188389039.776        -490.379          26.000  
C13  37278093.563   194116704.711         418.113          30.000  
C30  21766182.435   113342084.396        -822.076          27.000  
C32  22407391.436   116680919.164        -959.054          26.000  
C40  36619816.179   190688962.857        -903.159          26.000  
E08  25283633.255   132866304.0631         55.119          17.000  
E13  24304213.393   127719394.966        -904.956          20.000  
E26  24052793.348   126398127.248        1113.372          24.000  
G05  22269844.258   117028820.740        2754.660          25.000  
G06  21767379.507   114388134.611       -1569.443          22.000  
G09  22586178.664   118690981.867       -1680.431          22.000  
G12  23345888.128   122683469.201       -2156.481          20.000  
G19  22843261.189   120041939.925       -3548.046          33.000  
G20  20485617.452   107652416.990         862.041          23.000  
G25  23584299.279   123936268.208        -797.733          20.000  
J03  38955277.672   204711243.517         570.779          26.000  
> 2025 05 23 06 14 13.0002783  0 18                     
C03  37183605.051   193624748.966         146.031          30.000  
C08  36547619.035   190313045.1591        230.985          18.000  
C10  36178285.519   188389671.969        -491.057          23.000  
C13  37278043.872   194116431.253         417.374          23.000  
C30  21766371.080   113343048.943        -822.781          25.000  
C32  22407603.464   116682022.294        -960.683          24.000  
C40  36620019.513   190690010.201        -904.138          21.000  
E08  25283654.915   132866393.6151         52.249          16.000  
E13  24304420.925   127720444.1111       -904.990          18.000  
E26  24052607.851   126397159.2951       1113.691          19.000  
G05  22269347.576   117026211.5891       2755.363          20.000  
G06  21767707.854   114389849.5271      -1569.300          18.000  
G09  22586529.496   118692807.3271      -1681.134          17.000  
G12  23346325.300   122685771.8201      -2156.470          16.000  
G19  22843964.577   120045632.802       -3546.576          32.000  
G20  20485486.218   107651700.3521        862.427          18.000  
G25  23584483.427   123937210.169        -798.543          20.000  
J03  38955200.401   204710820.242         567.095          21.000  
> 2025 05 23 06 14 14.0002173  0 18                     
C03  37183624.612   193624740.835         148.570          21.000  
C08  36547602.022   190312955.0631        228.264          14.000  
C10  36178408.509   188390302.5671       -491.983          15.000  
C13  37277992.982   194116153.4501        417.212          18.000  
C30  21766558.525   113344016.503        -829.395          22.000  
C32  22407602.040   116682263.488        -972.584          21.000  
C40  36620221.348   190691053.796        -905.259          20.000  
E08  25283672.078   132866481.5641         48.436          15.000  
E13  24304625.458   127721488.6961       -904.804          12.000  
E26  24052422.654   126396186.5751       1113.418          15.000  
G05  22268851.495   117023596.3571       2756.971          15.000  
G06  21768034.703   114391557.8311      -1569.363          16.000  
G09  22586876.731   118694633.7451      -1687.532          13.000  
G12  23346759.775   122688068.1401      -2156.434          12.000  
G19  22844667.666   120049319.407       -3546.262          28.000  
G20  20485356.183   107651272.8101        862.117          12.000  
G25  23584664.277   123938150.507        -800.674          22.000  
J03  38955121.331   204710395.3781        564.322          13.000  
> 2025 05 23 06 14 20.9997901  0 14                     
C03  37183980.354   193626743.0861        158.488          17.000  
C08  36547422.933   190312015.641         234.038          28.000  
C10  36179211.840   188394390.6041       -490.337          14.000  
C13  37277568.064   194113903.134         414.514          37.000  
C40  36621574.799   190698020.6211       -878.512          10.000  
E13  24306053.257   127729171.9681       -895.464          10.000  
E26  24051082.470   126389097.187        1102.832          36.000  
G05  22265324.924   117004962.714        2751.687          34.000  
G09  22589322.625   118707691.1361      -1688.479          11.000  
G12  23349997.121   122705062.3901      -2170.476          13.000  
G19  22849526.889   120075073.9291      -3518.398          10.000  
G20  20484339.175   107645928.178         857.036          30.000  
G25  23585874.726   123944486.648        -823.013          38.000  
J03  38954514.438   204707354.544         588.579          24.000  
> 2025 05 23 06 14 20.9997901  0 14                     
C03  37183980.354   193626743.0861        158.488          17.000  
C08  36547422.933   190312015.641         234.038          28.000  
C10  36179211.840   188394390.6041       -490.337          14.000  
C13  37277568.064   194113903.134         414.514          37.000  
C40  36621574.799   190698020.6211       -878.512          10.000  
E13  24306053.257   127729171.9681       -895.464          10.000  
E26  24051082.470   126389097.187        1102.832          36.000  
G05  22265324.924   117004962.714        2751.687          34.000  
G09  22589322.625   118707691.1361      -1688.479          11.000  
G12  23349997.121   122705062.3901      -2170.476          13.000  
G19  22849526.889   120075073.9291      -3518.398          10.000  
G20  20484339.175   107645928.178         857.036          30.000  
G25  23585874.726   123944486.648        -823.013          38.000  
J03  38954514.438   204707354.544         588.579          24.000  
> 2025 05 23 06 14 21.9997291  0 13                     
C03  37184005.274   193626725.8771        159.975          13.000  
C08  36547403.184   190311925.999         231.046          29.000  
C10  36179330.296   188395025.5461       -492.265          20.000  
C13  37277518.936   194113634.352         409.393          40.000  
C30  21768468.728   113354128.1561       -814.368           8.000  
C40  36621775.397   190699047.3871       -884.920          11.000  
E13  24306250.258   127730211.7681       -896.186           8.000  
E26  24050906.229   126388140.604        1100.492          36.000  
G05  22264828.205   117002356.882        2748.276          33.000  
G12  23350439.352   122707377.2111      -2171.193          12.000  
G20  20484202.507   107645217.381         851.682          28.000  
G25  23586060.335   123945455.503        -827.318          38.000  
J03  38954427.536   204706910.230         585.545          23.000  
> 2025 05 23 06 14 22.9996681  0 13                     
C08  36547384.934   190311835.406         231.160          30.000  
C10  36179455.946   188395920.939        -492.801          21.000  
C13  37277468.008   194113365.037         411.592          41.000  
C40  36621979.294   190700077.3531       -889.282          13.000  
E08  25283983.225   132868228.4571         62.429          10.000  
E13  24306445.161   127731249.1681       -896.667           7.000  
E26  24050723.693   126387182.840        1100.437          35.000  
G05  22264332.086   116999751.072        2748.532          35.000  
G12  23350893.875   122709706.993       -2189.235          25.000  
G19  22850969.565   120082655.0911      -3529.502          11.000  
G20  20484066.738   107644505.117         856.244          31.000  
G25  23586246.244   123946422.350        -826.165          38.000  
J03  38954344.831   204706467.628         581.522          22.000  
> 2025 05 23 06 14 23.9996070  0 13                     
C03  37183527.854   193624386.2901        165.329          19.000  
C08  36547338.279   190311590.468         232.250          30.000  
C10  36179546.896   188396399.6981       -492.551          20.000  
C13  37277388.676   194112940.690         410.680          40.000  
C32  22410015.144   116694829.1251       -962.829           5.000  
E13  24306609.559   127732132.4701       -897.431           9.000  
E26  24050510.653   126386069.916        1100.069          35.000  
G05  22263806.363   116996988.173        2749.256          36.000  
G12  23351311.898   122711881.271       -2188.598          26.000  
G19  22851639.114   120086172.0401      -3529.458          14.000  
G20  20483899.866   107643634.672         855.222          35.000  
G25  23586402.548   123947232.344        -825.125          38.000  
J03  38954230.722   204705872.418         580.682          22.000  
> 2025 05 23 06 14 24.9995460  0 15                     
C03  37183560.682   193624363.839         165.590          20.000  
C08  36547323.739   190311500.639         234.078          30.000  
C10  36179664.265   188397032.9281       -491.936          19.000  
C13  37277336.962   194112670.902         413.052          39.000  
C32  22410223.650   116695915.1361       -962.787           4.000  
C40  36622358.494   190702230.2911       -886.599          14.000  
E08  25283950.510   132868056.5771         62.945          13.000  
E13  24306803.975   127733174.7931       -898.079           9.000  
E26  24050329.428   126385112.162        1102.529          35.000  
G05  22263310.356   116994381.757        2752.874          36.000  
G12  23351760.238   122714213.564       -2187.236          26.000  
G19  22852338.680   120089845.0681      -3528.665          14.000  
G20  20483765.409   107642921.711         856.731          35.000  
G25  23586587.370   123948199.666        -823.794          39.000  
J03  38954146.331   204705434.785         581.322          23.000  
> 2025 05 23 06 14 25.9994850  0 15                     
C03  37183876.850   193626204.3831        161.259           5.000  
C08  36547305.639   190311406.176         235.513          30.000  
C10  36179787.966   188397662.7691       -490.282          19.000  
C13  37277286.784   194112398.787         413.321          39.000  
C30  21768723.739   113355456.4711       -810.598          21.000  
C40  36622560.741   190703256.1031       -885.016          17.000  
E08  25283961.190   132868135.0031         62.922           9.000  
E13  24306997.528   127734213.6671       -898.523          10.000  
E26  24050147.942   126384150.821        1102.657          35.000  
G05  22262814.687   116991770.706        2751.903          37.000  
G12  23352207.416   122716543.248       -2186.731          27.000  
G19  22853043.080   120093513.9201      -3528.263          16.000  
G20  20483628.592   107642205.337         855.502          36.000  
G25  23586772.230   123949163.692        -822.792          39.000  
J03  38954062.576   204704993.491         582.500          22.000  
> 2025 05 23 06 14 27.0004239  0 16                     
C03  37183896.711   193626120.4641        164.819          18.000  
C08  36547277.234   190311252.033         235.480          30.000  
C10  36179904.661   188398235.0871       -489.502          20.000  
C13  37277223.303   194112066.092         414.756          40.000  
C30  21768896.494   113356350.2171       -813.449          20.000  
C32  22410511.113   116697412.0591       -962.099          17.000  
C40  36622754.482   190704222.8981       -883.870          17.000  
E08  25283960.366   132868154.7761         62.499          12.000  
E13  24307181.976   127735196.3681       -898.812          10.000  
E26  24049957.049   126383128.886        1103.288          35.000  
G05  22262307.813   116989099.860        2750.466          36.000  
G12  23352644.288   122718814.182       -2187.678          25.000  
G19  22853730.879   120097128.8421      -3527.267          15.000  
G20  20483482.368   107641430.328         856.568          34.000  
G25  23586944.985   123950070.708        -823.663          38.000  
J03  38953964.619   204704490.746         585.261          22.000  
> 2025 05 23 06 14 28.0003629  0 16                     
C03  37183927.927   193626470.3191        165.299          11.000  
C08  36547257.185   190311161.639         233.887          29.000  
C10  36180028.213   188398866.1951       -489.567          19.000  
C13  37277172.975   194111796.650         413.687          40.000  
C30  21769082.103   113357306.2011       -815.682          18.000  
C32  22410723.104   116698517.7891       -961.743          17.000  
C40  36622952.383   190705250.5051       -884.114          16.000  
E08  25283973.295   132868237.5861         62.427          13.000  
E13  24307377.778   127736240.3541       -899.296          10.000  
E26  24049772.714   126382171.268        1102.771          36.000  
G05  22261812.893   116986494.338        2750.632          37.000  
G12  23353090.417   122721146.514       -2187.099          24.000  
G19  22854429.433   120100799.0241      -3526.486          14.000  
G20  20483346.899   107640717.891         857.223          32.000  
G25  23587130.594   123951038.077        -825.416          37.000  
J03  38953881.014   204704049.049         587.049          22.000  
> 2025 05 23 06 14 29.0003019  0 16                     
C03  37183515.188   193624321.139         165.106          23.000  
C08  36547241.671   190311067.406         233.559          29.000  
C10  36180145.207   188399494.5341       -490.192          20.000  
C13  37277121.786   194111523.503         411.501          40.000  
C30  21769252.760   113358263.3891       -818.144          18.000  
C32  22410936.631   116699618.0021       -962.770          18.000  
C40  36623153.019   190706275.2271       -885.008          16.000  
E08  25283989.858   132868316.0041         62.152          13.000  
E13  24307567.621   127737279.7861       -897.757          17.000  
E26  24049591.714   126381209.009        1103.217          36.000  
G05  22261318.910   116983885.535        2750.470          37.000  
G12  23353537.183   122723473.686       -2187.806          24.000  
G19  22855126.225   120104467.3331      -3526.528          16.000  
G20  20483211.468   107640002.464         853.071          31.000  
G25  23587314.742   123952003.648        -825.765          38.000  
J03  38953798.347   204703601.150         587.580          22.000  
> 2025 05 23 06 14 30.0002408  0 16                     
C03  37183513.614   193624144.345         163.681          23.000  
C08  36547196.927   190310820.973         233.862          29.000  
C10  36180236.568   188399972.0741       -490.628          20.000  
C13  37277041.066   194111098.937         410.882          39.000  
C30  21769411.875   113359068.427        -819.602          20.000  
C32  22411117.931   116700566.8981       -963.767          19.000  
C40  36623317.230   190707147.7931       -886.235          16.000  
E08  25283972.695   132868241.3981         61.489          14.000  
E13  24307727.635   127738164.7901       -898.311          16.000  
E26  24049381.485   126380094.180        1102.118          36.000  
G05  22260795.097   116981122.771        2750.603          37.000  
G12  23353951.121   122725649.718       -2190.130          24.000  
G19  22855792.889   120107981.8061      -3528.549          20.000  
G20  20483047.107   107639134.330         854.262          33.000  
G25  23587469.660   123952815.787        -825.780          37.000  
J03  38953684.350   204702999.856         587.340          24.000  
> 2025 05 23 06 14 31.0001798  0 16                     
C03  37183460.551   193624036.7181        156.213           5.000  
C08  36547181.038   190310730.595         233.983          29.000  
C10  36180366.978   188400606.0471       -490.512          20.000  
C13  37276990.102   194110829.842         412.187          40.000  
C30  21769602.843   113360029.226        -819.791          20.000  
C32  22411326.287   116701673.1661       -964.647          19.000  
C40  36623513.594   190708179.1201       -886.142          16.000  
E08  25283985.886   132868325.4581         59.679          14.000  
E13  24307917.404   127739208.9231       -899.119          16.000  
E26  24049202.509   126379412.112        1102.554          36.000  
G05  22260300.440   116978519.033        2748.436          36.000  
G12  23354396.912   122727984.684       -2189.652          25.000  
G19  22856492.604   120111656.275       -3528.595          21.000  
G20  20482912.800   107638424.822         852.556          33.000  
G25  23587656.730   123953786.786        -826.769          38.000  
J03  38953601.308   204702556.866         586.033          23.000  
> 2025 05 23 06 14 32.0001188  0 16                     
C03  37183481.986   193624019.349         155.599          22.000  
C08  36547163.500   190310637.815         232.532          30.000  
C10  36180493.640   188401235.361        -491.907          21.000  
C13  37276940.786   194110558.713         412.842          40.000  
C30  21769787.665   113360987.877        -819.848          23.000  
C32  22411541.688   116702778.8051       -965.657          20.000  
C40  36623713.106   190709204.0901       -886.748          16.000  
E08  25283995.329   132868407.0951         59.363          14.000  
E13  24308109.421   127739977.5971       -899.807          16.000  
E26  24049015.888   126378451.540        1101.645          36.000  
G05  22259805.332   116975911.059        2748.833          36.000  
G12  23354845.252   122730315.907       -2190.561          24.000  
G19  22857192.770   120115326.307       -3529.355          21.000  
G20  20482779.242   107637713.665         851.899          33.000  
G25  23587843.950   123954755.124        -828.025          39.000  
J03  38953518.715   204702111.486         585.078          24.000  
> 2025 05 23 06 14 33.0000578  0 16                     
C03  37183515.113   193624320.486         156.598          22.000  
C08  36547151.359   190310549.585         233.912          32.000  
C10  36180615.206   188401870.710        -491.860          25.000  
C13  37276889.671   194110291.190         411.987          40.000  
C30  21769974.285   113361951.431        -820.109          23.000  
C32  22411762.185   116703886.4121       -965.890          19.000  
C40  36623909.320   190710235.685        -885.769          21.000  
E08  25284009.869   132868493.9411         58.513          14.000  
E13  24308304.436   127741023.6441       -896.512          16.000  
E26  24048836.162   126377495.766        1101.862          36.000  
G05  22259311.125   116973308.584        2748.570          34.000  
G12  23355294.791   122732652.669       -2191.175          25.000  
G19  22857895.333   120119000.744       -3529.946          24.000  
G20  20482646.884   107637005.183         853.452          34.000  
G25  23588029.672   123955727.519        -828.989          38.000  
J03  38953435.823   204701672.095         583.680          23.000  
> 2025 05 23 06 14 33.9999967  0 16                     
C03  37182998.796   193621631.8491        151.377          15.000  
C08  36547106.615   190310301.962         233.922          32.000  
C10  36180706.868   188402347.250        -491.166          28.000  
C13  37276808.652   194109864.978         413.725          39.000  
C30  21770131.002   113362757.287        -821.039          23.000  
C32  22411947.681   116704836.9131       -966.377          19.000  
C40  36624072.332   190711107.554        -885.170          22.000  
E08  25283997.203   132868421.2991         57.958          14.000  
E13  24308474.044   127741906.2411       -897.275          13.000  
E26  24048624.734   126376380.028        1101.575          35.000  
G05  22258784.014   116970546.248        2747.485          37.000  
G12  23355712.926   122735098.887       -2190.761          30.000  
G19  22858556.001   120122516.124       -3529.938          25.000  
G20  20482483.722   107636136.499         853.376          31.000  
G25  23588184.889   123956541.078        -828.067          37.000  
J03  38953323.625   204701073.410         582.847          22.000  
> 2025 05 23 06 14 34.9999357  0 17                     
C03  37183025.102   193621623.9731        148.522          14.000  
C08  36547087.952   190310209.643         234.629          32.000  
C10  36180829.708   188402979.892        -492.183          29.000  
C13  37276758.212   194109861.764         412.995          39.000  
C30  21770312.601   113363718.938        -820.675          24.000  
C32  22412158.660   116705944.776        -966.959          24.000  
C40  36624267.422   190712134.098        -885.117          20.000  
E08  25284013.317   132868506.7211         56.958          14.000  
E13  24308672.131   127742947.4561       -899.407          15.000  
E26  24048445.982   126375420.490        1102.451          35.000  
G05  22258289.282   116967941.321        2749.115          34.000  
G06  21774829.874   114427503.0511      -1553.947           7.000  
G12  23356159.842   122737433.340       -2190.536          30.000  
G19  22859256.841   120126189.494       -3528.768          25.000  
G20  20482349.939   107635425.694         853.541          34.000  
G25  23588369.187   123957509.934        -826.983          35.000  
J03  38953241.707   204700632.178         583.817          22.000  
> 2025 05 23 06 14 35.9998747  0 17                     
C03  37183485.584   193624166.3031        163.652          15.000  
C08  36547071.764   190310116.968         235.770          33.000  
C10  36180949.025   188403612.695        -491.423          31.000  
C13  37276706.648   194109590.248         413.288          39.000  
C30  21770498.173   113364680.871        -820.765          22.000  
C32  22412359.821   116707054.076        -967.902          30.000  
C40  36624461.688   190713161.3041       -884.303          20.000  
E08  25284028.007   132868593.7731         55.144          14.000  
E13  24308867.596   127743990.285        -901.549          23.000  
E26  24048263.409   126374460.007        1104.317          35.000  
G05  22257794.624   116965336.703        2747.910          33.000  
G06  21775151.551   114429200.1591      -1554.593           9.000  
G12  23356605.633   122739767.968       -2190.296          31.000  
G19  22859960.753   120129860.369       -3527.718          22.000  
G20  20482215.033   107634714.902         853.521          33.000  
G25  23588555.658   123958479.083        -826.455          34.000  
J03  38953158.964   204700190.074         584.939          23.000  
> 2025 05 23 06 14 36.9998137  0 18                     
C03  37183501.473   193624139.599         170.088          23.000  
C08  36547055.275   190310023.422         234.347          31.000  
C10  36181071.640   188404246.449        -492.077          31.000  
C13  37276657.482   194109318.765         413.366          39.000  
C30  21770671.453   113365643.751        -823.579          31.000  
C32  22412570.575   116708163.865        -968.763          35.000  
C40  36624658.651   190714187.2291       -884.080          19.000  
E08  25284046.594   132868682.2131         54.799          14.000  
E13  24309057.065   127745037.377        -904.481          27.000  
E26  24048082.634   126373498.186        1105.380          37.000  
G05  22257298.768   116962731.560        2749.351          36.000  
G06  21775472.629   114430904.6351      -1561.611          17.000  
G09  22594752.054   118736223.4101      -1685.508          32.000  
G12  23357052.024   122742101.146       -2190.719          28.000  
G19  22860660.769   120133530.5211      -3527.244          20.000  
G20  20482082.824   107634004.545         851.472          32.000  
G25  23588742.428   123959447.755        -824.311          33.000  
J03  38953076.221   204699748.006         584.057          25.000  
> 2025 05 23 06 14 37.9997526  0 18                     
C03  37183447.585   193623956.687         167.380          28.000  
C08  36547009.782   190309776.357         235.255          33.000  
C10  36181167.649   188404725.678        -494.015          30.000  
C13  37276576.013   194108891.720         417.229          39.000  
C30  21770825.021   113366455.634        -826.802          33.000  
C32  22412751.425   116709118.973        -970.724          36.000  
C40  36624821.514   190715058.236        -886.115          26.000  
E08  25284033.478   132868614.2201         53.511          14.000  
E13  24309225.923   127745927.197        -901.112          27.000  
E26  24047871.055   126372380.104        1104.890          37.000  
G05  22256774.805   116959969.197        2748.964          35.000  
G06  21775683.458   114431988.385       -1566.766          25.000  
G09  22595066.311   118737898.474       -1692.334          33.000  
G12  23357468.211   122744278.181       -2190.656          27.000  
G19  22861332.379   120137044.138       -3525.691          23.000  
G20  20481919.512   107633137.866         854.138          34.000  
G25  23588898.995   123960256.100        -824.240          31.000  
J03  38952961.476   204699149.551         584.011          26.000  
> 2025 05 23 06 14 38.9996916  0 18                     
C03  37183402.204   193623934.765         159.555          32.000  
C08  36546996.179   190309682.024         237.028          33.000  
C10  36181290.451   188405358.426        -493.557          31.000  
C13  37276524.936   194108616.783         416.417          40.000  
C30  21771013.179   113367420.773        -825.978          32.000  
C32  22412965.964   116710231.146        -971.681          34.000  
C40  36625018.665   190716086.868        -889.658          27.000  
E08  25284044.758   132868705.0611         49.903          18.000  
E13  24309427.271   127746973.200        -903.559          28.000  
E26  24047688.669   126371415.193        1107.450          37.000  
G05  22256279.736   116957361.644        2750.830          34.000  
G06  21776022.711   114433698.225       -1567.913          26.000  
G09  22595413.059   118739733.672       -1693.037          32.000  
G12  23357912.091   122746609.743       -2188.187          28.000  
G19  22862034.380   120140709.436       -3520.736          26.000  
G20  20481784.493   107632423.773         856.829          34.000  
G25  23589084.154   123961224.811        -826.489          29.000  
J03  38952876.822   204698707.221         585.259          27.000  
> 2025 05 23 06 14 39.9996306  0 18                     
C03  37183400.592   193623923.602         148.823          31.000  
C08  36546977.479   190309588.369         236.831          33.000  
C10  36181413.254   188405995.334        -493.350          32.000  
C13  37276474.759   194108343.870         416.000          39.000  
C30  21771199.837   113368389.601        -827.394          31.000  
C32  22413181.103   116711344.002        -971.002          30.000  
C40  36625215.216   190717121.119        -891.849          27.000  
E08  25284059.335   132868800.4511         48.411          18.000  
E13  24309622.923   127748022.482        -904.842          28.000  
E26  24047503.884   126370450.647        1108.683          37.000  
G05  22255784.066   116954755.088        2750.852          34.000  
G06  21776343.976   114435413.001       -1571.303          25.000  
G09  22595760.106   118741568.425       -1691.808          32.000  
G12  23358356.571   122748941.003       -2186.374          29.000  
G19  22862733.984   120144373.311       -3517.415          25.000  
G20  20481650.373   107631712.038         853.936          32.000  
G25  23589271.712   123962458.604        -830.369          27.000  
J03  38952793.367   204698265.808         584.329          25.000  
> 2025 05 23 06 14 40.9995696  0 18                     
C03  37183407.975   193623920.029         142.247          31.000  
C08  36546960.578   190309493.106         234.663          32.000  
C10  36181536.356   188406627.867        -491.191          32.000  
C13  37276422.482   194108070.081         414.199          39.000  
C30  21771389.793   113369356.328        -825.088          32.000  
C32  22413397.740   116712455.564        -969.257          30.000  
C40  36625411.468   190718154.050        -892.928          29.000  
E08  25284078.109   132868895.7101         46.746          12.000  
E13  24309824.871   127749068.678        -901.753          29.000  
E26  24047321.498   126369484.891        1108.364          35.000  
G05  22255291.095   116952147.874        2750.210          34.000  
G06  21776669.138   114437127.764       -1572.412          24.000  
G09  22596107.153   118743402.485       -1691.324          32.000  
G12  23358800.451   122751269.665       -2186.325          28.000  
G19  22863433.287   120148032.591       -3517.386          24.000  
G20  20481517.153   107631000.944         852.526          31.000  
G25  23589459.869   123963432.122        -833.927          25.000  
J03  38952708.114   204697824.750         581.707          29.000  
