     3.04           OBSERVATION DATA    M: Mixed            RINEX VERSION / TYPE
RTKCONV demo5 b34k                      20250428 012716 UTC PGM / RUN BY / DATE 
format: RINEX                                               COMMENT             
log: E:\Proj-ES\GNSS-SPP\RTKLIB-py\data\unisoc\20250425\��óCOMMENT             
  \rover.obs                                                COMMENT             
Geo++                                                       MARKER NAME         
                                                            MARKER NUMBER       
                                                            MARKER TYPE         
                                                            OBSERVER / AGENCY   
unknown             UNISOC              uis7865_6h10_go_a32bREC # / TYPE / VERS 
unknown             uis7865_6h10_go_a32b                    ANT # / TYPE        
 -2182294.6318  4386257.7022  4070355.8960                  APPROX POSITION XYZ 
        0.0000        0.0000        0.0000                  ANTENNA: DELTA H/E/N
G    4 C1C L1C D1C S1C                                      SYS / # / OBS TYPES 
E    4 C1C L1C D1C S1C                                      SYS / # / OBS TYPES 
J    4 C1C L1C D1C S1C                                      SYS / # / OBS TYPES 
C    4 C2I L2I D2I S2I                                      SYS / # / OBS TYPES 
  2025    04    24    04    43   53.3164873     GPS         TIME OF FIRST OBS   
  2025    04    24    05    24   44.9997528     GPS         TIME OF LAST OBS    
G L1C                                                       SYS / PHASE SHIFT   
E L1C  0.00000                                              SYS / PHASE SHIFT   
J L1C                                                       SYS / PHASE SHIFT   
C L2I                                                       SYS / PHASE SHIFT   
 24 R01  1 R02 -4 R03  5 R04  6 R05  1 R06 -4 R07  5 R08  6 GLONASS SLOT / FRQ #
    R09 -2 R10 -5 R11  0 R12 -1 R13 -2 R14 -7 R15  0 R16 -1 GLONASS SLOT / FRQ #
    R17  4 R18 -3 R19  3 R20  2 R21  4 R22 -3 R23  3 R24  2 GLONASS SLOT / FRQ #
 C1C    0.000 C1P    0.000 C2C    0.000 C2P    0.000        GLONASS COD/PHS/BIS 
                                                            END OF HEADER       
> 2025 04 24 04 43 53.3164873  0 22                     
C07  35714005.521   185972198.1641        198.144          32.000  
C09  39940818.959   207982325.4721      -1873.705          25.000  
C10  36412089.947   189607306.6431        431.896          20.000  
C27  24584354.718   128017185.8771      -2252.989          23.000  
C29  23254932.258   121094534.5551       1829.153          42.000  
C36  23330400.512   121487517.0011      -2018.188          29.000  
C38  37491371.876   195227411.6771       1528.218          29.000  
C40  35997666.147   187449294.0231        165.190          35.000  
C45  24068586.976   125331447.5381        604.281          33.000  
E02  23377079.697   122847382.6411       -144.139          39.000  
E16  27406421.941   144021719.2691      -3004.289          17.000  
E25  25334788.304   133135211.0181      -2565.366          22.000  
E34  25302010.495   132962962.2561       1940.806          25.000  
E36  23418954.108   123067434.8301       -326.663          32.000  
G01  23475925.168   123366818.9911      -3075.936          12.000  
G06  21795935.001   114538411.3241       2102.744          40.000  
G14  20884428.024   109748409.5601      -2287.505          36.000  
G17  20679822.669   108673201.2401        -23.032          19.000  
G19  20726023.385   108915987.1641       1746.476          24.000  
G22  20802435.986   109317538.7371       -747.241          39.000  
J02  37691062.433   198067869.6861        486.435          33.000  
J03  39133201.161   205646359.8261       -288.345          24.000  
> 2025 04 24 04 43 54.3164262  0 22                     
C07  35713964.712   185971984.752         199.476          33.000  
C09  39941175.674   207984184.662       -1873.339          25.000  
C10  36412013.762   189606860.6411        431.908          19.000  
C27  24584798.373   128019424.100       -2252.295          27.000  
C29  23254582.662   121092692.077        1827.758          42.000  
C36  23330783.010   121489518.657       -2018.373          29.000  
C38  37491069.348   195225868.870        1528.592          29.000  
C40  35997633.432   187449114.627         165.221          34.000  
C45  24068469.720   125330829.279         603.486          34.000  
E02  23377101.844   122847512.107        -145.040          40.000  
E16  27406992.709   144024708.2881      -3003.872          12.000  
E25  25335260.439   133137759.307       -2564.751          23.000  
E34  25301649.508   132961005.708        1941.850          23.000  
E36  23419014.629   123067745.170        -326.446          33.000  
G01  23476516.321   123369879.4011      -3076.912          12.000  
G06  21795530.543   114536294.117        2102.178          39.000  
G14  20884861.486   109750682.072       -2289.776          37.000  
G17  20679824.730   108673208.9761        -22.643          19.000  
G19  20725689.379   108914226.252        1747.088          25.000  
G22  20802575.052   109318272.099        -748.072          39.000  
J02  37690970.359   198067369.174         485.842          32.000  
J03  39133261.682   205646633.243        -287.005          28.000  
> 2025 04 24 04 43 55.3163652  0 23                     
C07  35713953.732   185971930.615         194.291          32.000  
C09  39941564.618   207986199.214       -1873.059          26.000  
C10  36411958.713   189606571.4691        431.803          19.000  
C13  39690648.823   206679623.6471       1695.458          24.000  
C27  24585268.860   128021816.782       -2253.638          24.000  
C29  23254261.397   121091008.275        1826.226          41.000  
C36  23331201.033   121491680.541       -2021.315          28.000  
C38  37490809.240   195224483.736        1527.284          32.000  
C40  35997629.647   187449093.997         161.795          32.000  
C45  24068380.195   125330370.110         599.942          33.000  
E02  23377153.221   122847801.793        -147.060          40.000  
E16  27407604.698   144027855.1911      -3004.318          14.000  
E25  25335693.452   133139967.793       -2566.752          26.000  
E34  25301312.653   132959206.666        1941.475          21.000  
E36  23419103.779   123068216.813        -330.032          33.000  
G01  23477129.509   123373100.6431      -3078.520          12.000  
G06  21795158.913   114534336.824        2100.673          39.000  
G14  20885325.677   109753113.470       -2289.982          36.000  
G17  20679861.417   108673374.4901        -23.807          20.000  
G19  20725383.403   108912623.511        1748.458          29.000  
G22  20802745.447   109319162.871        -748.819          38.000  
J02  37690906.616   198067027.121         486.391          33.000  
J03  39133349.034   205647061.428        -286.312          26.000  
> 2025 04 24 04 43 56.3163041  0 23                     
C07  35713916.782   185971723.562         195.141          33.000  
C09  39941922.195   207988058.328       -1873.147          26.000  
C10  36411870.199   189606126.769         431.674          21.000  
C13  39690332.767   206677915.639        1695.054          25.000  
C27  24585703.184   128024058.691       -2255.702          24.000  
C29  23253910.265   121089169.674        1825.048          40.000  
C36  23331585.592   121493690.840       -2023.947          26.000  
C38  37490514.769   195222945.578        1525.472          32.000  
C40  35997592.698   187448918.867         163.452          32.000  
C45  24068264.100   125329757.815         599.841          35.000  
E02  23377178.928   122847936.328        -147.199          39.000  
E16  27408188.618   144030844.7571      -3004.688          14.000  
E25  25336193.131   133142522.556       -2567.586          27.000  
E34  25300937.238   132957252.4831       1939.716          18.000  
E36  23419166.361   123068534.099        -330.266          35.000  
G01  23477708.033   123376166.2261      -3078.212          12.000  
G06  21794759.215   114532223.071        2100.263          38.000  
G14  20885761.501   109755390.591       -2291.144          34.000  
G17  20679867.338   108673386.0761        -24.949          19.000  
G19  20725047.860   108910863.918        1746.200          35.000  
G22  20802885.674   109319899.072        -749.038          37.000  
J02  37690811.507   198066528.477         485.438          33.000  
J03  39133402.622   205647335.538        -289.263          23.000  
> 2025 04 24 04 43 57.3162430  0 23                     
C07  35713877.247   185971513.443         195.985          34.000  
C09  39942281.684   207989917.696       -1874.332          26.000  
C10  36411780.299   189605681.456         431.451          23.000  
C27  24586135.523   128026300.285       -2256.283          26.000  
C29  23253558.646   121087330.871        1824.694          40.000  
C36  23331978.357   121495699.360       -2021.530          26.000  
C38  37490216.813   195221406.577        1524.657          32.000  
C40  35997555.561   187448742.768         161.627          31.000  
C45  24068145.420   125329145.230         597.383          34.000  
E02  23377204.448   122848070.293        -149.059          38.000  
E16  27408773.851   144033835.2461      -3005.528          15.000  
E25  25336690.524   133145075.712       -2568.295          25.000  
E34  25300561.036   132955299.3891       1938.885          18.000  
E36  23419230.554   123068851.772        -330.707          35.000  
G01  23478285.471   123379227.5441      -3077.806          14.000  
G03  21511108.819   113041638.8651      -1341.421          23.000  
G06  21794359.329   114530108.596        2100.512          37.000  
G14  20886193.539   109757667.827       -2292.183          34.000  
G17  20679869.774   108673395.6371        -25.755          17.000  
G19  20724713.330   108909104.704        1745.335          35.000  
G22  20803026.914   109320632.420        -751.212          38.000  
J02  37690717.409   198066030.583         482.930          35.000  
J03  39133459.020   205647610.951        -289.961          23.000  
> 2025 04 24 04 43 58.3161819  0 24                     
C07  35713838.049   185971305.799         195.110          33.000  
C09  39942640.610   207991779.951       -1875.643          27.000  
C10  36411698.231   189605238.857         430.174          25.000  
C13  39689683.529   206674596.5601       1709.226          25.000  
C27  24586573.594   128028542.961       -2256.327          24.000  
C29  23253209.463   121085494.539        1823.985          40.000  
C36  23332370.861   121497709.103       -2024.318          26.000  
C38  37489928.488   195219870.380        1524.334          28.000  
C40  35997529.254   187448569.570         160.356          33.000  
C45  24068026.777   125328536.558         597.166          32.000  
E02  23377235.102   122848207.104        -149.322          40.000  
E16  27409359.420   144037155.8581      -3006.256          16.000  
E25  25337192.452   133147629.958       -2569.100          25.000  
E34  25300191.167   132953348.917        1937.972          23.000  
E36  23419288.489   123069170.521        -331.842          33.000  
G01  23478864.745   123382292.4351      -3077.785          16.000  
G03  21511359.221   113042951.382       -1327.098          25.000  
G06  21793963.378   114527997.353        2098.380          38.000  
G14  20886627.114   109759946.147       -2292.938          36.000  
G17  20679874.945   108673409.7591        -27.438          18.000  
G19  20724383.633   108907347.844        1743.665          32.000  
G22  20803169.690   109321371.420        -751.427          39.000  
J02  37690628.746   198065535.846         482.658          35.000  
J03  39133515.156   205647888.896        -291.558          24.000  
> 2025 04 24 04 43 59.3161208  0 23                     
C07  35713794.392   185971093.741         196.250          32.000  
C09  39942999.275   207993638.743       -1875.041          26.000  
C10  36411612.003   189604791.779         431.721          24.000  
C27  24587001.810   128030780.396       -2256.299          24.000  
C29  23252861.217   121083653.820        1826.508          38.000  
C36  23332755.007   121499717.630       -2025.721          24.000  
C38  37489652.491   195218328.861        1525.594          28.000  
C40  35997498.488   187448392.329         161.953          33.000  
C45  24067900.377   125327922.646         597.916          31.000  
E02  23377260.397   122848339.697        -149.316          41.000  
E16  27409939.032   144040142.9261      -3005.061          16.000  
E25  25337688.121   133150450.019       -2569.322          25.000  
E34  25299828.531   132951394.326        1937.848          24.000  
E36  23419350.359   123069484.447        -331.320          31.000  
G01  23479445.256   123385352.8051      -3078.107          17.000  
G03  21511606.962   113044265.448       -1332.268          26.000  
G06  21793564.767   114525882.009        2102.791          38.000  
G14  20887063.125   109762222.165       -2291.714          36.000  
G17  20679876.257   108673419.677         -28.192          20.000  
G19  20724049.177   108905586.853        1745.975          32.000  
G22  20803313.703   109322106.090        -749.520          40.000  
J02  37690537.421   198065034.930         485.873          35.000  
J03  39133573.728   205648162.973        -291.726          23.000  
> 2025 04 24 04 44 00.3160597  0 23                     
C07  35713755.344   185970885.604         197.300          32.000  
C09  39943355.653   207995499.875       -1873.625          26.000  
C10  36411530.385   189604348.262         432.577          23.000  
C27  24587439.432   128033024.352       -2255.563          24.000  
C29  23252509.185   121081816.692        1825.656          39.000  
C36  23333141.665   121501730.472       -2022.184          29.000  
C38  37489363.416   195216791.339        1526.633          27.000  
C40  35997462.738   187448218.256         162.803          32.000  
C45  24067774.089   125327311.778         598.336          28.000  
E02  23377287.303   122848476.157        -149.017          40.000  
E16  27410505.265   144043136.0141      -3005.099          16.000  
E25  25338172.211   133153006.712       -2569.044          24.000  
E34  25299448.019   132949445.235        1937.429          24.000  
E36  23419413.240   123069802.396        -329.986          30.000  
G01  23480024.680   123388418.6531      -3077.815          18.000  
G03  21511851.218   113045585.355       -1330.696          29.000  
G06  21793163.869   114523770.212        2098.902          40.000  
G14  20887499.847   109764501.646       -2293.090          36.000  
G17  20679883.077   108673435.3161        -27.321          19.000  
G19  20723713.334   108903830.411        1743.408          33.000  
G22  20803458.728   109322844.739        -752.607          40.000  
J02  37690449.507   198064539.061         483.496          37.000  
J03  39133633.012   205648442.7811       -291.510          19.000  
> 2025 04 24 04 44 01.3159986  0 24                     
C07  35713716.821   185970674.204         194.436          32.000  
C09  39943713.755   207997358.130       -1874.591          26.000  
C10  36411442.695   189603901.437         431.144          23.000  
C13  39688689.005   206669418.2121       1718.453          13.000  
C27  24587882.676   128035557.411       -2253.640          25.000  
C29  23252155.880   121079977.748        1822.599          39.000  
C36  23333526.448   121503739.084       -2025.277          30.000  
C38  37489071.269   195215249.692        1526.097          26.000  
C40  35997427.812   187448041.435         160.737          31.000  
C45  24067651.324   125326698.663         599.500          25.000  
E02  23377314.734   122848611.251        -150.978          40.000  
E16  27411068.724   144046124.6781      -3006.363          17.000  
E25  25338672.115   133155559.691       -2569.543          27.000  
E34  25299077.026   132947493.209        1936.840          24.000  
E36  23419472.149   123070116.679        -332.469          32.000  
G01  23480609.425   123391480.573       -3078.945          20.000  
G03  21512096.898   113046899.077       -1332.939          29.000  
G06  21792760.498   114521658.015        2095.973          39.000  
G14  20887937.394   109766779.428       -2296.322          36.000  
G17  20679888.923   108673447.7741        -28.032          19.000  
G19  20723380.115   108902072.596        1742.333          32.000  
G22  20803602.178   109323581.134        -754.478          39.000  
J02  37690360.919   198064041.669         481.585          38.000  
J03  39133685.026   205648717.408        -291.062          24.000  
> 2025 04 24 04 44 02.3159375  0 24                     
C07  35713679.197   185970467.696         193.612          33.000  
C09  39944073.056   207999220.380       -1876.278          25.000  
C10  36411358.603   189603458.352         429.229          23.000  
C13  39688367.477   206667686.8361       1718.668          14.000  
C27  24588316.026   128037798.721       -2259.159          25.000  
C29  23251807.071   121078142.407        1822.131          39.000  
C36  23333917.228   121505749.881       -2025.162          29.000  
C38  37488787.215   195213712.028        1523.536          22.000  
C40  35997397.683   187447868.742         159.312          31.000  
C45  24067545.947   125326086.488         598.612          22.000  
E02  23377341.865   122848748.068        -152.367          40.000  
E16  27411638.180   144049117.3071      -3007.861          17.000  
E25  25339160.926   133158116.793       -2571.220          27.000  
E34  25298705.733   132945543.773        1935.775          24.000  
E36  23419531.358   123070436.208        -333.584          30.000  
G01  23481191.472   123394545.5571      -3080.779          19.000  
G03  21512347.374   113048220.489       -1334.864          27.000  
G06  21792356.528   114519548.478        2097.185          38.000  
G14  20888374.642   109769060.662       -2296.137          36.000  
G17  20679891.771   108673462.3171        -29.703          20.000  
G19  20723047.495   108900318.044        1741.167          31.000  
G22  20803744.430   109324323.496        -755.269          40.000  
J02  37690270.231   198063546.610         482.399          37.000  
J03  39133741.237   205648994.359        -290.420          21.000  
> 2025 04 24 04 44 03.3158765  0 24                     
C07  35713669.079   185970414.377         194.788          32.000  
C09  39944469.157   208001235.692       -1877.566          24.000  
C10  36411302.917   189603170.460         429.433          24.000  
C13  39688079.752   206666135.284        1691.820          23.000  
C27  24588780.179   128040196.071       -2254.191          22.000  
C29  23251483.371   121076460.403        1822.942          39.000  
C36  23334330.117   121507914.921       -2026.165          30.000  
C38  37488521.974   195212330.376        1522.545          23.000  
C40  35997393.261   187447850.116         159.988          30.000  
C45  24067472.573   125325629.756         596.956          22.000  
E02  23377398.301   122849043.000        -152.216          40.000  
E16  27412232.744   144052267.7481      -3009.014          16.000  
E25  25339669.449   133160828.874       -2571.289          26.000  
E34  25298359.548   132943750.326        1935.504          22.000  
E36  23419628.566   123070911.910        -333.836          31.000  
G01  23481804.622   123397767.7291      -3081.348          16.000  
G03  21512620.860   113049696.514       -1334.951          26.000  
G06  21791984.860   114517594.199        2096.088          38.000  
G14  20888840.294   109771499.207       -2296.021          36.000  
G17  20679930.520   108673633.2131        -30.422          18.000  
G19  20722744.480   108898719.875        1741.762          27.000  
G22  20803916.886   109325219.274        -755.008          39.000  
J02  37690207.650   198063206.573         482.908          37.000  
J03  39133829.151   205649425.2541       -290.075          20.000  
> 2025 04 24 04 44 04.3158154  0 23                     
C07  35713632.654   185970207.258         192.879          33.000  
C09  39944826.360   208003098.501       -1876.537          24.000  
C10  36411215.228   189602728.029         429.440          25.000  
C27  24589209.632   128042437.384       -2256.884          24.000  
C29  23251131.564   121074625.137        1822.390          40.000  
C36  23334717.599   121509927.664       -2027.209          29.000  
C38  37488227.428   195210795.390        1521.463          24.000  
C40  35997362.532   187447676.825         160.047          32.000  
C45  24067367.795   125325021.702         592.720          29.000  
E02  23377428.730   122849182.465        -153.739          40.000  
E16  27412810.893   144055259.1871      -3006.511          16.000  
E25  25340149.567   133163385.285       -2571.699          26.000  
E34  25297983.158   132941801.559        1935.255          23.000  
E36  23419690.173   123071233.613        -335.490          30.000  
G01  23482385.770   123400836.0161      -3081.436          14.000  
G03  21512869.238   113051016.446       -1335.826          28.000  
G06  21791586.286   114515485.688        2095.691          37.000  
G14  20889279.340   109773783.318       -2297.696          37.000  
G17  20679940.862   108673649.901         -30.816          20.000  
G19  20722412.160   108896964.447        1742.307          30.000  
G22  20804055.839   109325960.390        -757.146          39.000  
J02  37690117.262   198062711.314         482.227          38.000  
J03  39133883.863   205649700.7141       -289.990          17.000  
> 2025 04 24 04 44 05.3157543  0 24                     
C07  35713592.744   185970000.840         193.330          30.000  
C09  39945187.272   208004960.182       -1875.687          25.000  
C10  36411128.250   189602284.460         429.608          24.000  
C13  39687423.319   206662827.3351       1674.054          28.000  
C27  24589566.347   128044324.649       -2257.122          24.000  
C29  23250780.470   121072788.063        1824.074          37.000  
C36  23335110.589   121511938.942       -2027.992          27.000  
C38  37487929.696   195209260.772        1520.003          22.000  
C40  35997331.016   187447502.934         160.636          32.000  
C45  24067256.235   125324415.949         592.095          31.000  
E02  23377455.075   122849321.048        -153.882          40.000  
E16  27413388.256   144058251.1361      -3007.285          11.000  
E25  25340630.696   133165942.078       -2571.552          27.000  
E34  25297609.579   132939852.726        1934.729          23.000  
E36  23419747.396   123071553.135        -333.872          30.000  
G01  23482969.728   123403901.4451      -3081.653          14.000  
G03  21513118.928   113052338.957       -1336.234          27.000  
G06  21791186.925   114513375.675        2096.568          37.000  
G14  20889714.302   109776064.791       -2296.246          38.000  
G17  20679952.217   108673665.5641        -30.930          15.000  
G19  20722074.257   108895208.660        1742.286          32.000  
G22  20804197.304   109326702.300        -755.993          39.000  
J02  37690024.889   198062214.198         483.533          38.000  
J03  39133933.292   205649975.2161       -290.012          19.000  
> 2025 04 24 04 44 06.3156932  0 23                     
C07  35713554.296   185969792.808         193.942          32.000  
C09  39945540.952   208006819.836       -1874.220          26.000  
C10  36411045.733   189601840.793         429.067          23.000  
C27  24590010.865   128046566.296       -2254.673          23.000  
C29  23250424.241   121070950.915        1822.192          36.000  
C36  23335497.846   121513952.432       -2029.763          27.000  
C38  37487621.435   195207726.883        1520.015          27.000  
C40  35997294.966   187447328.343         159.836          32.000  
C45  24067141.040   125323809.196         592.695          32.000  
E02  23377485.878   122849459.003        -154.293          41.000  
E16  27413966.181   144061242.0151      -3007.843          12.000  
E25  25341111.788   133168497.083       -2571.417          26.000  
E34  25297229.368   132937903.334        1934.811          21.000  
E36  23419810.877   123071871.962        -336.014          29.000  
G01  23483547.953   123406968.1441      -3081.823          14.000  
G03  21513368.580   113053658.454       -1337.326          25.000  
G06  21790785.128   114511265.614        2094.556          37.000  
G14  20890149.525   109778345.982       -2298.681          37.000  
G17  20679962.935   108673681.0321        -30.877          17.000  
G19  20721736.615   108893452.291        1740.883          32.000  
G22  20804338.731   109327444.225        -757.948          38.000  
J02  37689931.878   198061717.220         480.941          37.000  
J03  39133977.886   205650249.7811       -289.808          18.000  
> 2025 04 24 04 44 07.3156322  0 24                     
C07  35713544.890   185969741.105         193.544          32.000  
C09  39945926.673   208008834.017       -1874.185          26.000  
C10  36410990.758   189601553.864         428.657          22.000  
C13  39686793.567   206659548.6011       1701.496          25.000  
C27  24590480.827   128048961.351       -2257.745          24.000  
C29  23250105.150   121069271.622        1821.109          35.000  
C36  23335919.542   121516121.346       -2028.924          27.000  
C38  37487353.008   195206348.696        1519.231          26.000  
C40  35997294.254   187447310.678         159.529          31.000  
C45  24067054.587   125323359.558         591.921          33.000  
E02  23377543.626   122849757.401        -155.100          41.000  
E16  27414575.547   144064393.6381      -3008.533          12.000  
E25  25341637.812   133171211.218       -2571.872          26.000  
E34  25296882.395   132936111.557        1934.344          23.000  
E36  23419904.000   123072351.171        -336.088          29.000  
G01  23484160.017   123410191.7121      -3082.044          14.000  
G03  21513646.975   113055138.235       -1338.326          24.000  
G06  21790414.173   114509314.120        2095.123          38.000  
G14  20890614.391   109780786.222       -2299.722          37.000  
G17  20679998.198   108674123.8741        -31.131          15.000  
G19  20721431.914   108891854.858        1740.672          34.000  
G22  20804512.498   109328345.059        -758.446          38.000  
J02  37689869.109   198061379.726         480.678          37.000  
J03  39134064.413   205650682.9851       -290.535          20.000  
> 2025 04 24 04 44 08.3155711  0 24                     
C07  35713506.554   185969533.815         193.630          32.000  
C09  39946281.665   208010694.405       -1875.451          27.000  
C10  36410905.655   189601110.826         429.772          21.000  
C13  39686477.323   206657835.500        1697.899          25.000  
C27  24590921.259   128051206.325       -2258.768          23.000  
C29  23249746.336   121067435.538        1822.885          36.000  
C36  23336313.207   121518136.984       -2029.690          29.000  
C38  37487058.949   195204815.256        1520.853          23.000  
C40  35997260.115   187447137.891         160.095          29.000  
C45  24066933.808   125322755.081         590.374          33.000  
E02  23377572.743   122849897.294        -155.231          42.000  
E16  27415154.184   144067385.9571      -3009.137          13.000  
E25  25342042.569   133173332.138       -2572.099          25.000  
E34  25296508.891   132934163.954        1933.991          24.000  
E36  23419967.294   123072673.313        -336.827          30.000  
G01  23484741.052   123413258.6421      -3082.467          14.000  
G03  21513896.140   113056462.609       -1338.644          26.000  
G06  21790013.088   114507205.671        2094.176          40.000  
G14  20891050.627   109783071.797       -2299.569          38.000  
G17  20680003.631   108674141.1611        -32.162          15.000  
G19  20721099.182   108890099.863        1740.005          31.000  
G22  20804656.136   109329087.865        -758.625          39.000  
J02  37689777.710   198060884.578         481.492          38.000  
J03  39134111.818   205650957.673        -289.948          20.000  
> 2025 04 24 04 44 09.3155100  0 23                     
C07  35713466.157   185969327.731         191.021          31.000  
C09  39946643.289   208012555.813       -1878.827          27.000  
C10  36410824.486   189600667.6481        429.665          19.000  
C27  24591358.432   128053450.195       -2260.148          24.000  
C29  23249389.058   121065600.735        1819.794          36.000  
C36  23336693.418   121520152.135       -2030.412          31.000  
C38  37486766.127   195203280.071        1522.042          22.000  
C40  35997228.113   187446964.425         158.999          29.000  
C45  24066814.266   125322152.356         589.297          34.000  
E02  23377602.797   122850039.576        -156.887          41.000  
E16  27415728.661   144070381.6881      -3009.781          13.000  
E25  25342533.104   133175889.031       -2572.604          20.000  
E34  25296137.823   132932216.777        1933.239          22.000  
E36  23420031.225   123072996.678        -338.424          30.000  
G01  23485322.724   123416327.2001      -3083.294          16.000  
G03  21514151.638   113057786.643       -1339.761          27.000  
G06  21789614.139   114505099.143        2093.052          38.000  
G14  20891487.799   109785356.655       -2300.772          37.000  
G17  20680002.507   108674157.9321        -32.209          15.000  
G19  20720767.386   108888347.431        1738.412          31.000  
G22  20804801.011   109329833.268        -759.170          39.000  
J02  37689686.648   198060389.293         481.219          37.000  
J03  39134173.650   205651232.741        -290.630          22.000  
> 2025 04 24 04 44 11.1154001  0 23                     
C07  35713423.586   185969082.733         192.982          32.000  
C09  39947316.923   208016034.458       -1878.450          25.000  
C10  36410703.370   189599999.3421        429.915          18.000  
C27  24592154.081   128057617.335       -2258.877          23.000  
C29  23248777.481   121062423.486        1821.408          38.000  
C36  23337412.920   121523906.460       -2030.296          29.000  
C38  37486255.580   195200640.609        1521.987          24.000  
C40  35997193.936   187446778.739         157.899          31.000  
C45  24066626.296   125321191.356         588.890          34.000  
E02  23377675.047   122850421.479        -156.877          40.000  
E16  27416790.226   144076205.0571      -3008.629          13.000  
E25  25343444.473   133180621.560       -2573.860          23.000  
E34  25295502.863   132928837.9031       1933.313          20.000  
E36  23420161.934   123073702.304        -337.167          32.000  
G01  23486404.376   123421975.0251      -3082.955          18.000  
G03  21514629.507   113060298.269       -1341.333          26.000  
G06  21788921.019   114501432.830        2091.937          37.000  
G14  20892299.337   109789597.253       -2302.795          38.000  
G17  20680035.484   108674314.5341        -32.312          15.000  
G19  20720195.082   108885318.697        1738.467          31.000  
G22  20805084.015   109331300.808        -761.849          38.000  
J02  37689546.345   198059902.585         480.566          36.000  
J03  39134299.563   205652131.680        -290.628          22.000  
> 2025 04 24 04 44 12.0153452  0 23                     
C07  35713416.204   185969037.834         192.938          31.000  
C09  39947668.392   208017851.529       -1877.911          25.000  
C10  36410654.916   189599741.7561        428.777          20.000  
C27  24592569.406   128059777.524       -2261.741          24.000  
C29  23248492.491   121060913.534        1819.661          39.000  
C36  23337787.473   121525860.630       -2030.102          28.000  
C38  37486014.959   195199399.767        1521.522          27.000  
C40  35997192.849   187446764.929         158.845          29.000  
C45  24066552.960   125320790.875         588.188          34.000  
E02  23377727.024   122850692.211        -157.899          40.000  
E16  27417335.661   144079042.7771      -3010.521          14.000  
E25  25343916.159   133183065.703       -2574.523          23.000  
E34  25295200.784   132927228.3321       1932.675          17.000  
E36  23420250.485   123074133.914        -336.907          32.000  
G01  23486960.003   123424877.2221      -3082.829          18.000  
G03  21514887.141   113061635.484       -1341.905          25.000  
G06  21788588.661   114499680.536        2090.649          36.000  
G14  20892719.759   109791799.324       -2303.140          36.000  
G17  20680064.976   108674473.4981        -33.591          14.000  
G19  20719922.384   108883883.644        1738.488          31.000  
G22  20805240.919   109332114.018        -761.653          38.000  
J02  37689490.696   198059599.975         480.505          37.000  
J03  39134378.221   205652522.167        -291.432          20.000  
> 2025 04 24 04 44 13.0002850  0 24                     
C07  35713370.261   185968808.443         192.378          31.000  
C09  39948018.475   208019661.812       -1877.520          25.000  
C10  36410565.503   189599280.024         428.472          20.000  
C13  39685004.556   206650232.2401       1686.892          25.000  
C27  24592990.240   128061964.933       -2262.684          23.000  
C29  23248141.959   121059081.809        1819.861          40.000  
C36  23338161.240   121527820.466       -2030.167          29.000  
C38  37485718.689   195197862.307        1520.449          24.000  
C40  35997150.504   187446569.438         157.257          28.000  
C45  24066437.165   125320172.027         587.708          33.000  
E02  23377750.033   122850806.985        -158.577          40.000  
E16  27417900.395   144081967.1351      -3010.319          18.000  
E25  25344403.847   133185562.282       -2575.670          21.000  
E34  25294832.864   132925285.2171       1929.441          16.000  
E36  23420304.973   123074426.635        -337.938          31.000  
G01  23487536.130   123427874.2061      -3082.566          15.000  
G03  21515132.296   113062916.725       -1342.452          24.000  
G06  21788189.263   114497580.917        2092.038          36.000  
G14  20893144.190   109794028.125       -2303.321          38.000  
G17  20680064.901   108674467.7391        -35.212          16.000  
G19  20719589.239   108882132.144        1737.712          31.000  
G22  20805375.151   109332826.161        -763.326          37.000  
J02  37689392.889   198059087.607         478.267          37.000  
J03  39134431.210   205652770.1521       -291.693          18.000  
> 2025 04 24 04 44 14.0002239  0 23                     
C07  35713332.000   185968602.093         190.466          32.000  
C09  39948375.340   208021522.031       -1877.873          25.000  
C10  36410476.876   189598837.228         427.140          21.000  
C27  24593420.254   128064212.325       -2262.482          22.000  
C29  23247797.610   121057247.044        1818.542          40.000  
C36  23338555.579   121529836.673       -2032.981          30.000  
C38  37485426.804   195196327.398        1520.115          24.000  
C40  35997118.838   187446396.326         158.189          26.000  
C45  24066321.557   125319570.026         585.517          32.000  
E02  23377775.028   122850951.307        -159.582          41.000  
E16  27418478.807   144084962.5481      -3010.609          17.000  
E25  25344904.613   133188122.207       -2575.314          20.000  
E34  25294461.833   132923341.0171       1932.646          16.000  
E36  23420366.243   123074748.908        -339.850          31.000  
G01  23488119.638   123430939.8451      -3082.427          14.000  
G03  21515389.031   113064243.773       -1344.453          27.000  
G06  21787786.155   114495475.285        2089.816          37.000  
G14  20893580.500   109796315.388       -2305.004          39.000  
G17  20680074.008   108674484.0551        -33.391          16.000  
G19  20719254.484   108880379.830        1735.925          32.000  
G22  20805517.665   109333572.368        -764.231          38.000  
J02  37689300.065   198058593.192         480.064          34.000  
J03  39134479.289   205653044.238        -291.842          21.000  
> 2025 04 24 04 44 15.0001629  0 23                     
C07  35713326.416   185968554.670         190.312          33.000  
C09  39948764.883   208023543.417       -1878.532          26.000  
C10  36410422.127   189598553.6881        425.760          19.000  
C27  24593882.347   128066615.561       -2261.537          23.000  
C29  23247481.441   121055572.064        1818.277          40.000  
C36  23338983.795   121532010.891       -2032.985          30.000  
C38  37485168.495   195194950.940        1518.275          24.000  
C40  35997118.351   187446382.084         156.785          27.000  
C45  24066238.327   125319127.063         585.822          34.000  
E02  23377833.600   122851255.063        -160.746          41.000  
E16  27419071.609   144088114.8601      -3010.332          19.000  
E25  25345424.565   133191104.6451      -2575.712          19.000  
E34  25294129.776   132921553.3351       1930.916          19.000  
E36  23420462.589   123075232.560        -340.810          31.000  
G01  23488735.824   123434164.3401      -3082.486           9.000  
G03  21515677.244   113065733.275       -1345.947          28.000  
G06  21787418.422   114493530.531        2088.301          34.000  
G14  20894046.790   109798764.940       -2305.865          39.000  
G17  20680110.395   108674661.4381        -34.141          18.000  
G19  20718949.707   108878788.059        1735.546          31.000  
G22  20805690.458   109334480.416        -765.348          39.000  
J02  37689235.423   198058257.816         478.650          35.000  
J03  39134563.343   205653481.007        -292.211          22.000  
> 2025 04 24 04 44 16.0001018  0 24                     
C07  35713287.143   185968349.016         189.761          33.000  
C09  39949123.435   208025405.640       -1879.428          26.000  
C10  36410341.483   189598112.727         425.680          21.000  
C13  39684077.822   206645406.7871       1691.654          25.000  
C27  24594315.847   128068861.474       -2260.598          22.000  
C29  23247134.281   121053738.704        1817.336          40.000  
C36  23339370.528   121534028.041       -2035.912          31.000  
C38  37484873.500   195193417.575        1517.930          24.000  
C40  35997091.669   187446211.443         154.940          28.000  
C45  24066124.406   125318526.412         584.358          34.000  
E02  23377866.577   122851400.612        -161.929          42.000  
E16  27419640.316   144091109.5451      -3010.612          18.000  
E25  25345925.219   133193664.0351      -2575.104          17.000  
E34  25293767.027   132919607.6111       1929.607          19.000  
E36  23420526.145   123075559.564        -342.100          30.000  
G01  23489321.619   123437231.0031      -3082.753          11.000  
G03  21515935.365   113067061.870       -1347.000          29.000  
G06  21787022.396   114491426.322        2088.320          37.000  
G14  20894481.189   109801052.558       -2305.608          40.000  
G17  20680118.789   108674681.2531        -36.079          18.000  
G19  20718618.736   108877035.912        1736.176          32.000  
G22  20805834.958   109335228.400        -765.708          40.000  
J02  37689143.386   198057764.554         477.277          35.000  
J03  39134613.408   205653755.9111       -292.514          19.000  
> 2025 04 24 04 44 17.0000407  0 23                     
C07  35713247.496   185968147.904         190.502          33.000  
C09  39949480.113   208027272.174       -1879.068          26.000  
C10  36410262.862   189597675.205         426.683          23.000  
C27  24594750.771   128071109.081       -2259.685          22.000  
C29  23246784.948   121051909.944        1817.851          40.000  
C36  23339762.581   121536053.319       -2036.419          30.000  
C38  37484576.930   195191888.818        1517.600          21.000  
C40  35997058.018   187446044.628         156.670          27.000  
C45  24066014.607   125317932.223         583.148          33.000  
E02  23377897.681   122851549.568        -162.070          42.000  
E16  27420221.538   144094107.9791      -3011.784          18.000  
E25  25346418.002   133196226.4021      -2572.204          16.000  
E34  25293401.805   132917667.5471       1928.688          18.000  
E36  23420589.925   123075889.067        -341.065          30.000  
G01  23489909.437   123440301.8181      -3082.793          10.000  
G03  21516195.211   113068398.128       -1347.342          29.000  
G06  21786624.796   114489327.044        2088.582          37.000  
G14  20894919.411   109803347.078       -2307.216          41.000  
G17  20680125.310   108674705.6361        -37.604          17.000  
G19  20718291.288   108875289.176        1734.919          32.000  
G22  20805979.682   109335983.595        -766.786          40.000  
J02  37689050.975   198057275.819         478.351          34.000  
J03  39134668.495   205654034.9411       -292.545          17.000  
> 2025 04 24 04 44 17.9999796  0 23                     
C07  35713210.471   185967942.567         189.723          34.000  
C09  39949840.014   208029135.415       -1878.909          26.000  
C10  36410182.668   189597234.158         426.111          21.000  
C13  39683384.177   206641794.9551       1689.960          25.000  
C27  24595181.123   128073353.467       -2259.818          21.000  
C29  23246436.439   121050077.141        1817.376          41.000  
C36  23340153.660   121538071.794       -2034.757          30.000  
C38  37484281.484   195190356.9261       1517.107          19.000  
C40  35997021.593   187445873.583         156.564          28.000  
C45  24065900.236   125317334.080         583.409          32.000  
E02  23377928.409   122851697.170        -162.587          41.000  
E16  27420793.692   144097103.7751      -3012.348          20.000  
E25  25346912.810   133198785.3221      -2577.724          16.000  
E34  25293021.218   132915724.5821       1927.754          17.000  
E36  23420652.132   123076215.177        -341.791          30.000  
G03  21516453.182   113069728.679       -1347.974          28.000  
G06  21786228.620   114487223.882        2088.153          36.000  
G14  20895356.059   109805639.346       -2307.921          40.000  
G17  20680135.053   108674726.1361        -37.310          18.000  
G19  20717961.966   108873539.700        1735.563          35.000  
G22  20806124.632   109336734.563        -767.272          40.000  
J02  37688954.892   198056783.025         478.123          32.000  
J03  39134722.308   205654313.8511       -293.465          17.000  
> 2025 04 24 04 44 18.9999185  0 24                     
C07  35713172.248   185967738.413         189.300          35.000  
C09  39950199.015   208030998.071       -1879.954          26.000  
C10  36410096.477   189596794.198         424.825          21.000  
C13  39683063.249   206640092.037        1687.772          26.000  
C27  24595618.370   128075596.265       -2258.616          21.000  
C29  23246086.732   121048245.393        1817.214          40.000  
C36  23340545.639   121540090.989       -2035.127          28.000  
C38  37483988.437   195188825.218        1517.442          25.000  
C40  35996986.367   187445701.292         157.263          29.000  
C45  24065786.765   125316735.996         582.218          28.000  
E02  23377955.541   122851843.823        -162.711          41.000  
E16  27421365.246   144100099.738       -3011.474          21.000  
E25  25347413.014   133201347.3001      -2576.882          17.000  
E34  25292639.433   132913781.584        1931.276          20.000  
E36  23420712.241   123076541.244        -341.637          30.000  
G01  23491363.130   123447945.6371      -3085.262          12.000  
G03  21516708.155   113071061.553       -1350.006          29.000  
G06  21785828.247   114485121.638        2087.707          37.000  
G14  20895792.406   109807931.040       -2308.720          41.000  
G17  20680137.901   108674748.5171        -38.164          19.000  
G19  20717635.642   108871789.662        1735.887          35.000  
G22  20806269.882   109337484.954        -767.737          40.000  
J02  37688857.010   198056289.766         477.985          30.000  
J03  39134770.425   205654591.133        -295.053          20.000  
> 2025 04 24 04 44 19.9998575  0 24                     
C07  35713162.842   185967691.434         190.836          34.000  
C09  39950587.734   208033020.101       -1879.811          26.000  
C10  36410045.100   189596512.7741        424.617          18.000  
C13  39682768.441   206638547.709        1687.961          26.000  
C27  24596083.536   128078260.592       -2258.671          21.000  
C29  23245767.340   121046571.118        1817.452          40.000  
C36  23340972.131   121542566.888       -2037.202          27.000  
C38  37483728.105   195187451.274        1516.967          28.000  
C40  35996988.953   187445687.106         155.990          28.000  
C45  24065697.314   125316296.892         581.898          28.000  
E02  23378014.787   122852150.153        -162.962          41.000  
E16  27421965.918   144103255.673       -3011.556          21.000  
E25  25347943.834   133204343.4411      -2576.529          19.000  
E34  25292288.563   132911995.536        1929.809          22.000  
E36  23420802.366   123077024.046        -339.848          28.000  
G01  23491980.590   123451174.5981      -3085.565          10.000  
G03  21516992.846   113072556.718       -1349.950          29.000  
G06  21785461.489   114483178.939        2087.253          36.000  
G14  20896260.270   109810383.455       -2308.901          40.000  
G17  20680174.363   108674931.062         -38.814          21.000  
G19  20717335.437   108870198.648        1734.919          36.000  
G22  20806444.848   109338396.461        -768.288          40.000  
J02  37688790.343   198055956.492         477.982          28.000  
J03  39134850.956   205655028.316        -293.902          20.000  
> 2025 04 24 04 44 20.9997964  0 24                     
C07  35713125.031   185967486.519         191.017          33.000  
C09  39950945.948   208034885.148       -1879.470          26.000  
C10  36409964.718   189596073.9111        425.017          19.000  
C13  39682444.628   206636845.878        1687.530          26.000  
C27  24596524.193   128080505.501       -2260.823          21.000  
C29  23245413.548   121044740.299        1816.576          40.000  
C36  23341356.128   121544586.853       -2036.745          28.000  
C38  37483439.367   195185920.117        1516.657          28.000  
C40  35996957.138   187445517.806         155.197          28.000  
C45  24065575.561   125315701.293         581.461          25.000  
E02  23378044.729   122852298.392        -164.479          41.000  
E16  27422535.186   144106250.5481      -3012.493          20.000  
E25  25348426.762   133206904.537       -2580.487          21.000  
E34  25291912.886   132910052.474        1927.613          21.000  
E36  23420867.983   123077350.913        -343.028          28.000  
G01  23492564.548   123454246.6721      -3085.693          11.000  
G03  21517249.131   113073891.197       -1350.084          30.000  
G06  21785060.629   114481078.151        2085.315          36.000  
G14  20896699.129   109812677.223       -2309.694          40.000  
G17  20680178.523   108674954.669         -39.109          22.000  
G19  20717002.330   108868450.249        1734.210          34.000  
G22  20806590.210   109339151.608        -770.340          40.000  
J02  37688687.777   198055465.142         476.674          27.000  
J03  39134902.483   205655307.0491       -293.513          19.000  
> 2025 04 24 04 44 21.9997353  0 24                     
C07  35713087.107   185967283.950         188.715          33.000  
C09  39951308.247   208036750.136       -1878.450          26.000  
C10  36409877.929   189595634.523         426.149          20.000  
C13  39682121.002   206635146.480        1686.115          26.000  
C27  24596968.036   128082753.408       -2262.545          21.000  
C29  23245062.640   121042910.753        1815.553          40.000  
C36  23341747.507   121546610.204       -2037.217          28.000  
C38  37483147.220   195184390.201        1517.711          28.000  
C40  35996925.510   187445348.884         155.880          27.000  
C45  24065457.293   125315107.354         579.865          26.000  
E02  23378076.957   122852449.117        -164.801          40.000  
E16  27423113.336   144109250.9271      -3013.850          19.000  
E25  25348907.779   133209471.334       -2580.783          22.000  
E34  25291541.892   132908112.5731       1927.333          20.000  
E36  23420938.284   123077679.090        -342.752          28.000  
G01  23493152.591   123457317.6481      -3085.880          10.000  
G03  21517503.805   113075225.195       -1349.903          30.000  
G06  21784659.656   114478979.263        2085.843          36.000  
G14  20897140.273   109814972.870       -2309.987          40.000  
G17  20680187.966   108674977.895         -37.556          21.000  
G19  20716670.910   108866702.326        1734.296          33.000  
G22  20806736.059   109339907.432        -769.996          40.000  
J02  37688594.092   198054975.226         477.120          24.000  
J03  39134955.097   205655587.3271       -293.082          19.000  
> 2025 04 24 04 44 22.9996742  0 24                     
C07  35713052.331   185967082.646         189.521          34.000  
C09  39951667.698   208038615.859       -1879.279          26.000  
C10  36409792.787   189595196.471         425.147          22.000  
C13  39681799.025   206633448.278        1685.749          25.000  
C27  24597403.934   128085002.851       -2263.012          25.000  
C29  23244710.984   121041082.378        1815.783          39.000  
C36  23342141.734   121548633.016       -2038.921          29.000  
C38  37482863.616   195182861.501        1515.883          27.000  
C40  35996897.329   187445181.081         154.837          29.000  
C45  24065345.471   125314516.396         577.951          31.000  
E02  23378103.938   122852601.552        -165.531          40.000  
E16  27423686.539   144112251.3741      -3014.404          19.000  
E25  25349393.443   133212039.207       -2580.922          24.000  
E34  25291179.443   132906173.671        1927.186          20.000  
E36  23420999.142   123078010.096        -343.394          28.000  
G01  23493738.386   123460392.7381      -3086.247          10.000  
G03  21517761.926   113076564.256       -1352.317          31.000  
G06  21784259.733   114476880.996        2085.241          34.000  
G14  20897581.868   109817533.681       -2311.695          41.000  
G17  20680193.662   108675002.806         -37.526          21.000  
G19  20716339.939   108864956.819        1732.704          34.000  
G22  20806882.957   109340663.582        -771.139          40.000  
J02  37688502.655   198054486.282         476.613          21.000  
J03  39135009.959   205655866.766        -292.547          21.000  
> 2025 04 24 04 44 23.9996132  0 24                     
C07  35713045.286   185967034.554         188.490          34.000  
C09  39952058.778   208040635.822       -1881.017          26.000  
C10  36409736.876   189594913.392         424.116          21.000  
C13  39681503.579   206631903.771        1685.246          25.000  
C27  24597868.463   128087406.233       -2262.446          26.000  
C29  23244387.358   121039407.988        1815.257          39.000  
C36  23342561.893   121550813.045       -2038.103          28.000  
C38  37482608.343   195181777.019        1514.635          28.000  
C40  35996891.783   187445167.163         155.056          27.000  
C45  24065272.771   125314079.540         578.847          31.000  
E02  23378162.847   122852909.286        -165.857          39.000  
E16  27424296.467   144115406.3791      -3013.821          19.000  
E25  25349917.030   133214760.310       -2579.859          24.000  
E34  25290844.725   132904389.5511       1928.734          16.000  
E36  23421099.723   123078496.525        -345.399          27.000  
G01  23494346.215   123463621.1521      -3086.099          11.000  
G03  21518048.977   113078058.234       -1353.946          32.000  
G06  21783884.243   114474939.057        2084.601          33.000  
G14  20898049.994   109819988.414       -2312.579          41.000  
G17  20680225.590   108675182.007         -38.890          20.000  
G19  20716039.697   108863367.646        1731.980          36.000  
G22  20807056.387   109341578.339        -773.035          37.000  
J02  37688450.941   198054152.5841        476.449          18.000  
J03  39135093.751   205656299.4931       -292.774          20.000  
> 2025 04 24 04 44 24.9995521  0 24                     
C07  35713004.664   185966831.784         188.812          33.000  
C09  39952417.180   208042500.605       -1881.432          26.000  
C10  36409654.583   189594474.890         423.969          22.000  
C13  39681177.255   206630203.885        1685.362          24.000  
C27  24598301.213   128089651.671       -2263.092          24.000  
C29  23244034.352   121037579.192        1814.693          37.000  
C36  23342954.471   121552835.972       -2040.249          26.000  
C38  37482313.197   195180247.551        1515.226          27.000  
C40  35996858.356   187444997.771         154.147          28.000  
C45  24065166.195   125313486.439         577.456          33.000  
E02  23378193.276   122853061.139        -167.762          39.000  
E16  27424873.118   144118681.0111      -3014.622          19.000  
E25  25350410.638   133217325.757       -2581.417          28.000  
E34  25290479.728   132902446.9921       1924.646          14.000  
E36  23421165.527   123078827.817        -346.969          26.000  
G01  23494927.063   123466691.6701      -3086.623          11.000  
G03  21518306.649   113079397.657       -1354.587          32.000  
G06  21783483.870   114472841.667        2081.723          33.000  
G14  20898487.541   109822284.731       -2314.580          41.000  
G17  20680226.640   108675205.5651        -41.211          20.000  
G19  20715705.578   108861621.449        1731.007          35.000  
G22  20807199.238   109342334.733        -773.784          38.000  
J02  37688370.447   198053661.1691        476.516          19.000  
J03  39135148.163   205656577.0421       -291.912          19.000  
> 2025 04 24 04 44 25.9994910  0 24                     
C07  35712968.951   185966630.812         188.404          32.000  
C09  39952781.090   208044367.776       -1881.167          26.000  
C10  36409574.801   189594038.560         423.211          23.000  
C13  39680851.643   206628506.545        1684.196          23.000  
C27  24598735.575   128091902.360       -2264.272          26.000  
C29  23243677.562   121035752.058        1814.280          37.000  
C36  23343351.959   121554864.015       -2043.824          24.000  
C38  37482020.862   195178720.085        1514.037          29.000  
C40  35996830.438   187444831.756         152.878          28.000  
C45  24065057.332   125312897.572         575.897          34.000  
E02  23378225.616   122853216.924        -168.143          39.000  
E16  27425433.393   144121682.1971      -3014.713          19.000  
E25  25350897.764   133219893.780       -2582.709          26.000  
E34  25290110.946   132900510.3211       1925.212          15.000  
E36  23421229.945   123079159.349        -346.353          26.000  
G01  23495509.522   123469767.3631      -3107.120          12.000  
G03  21518563.833   113080738.907       -1356.462          32.000  
G06  21783085.709   114470747.458        2082.571          34.000  
G14  20898924.001   109824586.381       -2314.319          39.000  
G17  20680229.600   108675234.026         -42.086          21.000  
G19  20715369.173   108859878.084        1730.363          33.000  
G22  20807344.000   109343096.628        -774.880          39.000  
J02  37688292.163   198053172.161         475.590          27.000  
J03  39135199.390   205656855.071        -292.530          22.000  
> 2025 04 24 04 44 27.0004299  0 24                     
C07  35712949.090   185966522.963         186.752          32.000  
C09  39953159.353   208046330.668       -1881.545          25.000  
C10  36409510.570   189593695.023         422.321          24.000  
C13  39680542.482   206626900.785        1683.144          23.000  
C27  24599183.989   128094247.368       -2265.461          26.000  
C29  23243337.822   121034016.574        1813.212          36.000  
C36  23343759.302   121556990.956       -2045.749          24.000  
C38  37481741.081   195177284.623        1512.099          29.000  
C40  35996811.176   187444758.540         152.926          29.000  
C45  24064962.523   125312400.991         575.729          33.000  
E02  23378275.007   122853464.395        -169.264          40.000  
E16  27426017.613   144124780.5021      -3016.386          20.000  
E25  25351410.034   133222559.017       -2583.029          27.000  
E34  25289758.914   132898664.3271       1923.509          14.000  
E36  23421317.110   123079851.767        -345.862          25.000  
G01  23496116.827   123472957.2871      -3107.280          13.000  
G03  21518837.469   113082174.891       -1355.675          32.000  
G06  21782712.392   114468743.186        2082.221          37.000  
G14  20899379.311   109826981.139       -2314.835          39.000  
G17  20680252.009   108675356.610         -42.296          22.000  
G19  20715051.318   108858225.211        1731.193          32.000  
G22  20807507.312   109343950.434        -775.114          39.000  
J02  37688225.834   198052776.374         475.499          28.000  
J03  39135270.966   205657228.6301       -292.953          20.000  
> 2025 04 24 04 44 28.0003688  0 24                     
C07  35712908.243   185966322.045         187.219          31.000  
C09  39953519.929   208048461.976       -1882.439          25.000  
C10  36409426.553   189593258.559         422.521          24.000  
C13  39680219.531   206625203.631        1682.942          22.000  
C27  24599618.913   128096498.371       -2264.617          27.000  
C29  23242982.493   121032188.908        1814.247          35.000  
C36  23344148.657   121559021.173       -2047.151          22.000  
C38  37481444.811   195175758.366        1512.596          28.000  
C40  35996782.021   187444591.277         153.429          29.000  
C45  24064850.925   125311812.623         573.771          34.000  
E02  23378306.410   122853618.823        -169.710          40.000  
E16  27426585.645   144127780.872       -3014.568          20.000  
E25  25351910.313   133225124.826       -2581.783          27.000  
E34  25289386.197   132896726.8711       1924.217          14.000  
E36  23421375.794   123080182.058        -345.780          25.000  
G01  23496706.144   123476049.4201      -3107.714          12.000  
G03  21519094.916   113083516.352       -1357.981          32.000  
G06  21782322.587   114466646.886        2081.845          36.000  
G14  20899815.734   109829281.733       -2315.847          39.000  
G17  20680258.530   108675383.862         -43.666          22.000  
G19  20714720.273   108856480.639        1729.612          31.000  
G22  20807652.337   109344711.006        -775.346          38.000  
J02  37688140.019   198052288.089         473.940          28.000  
J03  39135327.851   205657505.8771       -292.949          19.000  
> 2025 04 24 04 44 29.0003077  0 23                     
C07  35712870.544   185966122.667         187.257          32.000  
C09  39953876.757   208050330.839       -1881.718          25.000  
C10  36409340.588   189592823.452         423.297          24.000  
C13  39679900.327   206623508.042        1684.262          22.000  
C27  24600056.385   128098748.868       -2264.247          24.000  
C29  23242634.809   121030362.594        1813.096          38.000  
C36  23344535.464   121561054.656       -2046.257          24.000  
C38  37481155.286   195174233.907        1511.933          23.000  
C40  35996758.712   187444425.219         154.309          33.000  
C45  24064740.677   125311227.211         573.570          34.000  
E02  23378335.265   122853775.551        -170.135          40.000  
E16  27427159.223   144130782.979       -3014.770          21.000  
E25  25352397.251   133227693.409       -2582.746          25.000  
E34  25289016.928   132894791.5071       1923.074          15.000  
E36  23421443.922   123080515.982        -347.373          26.000  
G03  21519350.713   113084862.277       -1361.077          30.000  
G06  21781927.835   114464553.568        2079.901          37.000  
G14  20900254.105   109831584.269       -2317.699          40.000  
G17  20680264.001   108675414.592         -44.045          22.000  
G19  20714391.775   108854739.318        1729.322          33.000  
G22  20807798.411   109345473.720        -777.075          38.000  
J02  37688050.156   198051802.038         475.068          33.000  
J03  39135386.086   205657786.846        -296.676          26.000  
> 2025 04 24 04 44 30.0002467  0 23                     
C07  35712864.886   185966076.350         186.958          32.000  
C09  39954262.927   208052351.895       -1879.348          24.000  
C10  36409290.560   189592540.908         423.121          23.000  
C13  39679610.465   206621964.099        1685.527          21.000  
C27  24600512.407   128101152.740       -2263.576          26.000  
C29  23242330.257   121028690.423        1814.516          39.000  
C36  23344943.220   121563237.116       -2039.595          26.000  
C38  37480896.603   195172862.679        1511.908          24.000  
C40  35996765.645   187444411.279         155.355          35.000  
C45  24064651.676   125310793.527         576.288          35.000  
E02  23378398.859   122854088.678        -171.551          39.000  
E16  27427755.847   144133938.9381      -3014.637          19.000  
E25  25352917.128   133230417.463       -2582.685          23.000  
E34  25288685.395   132893011.3101       1922.041          15.000  
E36  23421533.297   123081004.515        -347.950          28.000  
G03  21519639.751   113086364.507       -1364.930          29.000  
G06  21781558.828   114462616.802        2079.212          39.000  
G14  20900723.018   109834045.809       -2321.588          39.000  
G17  20680298.815   108675599.5791        -43.694          19.000  
G19  20714089.022   108853150.859        1732.289          34.000  
G22  20807975.326   109346392.580        -778.622          40.000  
J02  37687924.880   198051471.115         470.782          35.000  
J03  39135471.564   205658224.328        -298.538          27.000  
> 2025 04 24 04 44 31.0001856  0 24                     
C07  35712827.749   185965875.140         188.751          30.000  
C09  39954622.116   208054214.852       -1877.257          21.000  
C10  36409209.354   189592104.116         422.681          20.000  
C13  39679285.527   206620263.5981       1687.894          19.000  
C27  24600884.187   128103400.477       -2263.290          25.000  
C29  23241981.336   121026860.634        1817.633          41.000  
C36  23345333.887   121565259.015       -2030.411          25.000  
C38  37480600.445   195171339.833        1497.121          30.000  
C40  35996736.603   187444241.721         157.705          35.000  
C45  24064537.492   125310201.204         580.398          33.000  
E02  23378429.175   122854246.588        -172.806          38.000  
E16  27428323.092   144136937.5281      -3009.067          15.000  
E25  25353404.328   133232984.5171      -2581.069          19.000  
E34  25288322.384   132891075.5451       1935.020           9.000  
E36  23421600.189   123081336.682        -345.725          29.000  
G01  23498204.057   123483895.5911      -3077.510          18.000  
G03  21519900.608   113087720.833       -1373.942          27.000  
G06  21781159.542   114460527.120        2073.072          41.000  
G14  20901166.149   109836357.202       -2333.291          38.000  
G17  20680301.850   108675628.6241        -43.875          15.000  
G19  20713761.386   108851406.435        1722.574          39.000  
G22  20808124.360   109347430.945        -783.643          39.000  
J02  37687841.275   198050985.903         471.746          35.000  
J03  39135527.963   205658509.682        -299.763          23.000  
> 2025 04 24 04 44 32.0001245  0 23                     
C07  35712788.026   185965672.294         189.334          29.000  
C09  39954980.518   208056068.2551      -1866.712          19.000  
C10  36409124.962   189591668.2051        422.744          19.000  
C27  24601325.931   128105649.970       -2261.335          25.000  
C29  23241632.228   121025029.566        1818.628          41.000  
C36  23345720.469   121567273.348       -2034.260          28.000  
C38  37480308.297   195169833.271        1491.013          30.000  
C40  35996704.975   187444070.289         157.795          32.000  
C45  24064423.721   125309606.150         583.178          31.000  
E02  23378460.803   122854407.572        -174.706          37.000  
E16  27428895.246   144139932.0271      -3009.093          13.000  
E25  25353893.740   133235551.5591      -2579.859          18.000  
E34  25287959.185   132889127.1881       1936.937          19.000  
E36  23421661.196   123081666.249        -342.725          30.000  
G01  23498791.500   123486959.2591      -3076.548          18.000  
G03  21520164.275   113089083.451       -1379.392          26.000  
G06  21780762.767   114458441.007        2072.374          42.000  
G14  20901609.692   109838677.956       -2336.121          38.000  
G17  20680308.895   108675658.2721        -43.881          14.000  
G19  20713440.159   108849672.516        1724.204          39.000  
G22  20808272.308   109348202.899        -786.309          38.000  
J02  37687758.083   198050505.026         463.023          35.000  
J03  39135584.174   205658793.4851       -299.335          20.000  
> 2025 04 24 04 44 33.0000634  0 23                     
C07  35712752.651   185965467.945         188.479          29.000  
C09  39955340.568   208057916.5511      -1863.949          18.000  
C13  39678615.041   206616960.3971       1700.344          22.000  
C27  24601770.224   128107892.791       -2261.501          24.000  
C29  23241281.171   121023196.452        1818.079          38.000  
C36  23346103.604   121569288.012       -2027.960          31.000  
C38  37480025.593   195168326.313        1493.900          27.000  
C40  35996674.995   187443896.938         156.794          27.000  
C45  24064307.102   125309006.242         583.742          31.000  
E02  23378492.881   122854566.468        -176.063          38.000  
E16  27429465.451   144142925.9601      -2991.857          12.000  
E25  25354385.699   133238113.5141      -2577.648          20.000  
E34  25287603.331   132887174.524        1938.027          24.000  
E36  23421725.352   123081992.832        -343.144          28.000  
G01  23499375.796   123490017.1951      -3073.594          17.000  
G03  21520424.795   113090446.856       -1384.089          26.000  
G06  21780365.841   114456353.180        2072.205          42.000  
G14  20902053.984   109840997.803       -2338.705          38.000  
G17  20680316.390   108675685.4731        -43.881           7.000  
G19  20713107.389   108847924.587        1735.273          35.000  
G22  20808420.405   109348973.087        -788.154          38.000  
J02  37687669.944   198050026.462         460.677          34.000  
J03  39135637.237   205659074.760        -296.343          20.000  
> 2025 04 24 04 44 34.0000023  0 22                     
C07  35712716.938   185965267.163         188.218          29.000  
C09  39955699.682   208059767.1231      -1863.501          17.000  
C13  39678288.530   206615244.249        1715.947          27.000  
C27  24602204.286   128110139.740       -2261.152          27.000  
C29  23240931.875   121021630.951        1819.933          37.000  
C36  23346486.101   121571303.530       -2029.888          31.000  
C38  37479732.059   195166821.748        1488.484          31.000  
C40  35996645.878   187443728.638         154.732          22.000  
C45  24064194.043   125308411.134         583.034          30.000  
E02  23378524.921   122854729.098        -175.577          38.000  
E16  27430035.319   144145903.9401      -2992.745          12.000  
E25  25354881.818   133240675.433       -2574.170          22.000  
E34  25287242.044   132885223.733        1937.989          24.000  
E36  23421788.870   123082322.621        -343.956          28.000  
G01  23499960.353   123493077.4431      -3072.600          15.000  
G03  21520687.975   113091817.440       -1383.199          24.000  
G06  21779969.778   114454268.970        2071.420          39.000  
G14  20902498.839   109843324.396       -2339.770          37.000  
G17  20680324.747   108675715.6521        -43.911           8.000  
G19  20712771.284   108846173.433        1743.265          34.000  
G22  20808570.564   109349748.076        -788.909          39.000  
J03  39135688.764   205659354.608        -292.488          23.000  
> 2025 04 24 04 44 34.9999413  0 23                     
C07  35712708.019   185965221.685         188.679          30.000  
C09  39956093.984   208061771.5211      -1862.037          18.000  
C13  39677993.909   206613670.147        1717.414          29.000  
C27  24602666.041   128112544.895       -2264.824          27.000  
C29  23240609.373   121019950.482        1826.169          41.000  
C36  23346898.691   121573474.522       -2030.458          31.000  
C38  37479473.713   195165477.218        1486.979          37.000  
C40  35996645.353   187443978.5301        152.909          19.000  
C45  24064107.777   125307967.420         589.395          32.000  
E02  23378586.754   122855046.190        -175.026          37.000  
E16  27430636.478   144149040.1601      -2987.023          12.000  
E25  25355405.031   133243391.786       -2570.978          22.000  
E34  25286894.360   132883431.261        1933.077          23.000  
E36  23421881.581   123082811.128        -343.442          30.000  
G01  23500575.603   123496294.2721      -3072.754          11.000  
G03  21520978.549   113093343.316       -1382.607          23.000  
G06  21779604.406   114452339.036        2077.689          37.000  
G14  20902971.986   109845807.702       -2341.698          38.000  
G17  20680361.696   108675902.3111        -44.003           7.000  
G19  20712464.672   108844571.895        1745.651          32.000  
G22  20808748.716   109350681.559        -788.823          41.000  
J02  37687523.983   198049246.4001        449.819          35.000  
J03  39135768.883   205659791.291        -295.051          21.000  
> 2025 04 24 04 44 35.9998802  0 22                     
C07  35712670.283   185965018.444         189.228          29.000  
C09  39956462.766   208063616.939       -1851.297          23.000  
C13  39677667.173   206611940.006        1715.232          26.000  
C27  24603102.876   128114796.530       -2270.857          22.000  
C29  23240256.255   121018108.783        1829.187          39.000  
C36  23347277.666   121575492.213       -2034.157          29.000  
C38  37479187.448   195163976.651        1486.745          35.000  
C40  35996616.911   187443813.0931        150.851          17.000  
C45  24064000.489   125307363.567         589.892          29.000  
E02  23378615.271   122855205.004        -173.306          34.000  
E25  25355888.334   133245946.5821      -2573.749          19.000  
E34  25286514.260   132881484.247        1933.601          24.000  
E36  23421943.076   123083140.105        -344.349          30.000  
G01  23501160.535   123499359.5111      -3078.751          11.000  
G03  21521241.505   113094708.906       -1380.775          23.000  
G06  21779207.219   114450245.132        2080.641          37.000  
G14  20903416.016   109848134.442       -2338.756          32.000  
G17  20680368.929   108675931.1571        -44.001           6.000  
G19  20712131.040   108842813.362        1741.952          29.000  
G22  20808896.551   109351452.913        -788.367          42.000  
J02  37687435.581   198048781.582         450.219          35.000  
J03  39135825.282   205660076.501        -299.708          26.000  
> 2025 04 24 04 44 36.9998191  0 21                     
C07  35712630.148   185964815.195         189.115          31.000  
C09  39956825.253   208065450.760       -1846.076          27.000  
C13  39677341.336   206610210.988        1715.478          24.000  
C27  24603543.009   128117056.8071      -2278.396          19.000  
C29  23239907.634   121016265.702        1829.343          37.000  
C36  23347661.438   121577512.942       -2039.796          30.000  
C38  37478902.983   195162474.469        1490.676          29.000  
C40  35996590.267   187443649.2381        149.189          16.000  
C45  24063885.706   125306759.421         590.132          30.000  
E02  23378653.083   122855650.811        -173.673          33.000  
E25  25356377.333   133248505.0161      -2571.222          14.000  
E34  25286143.455   132879536.971        1932.995          25.000  
E36  23422012.066   123083468.554        -344.158          30.000  
G01  23501745.168   123502423.2961      -3077.573          10.000  
G03  21521505.659   113096074.851       -1380.935          23.000  
G06  21778812.729   114448432.555        2080.925          40.000  
G14  20903861.245   109850455.946       -2337.363          29.000  
G19  20711799.507   108841061.485        1734.755          28.000  
G22  20809044.985   109352227.533        -787.891          42.000  
J02  37687348.679   198048317.533         449.716          33.000  
J03  39135875.085   205660361.045        -299.809          31.000  
> 2025 04 24 04 44 37.9997581  0 21                     
C07  35712625.314   185964767.824         189.374          31.000  
C09  39957208.950   208067435.664       -1842.118          24.000  
C13  39677040.606   206608637.359        1716.183          21.000  
C27  24604019.342   128119479.8371      -2285.096          19.000  
C29  23239583.521   121014577.705        1830.452          35.000  
C36  23348015.455   121579242.700       -2056.365          39.000  
C38  37478645.424   195161125.364        1490.283          26.000  
C45  24063799.029   125306311.744         590.334          30.000  
E02  23378709.406   122855967.086        -174.116          31.000  
E16  27432293.468   144157674.7471      -3036.176          15.000  
E25  25356898.035   133251217.2701      -2568.337          12.000  
E34  25285735.400   132877436.333        1919.989          22.000  
E36  23422098.069   123083954.883        -343.697          28.000  
G01  23502351.611   123505625.626       -3056.875          26.000  
G03  21521800.617   113097599.020       -1382.765          21.000  
G06  21778445.446   114446494.323        2080.616          40.000  
G14  20904334.281   109852936.943       -2342.055          29.000  
G19  20711500.876   108839470.419        1735.548          30.000  
G22  20809223.025   109353157.592        -789.113          42.000  
J02  37687289.882   198048010.606         448.862          34.000  
J03  39135958.090   205660804.067        -299.011          33.000  
> 2025 04 24 04 44 38.9996970  0 24                     
C07  35712586.191   185964564.546         191.905          31.000  
C09  39957559.857   208069263.734       -1845.460          23.000  
C10  36408580.764   189589033.9211        433.145          25.000  
C13  39676708.886   206606907.043        1722.912          25.000  
C27  24604478.174   128121754.5251      -2293.044          18.000  
C29  23239231.715   121012735.159        1828.724          40.000  
C30  21832364.469   113686850.6171       -475.731          34.000  
C36  23348412.830   121581288.327       -2061.493          40.000  
C38  37478357.473   195159628.063        1479.743          37.000  
C45  24063683.758   125305705.958         594.309          31.000  
E02  23378742.533   122856126.745        -173.929          31.000  
E16  27432862.924   144160698.6781      -3036.300          13.000  
E25  25357385.947   133253769.6581      -2565.902          12.000  
E34  25285378.497   132875505.939        1915.208          37.000  
E36  23422163.274   123084284.976        -342.824          24.000  
G01  23502927.962   123508668.007       -3055.413          26.000  
G03  21522065.184   113098973.8901      -1389.537          17.000  
G06  21778047.471   114444403.354        2073.899          38.000  
G14  20904779.922   109855269.988       -2349.795          30.000  
G17  20680379.871   108676129.3891        -36.079          35.000  
G19  20711171.854   108837723.660        1735.912          28.000  
G22  20809372.471   109353933.867        -792.253          41.000  
J02  37687203.092   198047551.573         446.103          36.000  
J03  39136012.203   205661086.176        -295.956          28.000  
> 2025 04 24 04 44 39.9996359  0 23                     
C07  35712547.818   185964357.326         191.030          31.000  
C09  39957910.614   208071092.3321      -1844.536          19.000  
C10  36408498.921   189588584.315         432.931          24.000  
C13  39676367.422   206605166.028        1729.459          31.000  
C27  24604926.664   128124309.1881      -2300.421          18.000  
C29  23238876.461   121010892.964        1823.752          42.000  
C30  21832450.809   113687309.138        -473.857          28.000  
C36  23348807.057   121583335.712       -2066.516          37.000  
C38  37478071.171   195158135.184        1477.533          39.000  
C45  24063570.737   125305099.712         586.738          31.000  
E02  23378776.710   122856287.007        -177.117          37.000  
E16  27433433.129   144163720.1701      -3053.023          12.000  
E34  25285016.947   132873579.662        1910.028          38.000  
E36  23422227.729   123084609.877        -341.803          26.000  
G01  23503510.158   123511707.080       -3056.048          25.000  
G03  21522331.700   113100616.0671      -1394.959          17.000  
G06  21777652.345   114442315.271        2069.266          40.000  
G14  20905225.114   109857604.571       -2352.156          39.000  
G17  20680377.473   108676147.332         -33.255          34.000  
G19  20710834.887   108835966.732        1747.006          34.000  
G22  20809521.468   109354711.399        -795.759          41.000  
J02  37687115.853   198047088.926         447.530          35.000  
J03  39136065.865   205661365.831        -295.363          23.000  
> 2025 04 24 04 44 40.9995749  0 23                     
C07  35712541.072   185964572.174         190.249          29.000  
C09  39958293.899   208073079.4421      -1844.260          16.000  
C10  36408447.506   189588296.056         430.591          22.000  
C13  39676064.782   206603581.522        1725.330          27.000  
C27  24605403.484   128126754.8961      -2307.411          17.000  
C29  23238560.929   121009216.413        1821.456          39.000  
C30  21832572.375   113687924.809        -470.383          25.000  
C36  23349235.611   121585547.129       -2066.989          34.000  
C38  37477817.996   195156802.457        1478.006          36.000  
C45  24063493.840   125304926.820         579.118          30.000  
E02  23378838.917   122856610.041        -179.234          37.000  
E16  27434042.158   144166917.9551      -3055.241          13.000  
E25  25358478.541   133259704.0221      -2625.288           5.000  
E34  25284681.030   132871819.691        1906.553          35.000  
E36  23422323.513   123085095.437        -340.903          28.000  
G01  23504118.287   123514914.145       -3062.001          29.000  
G03  21522625.347   113102162.0301      -1401.773          16.000  
G06  21777287.947   114440394.457        2065.274          41.000  
G14  20905701.334   109860101.367       -2350.702          39.000  
G17  20680409.101   108676325.718         -32.251          32.000  
G22  20809702.992   109355651.921        -795.938          39.000  
J02  37687059.342   198046786.880         448.492          37.000  
J03  39136146.659   205661805.8541       -294.018          17.000  
> 2025 04 24 04 44 41.9995138  0 24                     
C07  35712502.924   185964366.650         189.311          31.000  
C09  39958646.979   208074906.8181      -1843.322          16.000  
C10  36408366.487   189587849.609         428.956          22.000  
C13  39675733.436   206601839.273        1728.920          28.000  
C27  24605866.888   128129050.647       -2314.763          21.000  
C29  23238209.797   121007377.788        1822.841          38.000  
C30  21832659.839   113688376.087        -468.874          24.000  
C36  23349633.960   121587595.136       -2067.749          32.000  
C38  37477531.920   195155311.951        1471.629          32.000  
C45  24063393.334   125304332.922         577.890          29.000  
E02  23378869.121   122856775.465        -180.821          37.000  
E16  27434617.684   144169960.6601      -3062.029          13.000  
E25  25358973.723   133262314.7591      -2625.273           9.000  
E34  25284323.902   132869900.212        1901.552          31.000  
E36  23422395.388   123085420.188        -342.702          28.000  
G01  23504692.915   123517960.194       -3062.523          28.000  
G03  21522889.389   113103546.3191      -1403.555          13.000  
G06  21776894.844   114438312.862        2066.456          41.000  
G14  20906147.350   109862437.670       -2357.269          39.000  
G17  20680409.925   108676343.182         -32.308          31.000  
G19  20710187.710   108832603.7701       1744.304          34.000  
G22  20809852.814   109356433.272        -799.359          39.000  
J02  37686973.226   198046325.705         442.938          36.000  
J03  39136207.742   205662081.1191       -293.343          13.000  
> 2025 04 24 04 44 42.9994527  0 25                     
C07  35712466.574   185964163.517         191.560          32.000  
C09  39959002.158   208077009.6151      -1843.046          15.000  
C10  36408286.068   189587408.037         426.795          21.000  
C13  39675401.791   206600094.590        1732.847          27.000  
C27  24606315.302   128131353.4121      -2255.723          18.000  
C29  23237859.265   121005542.872        1821.982          39.000  
C30  21832747.903   113688831.659        -468.619          26.000  
C36  23350031.410   121589651.374       -2073.881          31.000  
C38  37477248.241   195153827.770        1470.913          30.000  
C40  35996470.462   187443067.1491        111.357          21.000  
C45  24063286.533   125303739.623         582.898          30.000  
E02  23378904.421   122856942.471        -180.983          38.000  
E16  27435196.209   144173010.6331      -3064.171          13.000  
E25  25359468.905   133264926.3221      -2625.595          10.000  
E34  25283966.774   132867986.500        1902.092          29.000  
E36  23422451.374   123085749.164        -343.203          29.000  
G01  23505274.137   123521008.507       -3064.017          23.000  
G03  21523152.831   113104937.7391      -1405.245          12.000  
G06  21776502.641   114436234.888        2066.408          41.000  
G14  20906594.866   109864780.853       -2357.017          39.000  
G17  20680413.148   108676362.080         -33.006          29.000  
G19  20709852.767   108830846.089        1744.060          33.000  
G22  20810004.134   109357218.037        -799.359          39.000  
J02  37686886.811   198045869.174         444.243          36.000  
J03  39136266.127   205662359.8441       -292.659           7.000  
> 2025 04 24 04 44 44.0003916  0 24                     
C07  35712444.089   185964052.046         191.004          32.000  
C09  39959377.798   208078933.4761      -1843.088          14.000  
C10  36408225.510   189587060.923         419.687          21.000  
C13  39675086.409   206598440.087        1724.360          26.000  
C27  24606685.846   128133690.789       -2256.253          27.000  
C29  23237522.298   121003800.266        1819.659          37.000  
C30  21832856.728   113689379.421        -470.968          25.000  
C36  23350448.721   121591806.231       -2071.897          31.000  
C38  37476981.725   195152433.428        1475.488          29.000  
C40  35996459.969   187443035.207         109.981          21.000  
C45  24063182.206   125303237.427         578.132          30.000  
E02  23378955.086   122857204.798        -182.733          39.000  
E25  25359982.749   133267634.3931      -2625.818          10.000  
E34  25283628.009   132866161.056        1906.177          28.000  
E36  23422527.222   123086171.285        -342.887          28.000  
G01  23505873.722   123524154.8631      -3064.000          18.000  
G03  21523430.739   113106425.4001      -1407.067          12.000  
G06  21776128.500   114434248.763        2062.841          41.000  
G14  20907059.844   109867218.572       -2355.058          38.000  
G17  20680436.232   108676475.621         -33.753          28.000  
G19  20709536.486   108829183.494        1738.865          32.000  
G22  20810172.018   109358097.580        -798.654          39.000  
J02  37686818.458   198045504.144         447.212          35.000  
J03  39136340.175   205662732.4291       -292.063           6.000  
> 2025 04 24 04 44 45.0003305  0 23                     
C07  35712403.842   185963850.931         188.904          33.000  
C09  39959738.074   208080763.8491      -1843.336          14.000  
C10  36408150.487   189586631.697         411.926          24.000  
C13  39674757.162   206596705.609        1722.883          24.000  
C27  24607128.864   128135936.694       -2258.930          24.000  
C29  23237168.468   121001971.679        1816.387          38.000  
C30  21832947.790   113689840.072        -475.494          26.000  
C36  23350845.571   121593865.020       -2070.459          35.000  
C38  37476695.948   195150942.796        1481.729          29.000  
C40  35996427.517   187442914.002         108.449          21.000  
C45  24063064.612   125302647.398         581.536          29.000  
E02  23378988.288   122857375.482        -182.727          39.000  
E25  25360480.929   133270249.2801      -2625.461           9.000  
E34  25283271.181   132864237.585        1915.128          28.000  
E36  23422596.399   123086503.078        -344.484          29.000  
G01  23506455.544   123527200.8071      -3057.364          15.000  
G06  21775735.997   114432174.338        2065.209          40.000  
G14  20907505.260   109869558.670       -2348.871          38.000  
G17  20680442.153   108676499.465         -35.672          28.000  
G19  20709203.941   108827433.744        1738.212          31.000  
G22  20810322.139   109358882.566        -798.298          40.000  
J02  37686732.043   198045042.626         452.241          33.000  
J03  39136397.361   205663012.098        -291.586          22.000  
> 2025 04 24 04 44 46.0002694  0 24                     
C07  35712366.031   185963646.585         189.161          33.000  
C09  39960094.790   208082589.8551      -1842.857          14.000  
C10  36408072.503   189586204.343         409.841          25.000  
C13  39674425.254   206594968.029        1720.774          23.000  
C27  24607565.025   128138179.399       -2256.851          25.000  
C29  23236816.774   121000140.764        1814.806          39.000  
C30  21833034.692   113690299.038        -475.885          28.000  
C36  23351244.857   121595914.130       -2053.891          35.000  
C38  37476406.911   195149444.506        1483.244          29.000  
C40  35996392.703   187442789.517         107.372          21.000  
C45  24062952.752   125302050.984         580.766          34.000  
E02  23379020.928   122857542.211        -184.356          40.000  
E25  25360975.250   133272858.2401      -2619.710          11.000  
E34  25282906.595   132862310.197        1896.443          27.000  
E36  23422665.913   123086830.803        -347.173          29.000  
G01  23507033.507   123530235.5011      -3052.909          17.000  
G03  21523759.499   113108119.3261      -1352.391          24.000  
G06  21775352.525   114430092.611        2066.602          39.000  
G14  20907949.815   109871892.549       -2350.415          36.000  
G17  20680447.512   108676520.289         -38.423          27.000  
G19  20708875.032   108825683.754        1732.504          30.000  
G22  20810472.597   109359666.020        -798.762          40.000  
J02  37686645.066   198044574.735         451.644          30.000  
J03  39136447.689   205663287.041        -291.337          26.000  
> 2025 04 24 04 44 47.0002084  0 24                     
C07  35712356.887   185963597.503         188.890          33.000  
C09  39960485.569   208084572.0291      -1841.584          14.000  
C10  36408019.890   189585934.624         410.714          25.000  
C13  39674125.012   206593393.695        1715.364          21.000  
C27  24608019.960   128140577.119       -2261.106          29.000  
C29  23236497.945   120998467.340        1814.685          37.000  
C30  21833149.962   113690913.898        -474.934          29.000  
C36  23351675.509   121598105.819       -2071.126          33.000  
C38  37476150.139   195148104.041        1481.224          31.000  
C40  35996392.553   187442822.944         106.425          21.000  
C45  24062871.958   125301613.083         578.719          31.000  
E02  23379087.332   122857868.714        -184.610          40.000  
E11  26328511.788   138357263.7451      -2234.403          21.000  
E25  25361491.043   133275621.046       -2620.086          22.000  
E34  25282567.980   132860544.162        1923.676          28.000  
E36  23422758.699   123087322.718        -348.507          30.000  
G01  23507640.437   123533431.428       -3054.228          20.000  
G06  21774989.626   114428171.284        2061.798          35.000  
G14  20908426.635   109874384.738       -2351.247          34.000  
G17  20680483.337   108676699.714         -36.453          26.000  
G19  20708573.291   108824092.212        1736.575          30.000  
G22  20810653.522   109360606.032        -798.227          40.000  
J02  37686589.754   198044265.139         451.808          24.000  
J03  39136526.684   205663721.302        -291.743          25.000  
> 2025 04 24 04 44 48.0001473  0 25                     
C07  35712323.985   185963396.231         186.945          32.000  
C09  39960833.403   208086399.8021      -1841.609          14.000  
C10  36407941.719   189585508.765         411.625          24.000  
C13  39673797.114   206591664.5161       1715.445          19.000  
C27  24608467.025   128142822.796       -2254.496          25.000  
C29  23236152.059   120996638.660        1815.579          38.000  
C30  21833245.071   113691376.748        -478.556          27.000  
C36  23352072.809   121600164.708       -2072.652          33.000  
C38  37475867.509   195146610.699        1479.355          31.000  
C40  35996364.748   187442702.175         105.541          21.000  
C45  24062765.607   125301021.551         577.431          28.000  
E02  23379120.084   122858040.493        -184.981          40.000  
E11  26328944.464   138359485.101       -2240.040          22.000  
E25  25361902.133   133277695.240       -2618.550          28.000  
E34  25282200.209   132858606.753        1913.554          30.000  
E36  23422821.431   123087654.785        -347.009          32.000  
G01  23508221.509   123536483.4651      -3069.019          20.000  
G03  21524387.489   113111419.2461      -1355.128          25.000  
G06  21774593.675   114426095.948        2061.998          34.000  
G14  20908873.101   109876722.372       -2351.405          33.000  
G17  20680487.009   108676724.274         -38.707          29.000  
G19  20708240.596   108822341.390        1734.431          28.000  
G22  20810804.093   109361391.897        -800.317          40.000  
J02  37686507.986   198043799.5511        451.593          19.000  
J03  39136578.923   205663999.425        -294.319          25.000  
> 2025 04 24 04 44 49.0000862  0 25                     
C07  35712287.560   185963197.910         184.767          32.000  
C09  39961186.109   208088227.5821      -1841.602           8.000  
C10  36407857.927   189585083.409         414.416          26.000  
C13  39673468.991   206589936.6391       1715.884          18.000  
C27  24608904.572   128145062.339       -2252.253          27.000  
C29  23235806.249   120994810.377        1816.917          36.000  
C30  21833338.757   113691845.299        -482.861          26.000  
C36  23352463.588   121602223.304       -2070.085          34.000  
C38  37475582.856   195145118.042        1481.788          29.000  
C40  35996329.222   187442584.711         103.954          22.000  
C45  24062652.735   125300431.594         578.094          30.000  
E02  23379153.811   122858212.445        -184.936          40.000  
E11  26329379.612   138361713.052       -2240.648          25.000  
E25  25362411.330   133280300.510       -2615.267          29.000  
E34  25281834.313   132856685.214        1904.758          29.000  
E36  23422886.636   123087989.547        -346.184          31.000  
G01  23508805.055   123539541.8261      -3072.586          17.000  
G03  21524644.861   113112769.130       -1363.368          31.000  
G06  21774196.300   114424020.169        2064.693          34.000  
G14  20909318.443   109879060.277       -2350.982          33.000  
G17  20680494.054   108676751.268         -39.904          30.000  
G19  20707913.372   108820601.784        1723.849          28.000  
G22  20810955.038   109362178.627        -801.240          41.000  
J02  37686420.896   198043335.6831        452.740          16.000  
J03  39136634.534   205664279.807        -294.971          25.000  
> 2025 04 24 04 44 50.0000251  0 25                     
C07  35712250.986   185962998.384         187.192          32.000  
C09  39961538.965   208090054.7721      -1841.731           8.000  
C10  36407771.287   189584653.798         414.615          27.000  
C13  39673139.819   206588208.3681       1713.041          17.000  
C27  24609329.978   128147302.475       -2259.304          32.000  
C29  23235464.185   120992978.785        1817.980          34.000  
C30  21833441.286   113692317.054        -493.062          27.000  
C36  23352856.017   121604275.476       -2067.196          35.000  
C38  37475296.555   195143621.694        1483.360          26.000  
C40  35996295.646   187442156.799         102.012          23.000  
C45  24062542.111   125299840.469         575.101          31.000  
E02  23379185.589   122858380.949        -184.528          41.000  
E11  26329805.617   138363941.354       -2245.368          25.000  
E25  25362916.781   133282901.473       -2615.695          26.000  
E34  25281465.568   132854765.267        1906.183          31.000  
E36  23422952.590   123088320.800        -348.863          31.000  
G01  23509389.651   123542600.182       -3075.601          20.000  
G03  21524898.485   113114115.555       -1361.022          35.000  
G06  21773797.276   114421942.304        2064.258          36.000  
G14  20909765.133   109881394.915       -2347.596          34.000  
G17  20680499.750   108676778.138         -41.535          31.000  
G19  20707591.095   108818866.891        1722.039          27.000  
G22  20811106.433   109362964.049        -798.759          42.000  
J02  37686333.657   198042868.4411        454.110          15.000  
J03  39136689.696   205664560.114        -293.542          25.000  
> 2025 04 24 04 44 50.9999640  0 25                     
C07  35712211.750   185962794.873         188.561          32.000  
C09  39961893.357   208091880.8311      -1841.354           7.000  
C10  36407689.481   189584222.754         415.032          26.000  
C13  39672809.785   206586485.1521       1706.842          17.000  
C27  24609763.215   128149547.683       -2261.520          33.000  
C29  23235120.661   120991146.307        1817.047          31.000  
C30  21833537.257   113692797.556        -497.573          30.000  
C36  23353244.885   121606323.985       -2063.162          33.000  
C38  37475011.489   195142122.361        1486.181          23.000  
C40  35996260.607   187442040.398          97.419          26.000  
C45  24062427.928   125299253.631         567.271          29.000  
E02  23379219.803   122858549.798        -184.461          41.000  
E11  26330227.163   138366171.814       -2246.910          23.000  
E25  25363415.972   133285499.152       -2611.840          21.000  
E34  25281103.456   132852839.987        1913.904          28.000  
E36  23423015.884   123088654.291        -349.999          32.000  
G01  23509976.382   123545661.333       -3076.971          20.000  
G03  21525156.045   113115463.406       -1364.225          35.000  
G06  21773398.590   114419862.190        2066.261          39.000  
G14  20910209.463   109883725.813       -2345.473          35.000  
G17  20680506.983   108676805.109         -44.548          32.000  
G19  20707263.460   108817403.291        1726.932          27.000  
G22  20811257.566   109363745.346        -797.503          42.000  
J02  37686245.855   198042397.5911        456.223          15.000  
J03  39136743.696   205664836.308        -292.838          27.000  
> 2025 04 24 04 44 51.9999030  0 25                     
C07  35712203.394   185962749.184         187.002          31.000  
C09  39962276.229   208093862.7081      -1841.260           7.000  
C10  36407637.355   189583948.407         427.929          23.000  
C13  39672513.628   206585189.2471       1703.981          12.000  
C27  24610222.535   128151949.314       -2262.067          35.000  
C29  23234805.316   120989473.764        1812.439          28.000  
C30  21833658.710   113693433.475        -492.841          28.000  
C36  23353671.827   121608526.282       -2058.320          32.000  
C38  37474759.701   195140771.802        1504.989          28.000  
C40  35996255.249   187442087.243          92.606          28.000  
C45  24062351.818   125298830.527         564.557          30.000  
E02  23379282.497   122858876.424        -183.564          40.000  
E11  26330685.283   138368563.005       -2252.207          21.000  
E25  25363943.645   133288254.1501      -2609.325          19.000  
E34  25280771.024   132851348.632        1914.274          27.000  
E36  23423113.953   123089148.431        -351.318          31.000  
G01  23510593.992   123548880.215       -3078.183          22.000  
G03  21525445.082   113116972.726       -1368.063          33.000  
G06  21773031.082   114417938.855        2069.160          40.000  
G14  20910684.372   109886211.365       -2339.452          36.000  
G17  20680546.593   108676995.664         -48.283          30.000  
G19  20706964.304   108815819.437        1726.690          27.000  
G22  20811437.479   109364685.202        -794.530          42.000  
J02  37686189.831   198042083.5751        483.698          14.000  
J03  39136828.875   205665272.139        -291.846          25.000  
> 2025 04 24 04 44 52.9998419  0 25                     
C07  35712168.805   185962551.620         185.047          32.000  
C09  39962638.566   208095717.6041      -1867.535           8.000  
C10  36407545.206   189583508.984         421.360          23.000  
C13  39672191.239   206583485.6201       1690.553          13.000  
C27  24610658.321   128154199.685       -2262.907          33.000  
C29  23234455.646   120987652.124        1807.966          29.000  
C30  21833750.334   113693912.169        -489.066          28.000  
C36  23354077.633   121610571.758       -2055.936          32.000  
C38  37474479.583   195139252.862        1506.205          31.000  
C40  35996232.052   187441982.393          93.267          27.000  
C45  24062242.881   125298257.452         562.003          27.000  
E02  23379321.058   122859046.155        -183.756          40.000  
E11  26331117.472   138370805.810       -2255.275          20.000  
E25  25364439.089   133290850.7541      -2606.411          13.000  
E34  25280412.060   132849424.130        1912.264          27.000  
E36  23423174.998   123089487.753        -353.534          31.000  
G01  23511180.873   123551946.740       -3080.096          21.000  
G03  21525702.191   113118330.930       -1372.743          31.000  
G06  21772635.243   114415859.048        2068.049          41.000  
G14  20911128.852   109888536.843       -2336.597          37.000  
G17  20680554.275   108677034.603         -48.256          30.000  
G19  20706639.517   108814084.435        1721.136          26.000  
G22  20811587.863   109365467.945        -794.810          42.000  
J02  37686104.578   198041587.7711        484.792          16.000  
J03  39136883.924   205665552.904        -292.642          24.000  
> 2025 04 24 04 44 53.9997808  0 24                     
C07  35712128.820   185962351.811         185.582          30.000  
C10  36407455.755   189583071.557         422.538          24.000  
C13  39671863.753   206581782.5921       1686.684          14.000  
C27  24611094.406   128156448.414       -2266.389          31.000  
C29  23234108.974   120986101.567        1806.752          27.000  
C30  21833845.556   113694386.773        -490.184          26.000  
C36  23354474.146   121612874.676       -2053.806          33.000  
C38  37474185.374   195137732.740        1506.630          30.000  
C40  35996201.960   187441872.865          95.784          26.000  
C45  24062128.548   125297682.227         559.943          28.000  
E02  23379349.426   122859214.138        -182.298          39.000  
E11  26331546.662   138373046.6771      -2260.077          18.000  
E25  25364933.934   133293440.5621      -2604.001          11.000  
E34  25280046.500   132847495.014        1915.355          29.000  
E36  23423243.538   123089826.316        -355.411          30.000  
G01  23511772.851   123555013.592       -3082.878          23.000  
G03  21525960.200   113119691.251       -1376.427          27.000  
G06  21772238.206   114413774.471        2071.566          39.000  
G14  20911572.432   109890854.800       -2331.471          36.000  
G17  20680562.557   108677068.186         -47.755          31.000  
G19  20706308.733   108812349.115        1721.646          28.000  
G22  20811737.047   109366243.337        -790.810          40.000  
J02  37686014.827   198041088.2211        485.274          16.000  
J03  39136939.273   205665829.233        -294.952          25.000  
> 2025 04 24 04 44 54.9997197  0 25                     
C07  35712091.309   185962150.709         185.304          31.000  
C09  39963521.904   208100545.3211      -1879.683          26.000  
C10  36407374.774   189582632.849         421.637          24.000  
C13  39671535.443   206580081.8581       1683.241          14.000  
C27  24611526.969   128158701.171       -2268.613          30.000  
C29  23233760.577   120984278.746        1808.450          28.000  
C30  21833931.559   113694862.077        -493.142          26.000  
C36  23354878.229   121614911.817       -2053.226          32.000  
C38  37473887.642   195136209.607        1508.314          27.000  
C40  35996171.344   187441759.005          98.393          24.000  
C45  24062022.384   125297107.795         558.455          31.000  
E02  23379385.663   122859379.427        -183.240          40.000  
E11  26331980.424   138375291.4441      -2264.775          17.000  
E25  25365428.554   133296028.0311      -2591.898          10.000  
E34  25279667.226   132845563.803        1917.079          28.000  
E36  23423307.357   123090166.068        -355.960          29.000  
G01  23512361.906   123558080.653       -3085.320          21.000  
G03  21526223.680   113121050.820       -1376.857          24.000  
G06  21771840.943   114411688.322        2069.308          38.000  
G14  20912013.989   109893169.191       -2329.853          36.000  
G17  20680568.815   108677100.816         -49.964          28.000  
G19  20705978.624   108810611.861        1721.597          31.000  
G22  20811885.107   109367018.890        -791.670          39.000  
J02  37685922.754   198040860.0371        486.035          15.000  
J03  39136996.496   205666108.765        -295.933          25.000  
> 2025 04 24 04 44 55.9996586  0 25                     
C07  35712057.432   185961953.540         184.761          31.000  
C09  39963881.356   208102414.614       -1881.699          25.000  
C10  36407298.926   189582197.827         415.527          22.000  
C13  39671203.872   206578388.4681       1679.834          14.000  
C27  24611964.966   128160953.856       -2268.853          32.000  
C29  23233411.619   120982456.922        1809.931          28.000  
C30  21834025.094   113695340.135        -492.521          22.000  
C36  23355277.253   121616952.228       -2054.848          33.000  
C38  37473593.546   195134688.462        1509.437          23.000  
C40  35996147.361   187441384.418          99.811          20.000  
C45  24061921.653   125296536.712         558.265          29.000  
E02  23379417.441   122859550.140        -183.779          40.000  
E11  26332415.123   138377545.2521      -2268.346          16.000  
E25  25365919.314   133298604.992       -2591.883          20.000  
E34  25279296.082   132843632.845        1917.860          28.000  
E36  23423367.315   123090508.030        -357.076          29.000  
G01  23512947.400   123561152.405       -3088.546          23.000  
G03  21526484.500   113122415.234       -1376.979          24.000  
G06  21771442.219   114409606.079        2069.144          38.000  
G14  20912455.283   109895485.127       -2331.823          38.000  
G17  20680576.010   108677138.749         -52.216          29.000  
G19  20705642.257   108808876.988        1722.090          31.000  
G22  20812034.703   109367797.245        -793.162          39.000  
J02  37685831.617   198040361.5821        485.884          15.000  
J03  39137054.356   205666391.098        -296.002          26.000  
> 2025 04 24 04 44 56.9995976  0 25                     
C07  35712052.823   185961912.245         186.036          31.000  
C09  39964267.975   208104439.392       -1882.461          24.000  
C10  36407246.350   189581923.5061        421.766          20.000  
C13  39670897.372   206576851.2241       1679.169          15.000  
C27  24612429.232   128163364.605       -2266.751          32.000  
C29  23233093.726   120980791.399        1808.414          28.000  
C30  21834154.492   113695975.489        -492.096          21.000  
C36  23355701.647   121619148.606       -2054.440          33.000  
C38  37473326.618   195133322.260        1510.208          24.000  
C40  35996148.747   187441426.1631        101.084          19.000  
C45  24061841.796   125296121.082         556.531          29.000  
E02  23379479.686   122859877.157        -183.840          40.000  
E11  26332879.090   138379958.8041      -2260.173           9.000  
E25  25366440.541   133301339.059       -2590.509          20.000  
E34  25278961.102   132841859.433        1917.439          27.000  
E36  23423455.042   123091009.798        -357.172          29.000  
G01  23513563.961   123564385.969       -3091.012          23.000  
G03  21526775.186   113123938.214       -1377.856          23.000  
G06  21771075.161   114407680.934        2070.358          39.000  
G14  20912926.445   109897960.984       -2331.360          38.000  
G17  20680610.674   108677335.372         -50.594          30.000  
G19  20705340.254   108807299.802        1721.063          32.000  
G22  20812213.867   109368732.176        -792.657          39.000  
J02  37685772.145   198040020.7281        484.840          15.000  
J03  39137139.984   205666830.225        -295.400          25.000  
> 2025 04 24 04 44 57.9995365  0 26                     
C07  35712012.163   185961709.234         184.643          30.000  
C09  39964627.239   208106305.661       -1883.056          23.000  
C10  36407163.720   189581483.9741        422.388          19.000  
C13  39670556.620   206575155.6541       1677.835          15.000  
C27  24612863.144   128165614.102       -2267.324          33.000  
C29  23232739.784   120978966.424        1807.915          28.000  
C30  21834252.337   113696449.6431       -492.075          20.000  
C36  23356095.387   121621186.255       -2055.909          33.000  
C38  37473033.234   195131794.835        1510.967          24.000  
C40  35996112.285   187441307.3471        102.492          20.000  
C45  24061733.084   125295547.581         557.175          29.000  
E02  23379513.974   122860044.843        -184.715          40.000  
E11  26333309.704   138382476.1361      -2264.112          13.000  
E16  27444185.261   144220166.9511      -3019.795          16.000  
E25  25366934.412   133303912.5591      -2591.271          19.000  
E34  25278594.868   132839927.563        1915.204          29.000  
E36  23423525.306   123091347.350        -357.288          29.000  
G01  23514153.465   123567460.141       -3093.264          23.000  
G03  21527033.420   113125299.097       -1378.807          22.000  
G06  21770679.547   114405595.082        2068.117          39.000  
G14  20913367.852   109900274.504       -2333.645          39.000  
G17  20680613.184   108677367.830         -50.387          29.000  
G19  20705006.997   108805562.471        1721.115          32.000  
G22  20812362.676   109369508.294        -793.831          39.000  
J02  37685679.022   198039519.7471        484.274          15.000  
J03  39137193.460   205667107.310        -294.641          24.000  
> 2025 04 24 04 44 58.9994754  0 26                     
C07  35711973.378   185961513.932         184.187          30.000  
C09  39964987.477   208108176.747       -1883.591          23.000  
C10  36407081.464   189581049.1561        422.468          19.000  
C13  39670210.847   206573197.6211       1677.730          19.000  
C27  24613292.335   128167869.591       -2267.216          32.000  
C29  23232381.120   120977146.539        1808.871          28.000  
C30  21834339.164   113696928.998        -492.107          23.000  
C36  23356492.499   121623229.156       -2056.780          35.000  
C38  37472747.719   195130273.218        1509.534          26.000  
C40  35996079.795   187441192.1941        103.111          20.000  
C45  24061628.943   125294978.759         556.582          30.000  
E02  23379549.537   122860218.141        -185.608          39.000  
E11  26333742.192   138384727.9611      -2262.105          12.000  
E16  27444750.857   144223175.4241      -3019.746          15.000  
E25  25367432.255   133306756.1161      -2592.689          19.000  
E34  25278226.311   132838002.364        1914.390          31.000  
E36  23423592.647   123091693.039        -358.113          29.000  
G01  23514745.743   123570822.415       -3094.964          24.000  
G03  21527294.726   113126668.0251      -1379.912          20.000  
G06  21770287.906   114403516.167        2068.279          40.000  
G14  20913812.331   109902596.167       -2333.007          39.000  
G17  20680618.768   108677408.550         -52.502          26.000  
G19  20704673.515   108803830.174        1721.269          31.000  
G22  20812510.961   109370290.908        -795.664          38.000  
J02  37685591.071   198039024.5351        483.514          14.000  
J03  39137253.006   205667390.095        -294.243          24.000  
> 2025 04 24 04 45 00.0004143  0 26                     
C07  35711953.142   185961409.788         183.486          31.000  
C09  39965366.865   208110143.717       -1883.269          23.000  
C10  36407024.354   189580706.304         420.996          25.000  
C13  39669805.977   206571089.394        1678.111          21.000  
C27  24613744.871   128170217.644       -2267.414          33.000  
C29  23232064.389   120975417.821        1806.417          27.000  
C30  21834438.845   113697501.527        -491.858          29.000  
C36  23356842.207   121625367.671       -2057.832          33.000  
C38  37472476.557   195128844.327        1506.510          26.000  
C40  35996069.752   187441167.8421        103.211          19.000  
C45  24061537.657   125294503.509         555.183          26.000  
E02  23379598.253   122860484.240        -186.018          39.000  
E11  26334190.832   138387074.1041      -2261.871          13.000  
E16  27445341.598   144226279.5221      -3020.466          13.000  
E25  25367942.052   133309432.5201      -2593.015          19.000  
E34  25277893.691   132836167.908        1913.754          33.000  
E36  23423687.831   123092132.661        -358.553          28.000  
G01  23515356.270   123574000.618       -3094.747          24.000  
G03  21527574.583   113128129.6161      -1380.636          18.000  
G06  21769913.315   114401527.601        2066.486          41.000  
G14  20914272.663   109905011.791       -2336.498          38.000  
G17  20680646.199   108677542.713         -53.676          31.000  
G19  20704360.982   108802189.061        1719.969          32.000  
G22  20812680.494   109371169.739        -797.375          40.000  
J02  37685518.671   198038622.6801        481.699          15.000  
J03  39137326.305   205668036.890        -293.776          22.000  
> 2025 04 24 04 45 01.0003532  0 25                     
C07  35711917.504   185961210.504         184.363          30.000  
C09  39965725.754   208112011.584       -1882.517          22.000  
C10  36406933.854   189580269.255         420.770          26.000  
C13  39669414.486   206569050.794        1676.699          23.000  
C27  24614178.709   128172467.669       -2267.629          34.000  
C29  23231720.565   120973595.865        1806.287          27.000  
C30  21834537.814   113697978.411        -493.723          28.000  
C36  23357247.264   121627410.964       -2057.727          35.000  
C38  37472185.796   195127323.177        1505.343          27.000  
C40  35996037.712   187441049.614          99.773          25.000  
C45  24061414.180   125293933.286         555.017          26.000  
E02  23379633.666   122860654.527        -186.828          40.000  
E11  26334613.576   138389322.0061      -2262.025          19.000  
E25  25368437.046   133312008.4391      -2593.710          19.000  
E34  25277517.189   132834239.105        1914.211          32.000  
E36  23423762.816   123092474.746        -359.237          29.000  
G01  23515944.500   123577077.846       -3093.996          23.000  
G03  21527836.039   113129495.093       -1381.292          25.000  
G06  21769518.826   114399445.368        2066.745          43.000  
G14  20914715.494   109907331.216       -2336.869          37.000  
G17  20680660.027   108677580.952         -53.954          29.000  
G19  20704032.746   108800455.804        1718.719          32.000  
G22  20812831.027   109371948.402        -797.652          41.000  
J02  37685422.175   198038126.4141        480.444          15.000  
J03  39137381.804   205668314.247        -294.420          26.000  
> 2025 04 24 04 45 02.0002921  0 25                     
C07  35711882.878   185961011.883         183.137          29.000  
C09  39966090.751   208113878.423       -1882.376          20.000  
C10  36406846.764   189579833.137         421.057          27.000  
C13  39669120.539   206567357.945        1677.962          25.000  
C27  24614614.457   128174721.298       -2269.406          35.000  
C29  23231366.959   120971776.117        1805.247          29.000  
C30  21834643.791   113698719.565        -494.973          28.000  
C36  23357646.138   121629453.137       -2058.934          32.000  
C38  37471904.740   195125804.091        1504.503          29.000  
C40  35996012.679   187440934.949          97.682          23.000  
C45  24061311.800   125293364.473         552.681          27.000  
E02  23379666.194   122860825.475        -187.117          39.000  
E11  26335034.035   138391568.7791      -2264.992          18.000  
E25  25368941.447   133314587.9811      -2592.965          14.000  
E34  25277165.083   132832309.792        1914.438          31.000  
E36  23423823.524   123092818.135        -358.736          30.000  
G01  23516525.348   123580156.273       -3093.754          23.000  
G03  21528097.908   113130862.579       -1381.930          26.000  
G06  21769122.950   114397363.993        2066.547          42.000  
G14  20915159.037   109909651.375       -2335.290          37.000  
G17  20680671.569   108677619.959         -53.946          31.000  
G19  20703705.523   108798721.034        1721.303          33.000  
G22  20812981.073   109372731.181        -796.864          41.000  
J02  37685326.691   198037631.6831        479.447          10.000  
J03  39137436.217   205668594.088        -295.908          27.000  
> 2025 04 24 04 45 03.0002311  0 26                     
C07  35711874.559   185960975.390         181.969          29.000  
C09  39966480.856   208115905.992       -1883.062          22.000  
C10  36406793.776   189579557.269         419.948          27.000  
C13  39668842.407   206565825.520        1677.362          26.000  
C27  24615076.812   128177136.225       -2269.407          34.000  
C29  23231060.047   120970116.972        1804.864          29.000  
C30  21834755.688   113699359.243        -495.162          29.000  
C36  23358085.409   121631656.737       -2058.055          30.000  
C38  37471643.696   195124445.306        1505.248          24.000  
C40  35996002.561   187440630.405          93.658          24.000  
C45  24061237.227   125292959.198         550.736          25.000  
E02  23379731.024   122861161.032        -188.268          39.000  
E11  26335505.984   138393980.5721      -2267.408          17.000  
E16  27446794.355   144233877.6961      -3022.766          19.000  
E25  25369478.151   133317326.2551      -2592.464          14.000  
E34  25276822.195   132830543.499        1910.798          28.000  
E36  23423929.126   123093321.807        -359.563          30.000  
G01  23517144.794   123583396.530       -3093.738          23.000  
G03  21528390.281   113132390.887       -1383.920          29.000  
G06  21768759.376   114395445.156        2066.151          42.000  
G14  20915633.383   109912135.128       -2337.214          38.000  
G17  20680712.116   108677820.695         -54.360          28.000  
G19  20703405.206   108797147.479        1719.573          30.000  
G22  20813162.223   109373673.446        -798.463          40.000  
J02  37685271.604   198037311.3491        467.186          10.000  
J03  39137522.332   205669036.039        -296.059          26.000  
> 2025 04 24 04 45 04.0001700  0 26                     
C07  35711838.471   185960779.091         184.532          30.000  
C09  39966840.495   208117775.867       -1882.818          25.000  
C10  36406708.223   189579123.726         419.316          25.000  
C13  39668530.810   206564448.810        1677.871          28.000  
C27  24615513.197   128179389.781       -2267.845          35.000  
C29  23230713.074   120968299.356        1805.062          30.000  
C30  21834842.216   113699839.948        -494.910          29.000  
C36  23358497.811   121633699.866       -2058.409          30.000  
C38  37471363.877   195123223.912        1507.224          26.000  
C40  35995976.966   187440523.603          91.487          24.000  
C45  24061136.085   125292394.893         551.719          24.000  
E02  23379765.388   122861335.951        -188.352          39.000  
E11  26335932.176   138396234.9061      -2264.336          16.000  
E16  27447371.643   144236887.6811      -3023.001          18.000  
E25  25369978.992   133319906.5271      -2594.337          15.000  
E34  25276450.040   132828619.501        1913.533          25.000  
E36  23423994.968   123093669.489        -361.957          27.000  
G01  23517736.472   123586475.120       -3093.018          22.000  
G03  21528582.635   113133464.738       -1383.638          26.000  
G06  21768367.435   114393366.522        2065.602          43.000  
G14  20916077.563   109914729.171       -2337.717          38.000  
G17  20680722.796   108677862.786         -54.632          31.000  
G19  20703078.320   108795416.637        1718.030          30.000  
G22  20813312.906   109374458.186        -799.292          40.000  
J02  37685189.649   198036830.5051        468.337          11.000  
J03  39137574.983   205669317.604        -296.086          24.000  
> 2025 04 24 04 45 05.0001089  0 26                     
C07  35711801.147   185960579.122         182.205          29.000  
C09  39967195.899   208119643.073       -1882.250          24.000  
C10  36406625.330   189578686.995         419.588          24.000  
C13  39668209.882   206562754.759        1676.910          28.000  
C27  24615943.549   128181641.876       -2270.995          38.000  
C29  23230358.270   120966477.975        1804.325          33.000  
C30  21834928.706   113700317.750        -494.665          29.000  
C36  23358897.284   121635741.456       -2059.780          32.000  
C38  37471093.015   195121700.906        1504.745          26.000  
C40  35995961.827   187440415.603          90.687          24.000  
C45  24061032.806   125292111.340         553.205          22.000  
E02  23379800.314   122861507.105        -189.341          39.000  
E11  26336358.631   138398480.7701      -2263.275          17.000  
E16  27447953.989   144239894.3191      -3022.591          18.000  
E25  25370475.898   133322750.5491      -2597.323          15.000  
E34  25276087.441   132826689.946        1912.586          26.000  
E36  23424059.573   123094011.649        -360.840          30.000  
G01  23518327.813   123589550.702       -3093.205          20.000  
G03  21528849.900   113134832.028       -1384.901          28.000  
G06  21767971.559   114391284.560        2063.313          43.000  
G14  20916521.106   109917049.725       -2340.183          36.000  
G17  20680731.940   108677901.602         -54.775          28.000  
G19  20702748.998   108793682.162        1717.458          29.000  
G22  20813463.552   109375239.566        -801.608          40.000  
J02  37685105.257   198036341.3861        471.346          16.000  
J03  39137628.196   205669597.792        -296.810          23.000  
> 2025 04 24 04 45 06.0000478  0 26                     
C07  35711769.969   185960382.959         183.173          29.000  
C09  39967560.146   208121509.972       -1882.686          22.000  
C10  36406545.885   189578252.469         419.653          24.000  
C13  39667888.505   206561064.975        1676.617          28.000  
C27  24616374.951   128183894.947       -2269.249          39.000  
C29  23230011.710   120964659.306        1804.959          32.000  
C30  21835023.740   113700797.124        -496.519          28.000  
C36  23359295.109   121637786.013       -2059.787          33.000  
C38  37470733.863   195120182.597        1506.893          24.000  
C40  35995856.899   187439872.632          89.545          25.000  
C45  24060922.482   125291545.372         545.499          24.000  
E02  23379835.389   122861681.539        -190.151          38.000  
E11  26336775.342   138400730.060       -2263.391          20.000  
E16  27448535.887   144242900.7191      -3022.345          17.000  
E25  25370979.849   133325333.8101      -2595.271          15.000  
E34  25275714.799   132824763.762        1912.809          31.000  
E36  23424133.322   123094651.599        -360.937          29.000  
G01  23518915.706   123592629.3601      -3094.175          19.000  
G03  21529120.912   113136202.818       -1384.987          29.000  
G06  21767577.032   114389207.838        2065.451          43.000  
G14  20916965.399   109919375.471       -2340.164          34.000  
G17  20680741.833   108677942.438         -55.002          30.000  
G19  20702417.127   108791951.072        1718.622          30.000  
G22  20813614.047   109376026.981        -798.458          40.000  
J02  37685028.510   198036160.868         469.117          21.000  
J03  39137682.759   205669879.653        -296.259          25.000  
> 2025 04 24 04 45 06.9999867  0 26                     
C07  35711724.363   185960183.766         188.643          28.000  
C09  39967930.952   208123380.944       -1881.924          21.000  
C10  36406467.902   189577819.099         420.768          23.000  
C13  39667568.289   206559374.630        1679.151          27.000  
C27  24616805.115   128186148.441       -2265.573          37.000  
C29  23229656.418   120962839.472        1809.657          30.000  
C30  21835120.236   113701279.263        -494.796          29.000  
C36  23359698.892   121639831.908       -2056.916          30.000  
C38  37470457.717   195118662.948        1505.742          26.000  
C40  35995844.271   187439768.612          91.022          23.000  
C45  24060800.729   125290985.212         549.541          26.000  
E02  23379867.130   122861857.263        -188.223          38.000  
E11  26337203.109   138402978.9991      -2260.192          17.000  
E16  27449113.249   144245907.6691      -3019.342          17.000  
E25  25371470.871   133327916.2221      -2598.036          15.000  
E34  25275342.120   132822837.689        1913.899          32.000  
E36  23424204.636   123094998.897        -360.849          27.000  
G01  23519510.457   123595709.890       -3093.001          21.000  
G03  21529389.489   113137575.213       -1384.646          27.000  
G06  21767181.569   114387128.141        2067.094          43.000  
G14  20917408.155   109921699.798       -2336.395          32.000  
G17  20680747.791   108677983.353         -53.582          30.000  
G19  20702083.421   108790218.260        1720.596          35.000  
G22  20813761.808   109376810.144        -797.232          38.000  
J02  37684950.227   198035677.489         471.823          21.000  
J03  39137735.784   205670160.516        -293.705          27.000  
> 2025 04 24 04 45 07.9999257  0 26                     
C07  35711718.367   185960137.680         183.398          27.000  
C09  39968321.282   208125400.752       -1880.588          22.000  
C10  36406417.237   189577537.430         421.326          25.000  
C13  39667274.492   206557834.149        1682.200          27.000  
C27  24617262.899   128188555.497       -2267.235          36.000  
C29  23229336.840   120961170.026        1810.646          27.000  
C30  21835240.752   113701912.099        -491.427          30.000  
C36  23360115.603   121642027.986       -2058.733          33.000  
C38  37470225.977   195117296.888        1509.913          25.000  
C40  35995858.661   187439817.193          91.691          23.000  
C45  24060716.787   125290574.376         553.333          28.000  
E02  23379931.885   122862184.763        -187.729          37.000  
E11  26337660.892   138405379.6271      -2260.190          17.000  
E16  27449722.727   144249067.5871      -3019.007          17.000  
E25  25371997.906   133330654.6521      -2596.212          14.000  
E34  25275011.449   132821066.011        1913.472          32.000  
E36  23424296.372   123095499.883        -359.374          32.000  
G01  23520131.027   123598940.7481      -3091.164          17.000  
G03  21529684.784   113139102.587       -1384.804          32.000  
G06  21766817.921   114385202.797        2065.493          44.000  
G14  20917885.124   109924175.880       -2335.015          31.000  
G17  20680787.664   108678179.597         -53.565          27.000  
G19  20701786.926   108788639.140        1721.555          32.000  
G22  20813944.981   109378018.651        -798.562          38.000  
J02  37684900.161   198035345.673         473.290          25.000  
J03  39137819.726   205670593.154        -291.381          28.000  
> 2025 04 24 04 45 08.9998646  0 26                     
C07  35711682.879   185959941.472         185.047          27.000  
C09  39968678.522   208127267.819       -1879.096          24.000  
C10  36406332.883   189577101.844         422.729          26.000  
C13  39666951.204   206556138.899        1682.574          28.000  
C27  24617701.382   128190808.125       -2266.879          36.000  
C29  23228990.467   120959348.011        1807.355          33.000  
C30  21835311.391   113702389.594        -494.081          34.000  
C36  23360508.219   121644073.044       -2058.112          30.000  
C38  37469936.265   195115774.638        1508.985          27.000  
C40  35995827.070   187439710.756          93.260          26.000  
C45  24060618.343   125290007.487         553.417          28.000  
E02  23379970.446   122862359.762        -188.592          38.000  
E11  26338085.285   138407626.612       -2261.036          23.000  
E16  27450307.210   144252337.5661      -3018.591          11.000  
E25  25372499.946   133333236.6581      -2592.716          15.000  
E34  25274645.889   132819139.922        1913.462          34.000  
E36  23424368.809   123095844.319        -358.742          31.000  
G01  23520717.309   123602017.574       -3091.229          20.000  
G03  21529956.884   113140472.700       -1384.064          32.000  
G06  21766424.780   114383123.834        2066.023          45.000  
G14  20918319.411   109926498.853       -2337.310          33.000  
G17  20680799.243   108678218.659         -53.281          24.000  
G19  20701454.044   108786906.049        1720.139          29.000  
G22  20814094.765   109378803.372        -798.804          40.000  
J02  37684817.906   198034860.478         471.270          26.000  
J03  39137876.874   205670871.308        -291.451          24.000  
> 2025 04 24 04 45 09.9998035  0 26                     
C07  35711646.754   185959743.428         183.833          29.000  
C09  39969043.519   208129133.367       -1883.342          25.000  
C10  36406248.191   189576664.723         422.290          25.000  
C13  39666626.678   206554444.976        1678.982          29.000  
C27  24618138.930   128193062.051       -2270.831          36.000  
C29  23228644.357   120957528.286        1805.173          34.000  
C30  21835403.877   113702872.302        -497.704          34.000  
C36  23360896.600   121646117.317       -2061.937          30.000  
C38  37469666.002   195114253.971        1504.646          28.000  
C40  35995802.937   187439601.320          95.350          28.000  
C45  24060513.566   125289442.255         549.960          27.000  
E02  23380003.873   122862535.544        -189.896          38.000  
E11  26338517.736   138409872.658       -2261.996          25.000  
E16  27450880.264   144255340.9051      -3017.981           9.000  
E25  25373006.745   133335815.4621      -2594.179          15.000  
E34  25274302.477   132817214.310        1910.895          36.000  
E36  23424432.815   123096190.624        -360.712          31.000  
G01  23521299.656   123605095.8671      -3091.604          18.000  
G03  21530231.343   113142128.701       -1386.505          31.000  
G06  21766029.804   114381045.477        2062.580          44.000  
G14  20918759.057   109928822.049       -2340.623          32.000  
G17  20680809.886   108678260.022         -53.386          22.000  
G19  20701124.722   108785173.862        1717.275          28.000  
G22  20814246.010   109379588.843        -803.004          40.000  
J02  37684732.315   198034376.672         469.797          26.000  
J03  39137933.385   205671153.5211       -296.932          19.000  
> 2025 04 24 04 45 18.0003148  0 26                     
C03  37296122.632   194210697.4321         71.846          35.000  
C07  35711398.413   185958410.740         183.032          29.000  
C10  36405628.108   189573432.942         421.174          22.000  
C13  39664087.624   206541153.343        1678.303          30.000  
C27  24621665.576   128211346.527       -2270.131          37.000  
C29  23225906.839   120943227.509        1803.284          36.000  
C30  21836206.309   113706973.968        -498.436          34.000  
C36  23364052.403   121662746.991       -2062.200          26.000  
C38  37467458.218   195102886.174        1505.311          29.000  
C40  35995640.037   187438972.873          95.304          25.000  
C45  24059709.710   125285207.992         544.438          30.000  
E02  23380335.331   122864491.512        -194.566          39.000  
E11  26342014.103   138428109.512       -2263.814          26.000  
E16  27455660.642   144280470.4061      -3022.151          18.000  
E25  25377018.755   133357133.493       -2597.055          26.000  
E34  25271398.275   132802067.682        1910.242          34.000  
E36  23425046.678   123099219.765        -362.940          22.000  
G01  23526040.761   123629991.9131      -3094.752          17.000  
G03  21532401.728   113153392.917       -1392.824          28.000  
G06  21762925.041   114364685.029        2060.036          45.000  
G14  20922358.852   109947689.609       -2344.530          31.000  
G17  20680936.286   108678854.608         -57.921          26.000  
G19  20698549.392   108771580.918        1715.724          20.000  
G22  20815509.223   109386152.949        -806.568          39.000  
J02  37684066.064   198031102.952         468.798          28.000  
J03  39138424.033   205673638.188        -295.478          25.000  
> 2025 04 24 04 45 18.0003148  0 26                     
C03  37296122.632   194210697.432          71.846          35.000  
C07  35711398.413   185958410.740         183.032          29.000  
C10  36405628.108   189573432.942         421.174          22.000  
C13  39664087.624   206541153.343        1678.303          30.000  
C27  24621665.576   128211346.527       -2270.131          37.000  
C29  23225906.839   120943227.509        1803.284          36.000  
C30  21836206.309   113706973.968        -498.436          34.000  
C36  23364052.403   121662746.991       -2062.200          26.000  
C38  37467458.218   195102886.174        1505.311          29.000  
C40  35995640.037   187438972.873          95.304          25.000  
C45  24059709.710   125285207.992         544.438          30.000  
E02  23380335.331   122864491.512        -194.566          39.000  
E11  26342014.103   138428109.512       -2263.814          26.000  
E16  27455660.642   144280470.4061      -3022.151          18.000  
E25  25377018.755   133357133.493       -2597.055          26.000  
E34  25271398.275   132802067.682        1910.242          34.000  
E36  23425046.678   123099219.765        -362.940          22.000  
G01  23526040.761   123629991.9131      -3094.752          17.000  
G03  21532401.728   113153392.917       -1392.824          28.000  
G06  21762925.041   114364685.029        2060.036          45.000  
G14  20922358.852   109947689.609       -2344.530          31.000  
G17  20680936.286   108678854.608         -57.921          26.000  
G19  20698549.392   108771580.918        1715.724          20.000  
G22  20815509.223   109386152.949        -806.568          39.000  
J02  37684066.064   198031102.952         468.798          28.000  
J03  39138424.033   205673638.188        -295.478          25.000  
> 2025 04 24 04 45 19.0002538  0 26                     
C03  37296137.546   194210770.567          71.722          35.000  
C07  35711389.644   185958370.971         184.004          29.000  
C10  36405573.171   189573154.220         421.627          22.000  
C13  39663791.953   206539619.020        1678.593          30.000  
C27  24622131.378   128213758.477       -2267.780          37.000  
C29  23225588.385   120941567.634        1805.802          37.000  
C30  21836336.044   113707614.528        -494.851          34.000  
C36  23364477.734   121664953.807       -2063.517          25.000  
C38  37467188.630   195101525.361        1505.137          29.000  
C40  35995638.163   187438733.202          94.138          26.000  
C45  24059623.894   125284806.546         545.800          32.000  
E02  23380402.409   122864830.167        -194.364          40.000  
E11  26342482.304   138430517.097       -2263.245          24.000  
E16  27456255.955   144283638.783       -3021.935          20.000  
E25  25377543.018   133359876.632       -2596.706          26.000  
E34  25271068.129   132800303.996        1909.190          35.000  
E36  23425151.230   123100001.052        -363.088          21.000  
G01  23526663.055   123633230.4451      -3094.827          16.000  
G03  21532697.249   113154930.356       -1392.758          27.000  
G06  21762562.816   114363038.701        2062.825          45.000  
G14  20922836.047   109950178.268       -2344.599          27.000  
G17  20680976.983   108679056.925         -58.181          22.000  
G19  20698256.120   108770010.137        1715.802          20.000  
G22  20815691.122   109387102.456        -804.704          38.000  
J02  37684007.829   198030779.106         469.199          27.000  
J03  39138510.298   205674077.775        -295.737          23.000  
> 2025 04 24 04 45 20.0001927  0 26                     
C03  37296120.870   194210682.407          75.534          36.000  
C07  35711353.482   185958171.781         185.193          29.000  
C10  36405491.140   189572717.251         421.330          22.000  
C13  39663467.990   206537925.559        1679.584          29.000  
C27  24622567.089   128216009.891       -2268.447          37.000  
C29  23225238.939   120939747.240        1805.403          35.000  
C30  21836431.191   113708093.365        -495.591          34.000  
C36  23364869.975   121667000.298       -2063.583          26.000  
C38  37466910.835   195100004.513        1507.382          27.000  
C40  35995616.691   187438623.554          94.439          24.000  
C45  24059516.081   125284246.943         546.336          33.000  
E02  23380434.300   122865007.994        -194.182          39.000  
E11  26342910.820   138432763.968       -2262.061          24.000  
E16  27456823.574   144286643.654       -3021.825          20.000  
E25  25378042.884   133362456.932       -2596.525          26.000  
E34  25270709.090   132798379.038        1910.341          36.000  
E36  23425220.295   123100347.962        -362.984          22.000  
G01  23527251.960   123636309.654       -3094.556          22.000  
G03  21532961.179   113156308.199       -1392.152          28.000  
G06  21762170.201   114360961.419        2061.461          45.000  
G14  20923282.251   109952505.899       -2342.207          32.000  
G17  20680987.588   108679098.333         -58.840          26.000  
G19  20697930.059   108768279.553        1716.598          27.000  
G22  20815841.730   109387891.618        -805.634          39.000  
J02  37683919.503   198030295.381         469.706          27.000  
J03  39138563.474   205674356.574        -291.337          27.000  
> 2025 04 24 04 45 21.0001316  0 26                     
C03  37296105.131   194210596.023          73.895          36.000  
C07  35711317.357   185957975.424         185.706          31.000  
C10  36405403.751   189572283.357         421.601          24.000  
C13  39663141.066   206536233.851        1680.920          29.000  
C27  24623002.538   128218265.516       -2266.134          36.000  
C29  23224889.831   120937930.036        1806.470          34.000  
C30  21836529.073   113708576.900        -495.789          33.000  
C36  23365276.043   121669050.261       -2063.627          27.000  
C38  37466629.180   195098486.452        1506.205          27.000  
C40  35995593.157   187438515.765          96.148          22.000  
C45  24059406.507   125283690.447         546.189          33.000  
E02  23380470.425   122865188.139        -193.105          39.000  
E11  26343327.082   138435012.938       -2261.411          25.000  
E16  27457402.923   144289654.2741      -3020.967          20.000  
E25  25378545.486   133365042.476       -2596.683          24.000  
E34  25270354.885   132796456.193        1911.040          38.000  
E36  23425291.795   123100699.499        -363.395          23.000  
G01  23527845.999   123639664.963       -3091.741          24.000  
G03  21533223.347   113157690.252       -1391.977          26.000  
G06  21761777.922   114358888.266        2061.606          45.000  
G14  20923726.693   109954834.866       -2342.617          33.000  
G17  20681000.329   108679144.355         -58.985          25.000  
G19  20697607.632   108766551.499        1715.804          32.000  
G22  20815993.875   109388684.974        -805.137          39.000  
J02  37683831.514   198029812.926         471.878          27.000  
J03  39138614.588   205674636.010        -292.008          27.000  
> 2025 04 24 04 45 22.0000705  0 26                     
C03  37296088.380   194210507.025          73.864          36.000  
C07  35711282.918   185957774.685         185.702          31.000  
C10  36405314.750   189571844.838         423.115          25.000  
C13  39662814.030   206534537.440        1681.629          28.000  
C27  24623436.974   128220515.266       -2265.794          37.000  
C29  23224541.509   120936108.362        1806.514          36.000  
C30  21836636.436   113709056.733        -495.263          29.000  
C36  23365692.193   121671097.975       -2062.522          29.000  
C38  37466338.419   195096964.765        1506.647          27.000  
C40  35995573.108   187438402.564          97.196          22.000  
C45  24059301.317   125283128.934         546.936          31.000  
E02  23380506.137   122865365.950        -193.387          39.000  
E11  26343753.424   138437257.492       -2260.542          25.000  
E16  27457978.262   144292659.0421      -3019.715          19.000  
E25  25379044.978   133367622.823       -2595.456          23.000  
E34  25269995.171   132794528.885        1911.812          36.000  
E36  23425351.791   123101045.677        -362.582          24.000  
G01  23528436.927   123642738.783       -3091.387          24.000  
G03  21533480.906   113159066.390       -1391.765          30.000  
G06  21761384.032   114356811.181        2063.130          45.000  
G14  20924166.226   109957162.384       -2344.170          30.000  
G17  20681007.861   108679187.192         -57.420          27.000  
G19  20697284.493   108764820.120        1717.164          31.000  
G22  20816143.209   109389472.900        -803.793          39.000  
J02  37683743.112   198029324.955         474.542          27.000  
J03  39138668.888   205674911.706        -291.522          25.000  
> 2025 04 24 04 45 23.0000094  0 26                     
C03  37296073.203   194210418.850          77.681          36.000  
C07  35711245.557   185957574.859         187.392          31.000  
C10  36405229.721   189571407.408         425.122          26.000  
C13  39662487.069   206532842.623        1681.107          28.000  
C27  24623869.687   128222766.508       -2266.442          37.000  
C29  23224194.462   120934288.516        1807.724          37.000  
C30  21836739.078   113709537.235        -494.544          27.000  
C36  23366096.126   121673146.170       -2060.841          28.000  
C38  37466035.141   195095444.203        1507.386          28.000  
C40  35995548.638   187438289.994          99.582          22.000  
C45  24059195.903   125282569.391         545.388          31.000  
E02  23380538.927   122865543.785        -193.183          38.000  
E11  26344186.437   138439503.209       -2258.435          25.000  
E16  27458545.582   144295663.3121      -3018.793          14.000  
E25  25379536.750   133370204.370       -2594.276          22.000  
E34  25269635.233   132792603.428        1911.934          35.000  
E36  23425412.462   123101393.634        -360.579          26.000  
G01  23529027.930   123645815.374       -3090.150          25.000  
G03  21533739.440   113160443.871       -1390.576          31.000  
G06  21760989.618   114354734.412        2063.239          44.000  
G14  20924606.734   109959492.916       -2344.071          29.000  
G17  20681007.674   108679230.143         -55.677          27.000  
G19  20696959.630   108763088.310        1718.003          32.000  
G22  20816292.318   109390262.325        -805.108          38.000  
J02  37683653.887   198028837.113         473.780          27.000  
J03  39138719.965   205675187.397        -290.447          26.000  
> 2025 04 24 04 45 23.9999484  0 26                     
C03  37296086.619   194210485.870          74.796          36.000  
C07  35711237.387   185957530.945         187.198          29.000  
C10  36405175.384   189571125.996         424.491          26.000  
C13  39662192.298   206531304.930        1680.895          28.000  
C27  24624335.190   128225174.582       -2265.390          37.000  
C29  23223878.106   120932624.712        1806.760          37.000  
C30  21836865.215   113710174.490        -495.606          25.000  
C36  23366526.553   121675634.902       -2062.613          29.000  
C38  37465758.657   195094080.240        1506.774          30.000  
C40  35995548.263   187438333.285          98.892          23.000  
C45  24059119.681   125282168.648         543.734          32.000  
E02  23380606.605   122865883.042        -193.345          38.000  
E11  26344637.549   138441905.501       -2262.185          26.000  
E16  27459147.790   144298824.4321      -3017.924          12.000  
E25  25380056.215   133372942.477       -2595.696          21.000  
E34  25269299.990   132790836.432        1911.475          34.000  
E36  23425495.729   123101898.114        -361.511          29.000  
G01  23529646.627   123649049.346       -3089.687          26.000  
G03  21534031.063   113161980.388       -1393.562          31.000  
G06  21760624.995   114352817.344        2061.190          44.000  
G14  20925081.530   109961978.744       -2343.789          32.000  
G17  20681040.576   108679429.417         -55.532          28.000  
G19  20696662.461   108761516.412        1715.747          32.000  
G22  20816473.318   109391212.989        -806.385          39.000  
J02  37683593.853   198028509.443         471.518          26.000  
J03  39138801.734   205675621.826        -291.775          28.000  
> 2025 04 24 04 45 24.9998873  0 26                     
C03  37296069.081   194210394.307          78.855          35.000  
C07  35711198.564   185957328.973         187.566          28.000  
C10  36405086.196   189570686.751         424.411          26.000  
C13  39661866.873   206529608.952        1681.619          28.000  
C27  24624770.639   128227426.496       -2265.571          37.000  
C29  23223531.096   120930803.602        1806.960          37.000  
C30  21836958.900   113710652.877        -495.600          27.000  
C36  23366927.825   121677681.872       -2062.495          30.000  
C38  37465451.520   195092558.334        1507.514          31.000  
C40  35995514.536   187438218.532          99.333          23.000  
C45  24059012.505   125281609.332         545.436          32.000  
E02  23380643.030   122866061.249        -193.940          39.000  
E11  26345068.801   138444150.582       -2259.841          26.000  
E16  27459723.541   144301826.7881      -3017.554          11.000  
E25  25380541.429   133375523.947       -2595.290          21.000  
E34  25268934.693   132788910.170        1912.260          35.000  
E36  23425552.840   123102242.433        -361.194          32.000  
G01  23530234.370   123652123.335       -3090.535          26.000  
G03  21534296.829   113163359.570       -1394.482          31.000  
G06  21760230.319   114350740.008        2062.926          44.000  
G14  20925530.169   109964306.254       -2341.965          33.000  
G17  20681045.822   108679468.600         -53.912          27.000  
G19  20696335.837   108759784.633        1718.836          32.000  
G22  20816625.463   109392003.390        -805.009          39.000  
J02  37683502.567   198028024.689         470.346          26.000  
J03  39138852.549   205675896.803        -290.045          29.000  
> 2025 04 24 04 45 25.9998262  0 26                     
C03  37296052.930   194210300.936          78.746          36.000  
C07  35711161.727   185957390.367         187.101          29.000  
C10  36405002.591   189570247.235         424.200          25.000  
C13  39661541.036   206527911.865        1682.124          27.000  
C27  24625202.977   128229674.554       -2265.427          37.000  
C29  23223184.874   120928981.575        1806.583          37.000  
C30  21837050.974   113711132.521        -495.901          27.000  
C36  23367330.184   121679728.784       -2062.920          30.000  
C38  37465155.662   195091036.499        1506.485          31.000  
C40  35995487.293   187438103.389          98.243          21.000  
C45  24058909.713   125281049.123         544.533          32.000  
E02  23380677.844   122866238.277        -194.170          39.000  
E11  26345492.145   138446394.314       -2259.357          25.000  
E16  27460293.784   144304826.8471      -3017.029          10.000  
E25  25381023.833   133378103.098       -2595.107          23.000  
E34  25268571.382   132786983.495        1911.330          36.000  
E36  23425627.226   123102589.387        -362.768          32.000  
G01  23530822.301   123655198.058       -3091.800          25.000  
G03  21534565.780   113164738.771       -1395.220          33.000  
G06  21759836.429   114348663.780        2061.299          45.000  
G14  20925980.495   109966634.129       -2344.328          33.000  
G17  20681051.256   108679508.029         -56.584          30.000  
G19  20696008.501   108758051.812        1716.036          32.000  
G22  20816777.195   109392793.684        -807.059          40.000  
J02  37683410.568   198027538.477         472.415          25.000  
J03  39138906.249   205676172.196        -289.464          24.000  
> 2025 04 24 04 45 26.9997651  0 25                     
C03  37296035.842   194210209.855          76.098          35.000  
C07  35711123.354   185957189.504         186.373          29.000  
C10  36404920.748   189569809.279         423.923          24.000  
C13  39661215.462   206526216.737        1681.450          27.000  
C27  24625630.781   128231925.391       -2266.827          38.000  
C29  23222840.112   120927421.660        1805.813          37.000  
C30  21837139.113   113711612.796        -495.444          29.000  
C36  23367725.610   121681776.244       -2064.081          30.000  
C38  37464860.367   195089515.513        1507.030          31.000  
C40  35995469.905   187437990.176          98.286          22.000  
C45  24058804.786   125280491.414         542.766          32.000  
E02  23380711.121   122866418.278        -194.938          40.000  
E11  26345916.352   138448639.383       -2260.468          25.000  
E25  25381514.893   133380683.529       -2595.890          22.000  
E34  25268203.836   132785057.958        1911.345          36.000  
E36  23425691.681   123102937.025        -362.711          33.000  
G01  23531406.596   123658275.157       -3091.850          24.000  
G03  21534832.596   113166119.679       -1395.193          32.000  
G06  21759442.501   114346588.413        2061.217          44.000  
G14  20926430.484   109968962.168       -2344.980          34.000  
G17  20681061.449   108679550.834         -58.362          28.000  
G19  20695680.529   108756322.051        1716.202          32.000  
G22  20816931.288   109393585.154        -807.873          41.000  
J02  37683320.030   198027051.711         472.865          25.000  
J03  39138957.214   205676445.098        -290.131          26.000  
> 2025 04 24 04 45 27.9997041  0 25                     
C03  37296049.782   194210274.497          76.828          36.000  
C07  35711115.109   185957144.076         186.718          31.000  
C10  36404867.535   189569526.526         424.085          26.000  
C13  39660923.914   206524676.941        1681.282          27.000  
C27  24626091.112   128234332.945       -2265.899          38.000  
C29  23222521.883   120925757.419        1805.828          37.000  
C30  21837262.478   113712248.354        -494.423          28.000  
C36  23368159.260   121683982.306       -2064.450          28.000  
C38  37464589.804   195088149.831        1507.739          32.000  
C40  35995479.948   187438031.983          98.980          22.000  
C45  24058722.493   125280090.567         542.267          31.000  
E02  23380776.325   122866754.830        -194.759          40.000  
E11  26346376.383   138451040.694       -2260.125          25.000  
E25  25382035.782   133383422.285       -2596.239          24.000  
E34  25267868.818   132783289.337        1911.479          37.000  
E36  23425791.962   123103440.459        -361.987          33.000  
G01  23532019.522   123661508.832       -3091.825          24.000  
G03  21535126.542   113167657.232       -1395.961          32.000  
G06  21759078.104   114344670.044        2060.661          44.000  
G14  20926907.304   109971449.171       -2344.917          33.000  
G17  20681107.467   108679750.870         -56.001          31.000  
G19  20695379.087   108754747.535        1716.707          33.000  
G22  20817114.911   109394534.935        -807.671          41.000  
J02  37683260.222   198026721.475         472.404          25.000  
J03  39139044.603   205676878.221        -290.037          26.000  
> 2025 04 24 04 45 28.9996430  0 25                     
C03  37296033.031   194210182.094          79.835          36.000  
C07  35711077.373   185956944.128         186.015          31.000  
C10  36404786.328   189569089.669         422.772          27.000  
C13  39660601.375   206522982.450        1680.394          27.000  
C27  24626523.150   128236585.425       -2266.806          37.000  
C29  23222172.962   120923938.223        1805.580          38.000  
C30  21837351.254   113712728.293        -496.109          30.000  
C36  23368556.822   121686032.286       -2065.708          28.000  
C38  37464292.448   195086629.893        1505.368          32.000  
C40  35995452.105   187437916.435         198.940          21.000  
C45  24058614.006   125279535.128         540.817          31.000  
E02  23380811.439   122866935.128        -196.348          40.000  
E11  26346797.029   138453287.045       -2261.453          25.000  
E25  25382528.379   133386005.293       -2597.927          24.000  
E34  25267500.111   132781365.517        1909.857          36.000  
E36  23425854.356   123103789.876        -364.053          33.000  
G01  23532600.257   123664585.913       -3092.122          25.000  
G03  21535390.997   113169039.896       -1398.305          32.000  
G06  21758685.113   114342596.935        2059.325          44.000  
G14  20927354.332   109973780.398       -2346.344          33.000  
G17  20681120.096   108679791.273         -56.830          29.000  
G19  20695047.254   108753018.242        1715.541          32.000  
G22  20817267.843   109395328.657        -809.811          41.000  
J02  37683165.825   198026235.556         471.461          25.000  
J03  39139101.901   205677155.123        -292.869          26.000  
> 2025 04 24 04 45 29.9995819  0 25                     
C03  37296016.580   194210091.078          78.405          36.000  
C07  35711040.536   185956746.126         185.527          31.000  
C10  36404705.722   189568654.725         422.494          26.000  
C13  39660279.435   206521289.984        1680.287          27.000  
C27  24626957.287   128238838.598       -2267.681          37.000  
C29  23221823.741   120922120.887        1805.144          38.000  
C30  21837436.432   113713212.824        -496.343          31.000  
C36  23368961.879   121688084.649       -2066.383          26.000  
C38  37464003.785   195085112.869        1504.922          32.000  
C40  35995414.068   187437702.648         201.974          21.000  
C45  24058504.919   125278982.440         540.506          29.000  
E02  23380845.053   122867119.173        -196.661          40.000  
E11  26347227.569   138455533.976       -2261.604          25.000  
E25  25383024.573   133388591.022       -2597.476          26.000  
E34  25267134.402   132779444.012        1909.661          35.000  
E36  23425923.346   123104139.986        -363.755          32.000  
G01  23533185.190   123667664.294       -3092.410          25.000  
G03  21535655.151   113170425.792       -1397.402          31.000  
G06  21758290.624   114340524.641        2059.946          43.000  
G14  20927797.762   109976112.261       -2346.939          33.000  
G17  20681134.523   108679835.891         -58.546          27.000  
G19  20694717.220   108751290.321        1716.267          31.000  
G22  20817421.074   109396125.480        -811.126          41.000  
J02  37683002.475   198025752.408         470.740          24.000  
J03  39139155.302   205677433.330        -291.619          28.000  
> 2025 04 24 04 45 30.9995208  0 25                     
C03  37296001.366   194209999.089          73.740          36.000  
C07  35711004.036   185956545.878         185.064          31.000  
C10  36404627.551   189568217.397         422.365          25.000  
C13  39659958.432   206519595.088        1679.790          27.000  
C27  24627390.562   128241091.030       -2267.485          37.000  
C29  23221473.958   120920300.996        1804.700          37.000  
C30  21837528.244   113713693.600        -496.768          31.000  
C36  23369360.978   121690394.520       -2065.733          25.000  
C38  37463709.464   195083593.468        1504.309          31.000  
C40  35995376.969   187437483.2411        204.642          17.000  
C45  24058391.072   125278426.880         539.649          30.000  
E02  23380883.201   122867300.764        -197.755          40.000  
E11  26347652.750   138457779.653       -2262.202          24.000  
E25  25383518.406   133391175.319       -2598.585          27.000  
E34  25266763.933   132777520.044        1908.639          34.000  
E36  23425990.274   123104488.639        -365.188          32.000  
G01  23533768.361   123670740.698       -3093.761          25.000  
G03  21535918.444   113171810.830       -1401.769          30.000  
G06  21757896.172   114338451.327        2058.014          43.000  
G14  20928238.232   109978445.131       -2350.106          32.000  
G17  20681148.089   108680166.106         -58.548          25.000  
G19  20694385.125   108749559.771        1714.338          30.000  
G22  20817574.043   109396921.717        -810.995          41.000  
J02  37682914.111   198025265.937         470.887          23.000  
J03  39139207.840   205677709.111        -291.642          27.000  
> 2025 04 24 04 45 31.9994598  0 25                     
C03  37296016.093   194210066.630          74.348          36.000  
C07  35710996.279   185956503.386         184.984          31.000  
C10  36404578.422   189567937.418         422.266          24.000  
C13  39659666.472   206518058.114        1679.071          27.000  
C27  24627854.978   128243500.336       -2268.095          37.000  
C29  23221153.817   120918639.765        1803.429          37.000  
C30  21837652.695   113714331.235        -497.832          33.000  
C36  23369791.517   121692601.441       -2066.535          23.000  
C38  37463443.885   195082231.821        1503.834          30.000  
C40  35995358.719   187437419.2751        206.056          18.000  
C45  24058317.961   125278030.148         539.401          31.000  
E02  23380947.994   122867642.512        -198.704          39.000  
E11  26348103.375   138460185.710       -2262.246          23.000  
E25  25384052.074   133393915.998       -2596.750          27.000  
E34  25266424.606   132775755.768        1908.292          34.000  
E36  23426094.040   123104998.782        -366.065          32.000  
G01  23534384.472   123673977.185       -3094.383          24.000  
G03  21536211.379   113173354.696       -1400.885          30.000  
G06  21757532.561   114336537.122        2058.402          44.000  
G14  20928707.145   109980938.749       -2350.331          30.000  
G17  20681188.299   108680367.240         -59.503          24.000  
G19  20694082.073   108747991.240        1711.891          28.000  
G22  20817757.554   109397874.432        -811.580          40.000  
J02  37682856.289   198024939.239         470.054          23.000  
J03  39139217.771   205678144.123        -291.325          23.000  
> 2025 04 24 04 45 33.0003986  0 26                     
C03  37295986.001   194209919.029          74.129          36.000  
C07  35710946.101   185956245.949         185.102          30.000  
C10  36404487.473   189567719.273         421.904          24.000  
C13  39659337.787   206516578.294        1674.932          28.000  
C27  24628278.772   128245695.472       -2267.439          37.000  
C29  23220789.157   120916762.017        1804.119          38.000  
C30  21837738.623   113714757.472        -498.508          32.000  
C36  23370171.542   121694597.104       -2067.090          22.000  
C38  37463074.428   195080058.717        1505.454          28.000  
C40  35995300.147   187437138.6491        208.135          18.000  
C45  24058208.724   125277417.625         538.685          33.000  
E02  23380973.664   122867767.337        -198.839          39.000  
E11  26348521.173   138462375.238       -2261.678          24.000  
E16  27464506.393   144326955.6081      -3020.722          18.000  
E25  25384529.231   133396443.475       -2598.577          26.000  
E34  25266035.363   132773772.742        1908.041          35.000  
E36  23426146.691   123105288.986        -364.622          32.000  
G01  23534959.062   123677001.801       -3093.971          25.000  
G03  21536459.195   113174683.817       -1400.134          27.000  
G06  21757128.628   114334404.590        2057.067          45.000  
G14  20929137.834   109983217.865       -2350.188          31.000  
G17  20681115.037   108679992.119         -60.267          26.000  
G19  20693740.197   108746203.270        1714.157          32.000  
G22  20817898.943   109398613.431        -812.694          39.000  
J02  37682756.945   198024395.696         470.325          24.000  
J03  39139265.625   205678360.451        -291.352          24.000  
> 2025 04 24 04 45 34.0003376  0 26                     
C03  37296000.654   194209987.255          73.437          36.000  
C07  35710939.768   185956203.368         184.481          30.000  
C10  36404439.768   189567439.871         421.381          25.000  
C13  39659040.355   206515043.968        1678.174          27.000  
C27  24628746.111   128248105.282       -2269.434          37.000  
C29  23220467.143   120915100.760        1803.538          36.000  
C30  21837875.891   113715396.221        -499.812          31.000  
C36  23370574.725   121696806.083       -2068.547          30.000  
C38  37462824.963   195078695.217        1505.239          28.000  
C40  35995278.225   187437070.556         210.187          22.000  
C45  24058128.941   125277022.072         537.330          35.000  
E02  23381039.281   122868109.253        -200.064          39.000  
E11  26348989.412   138464780.888       -2263.847          22.000  
E16  27465114.934   144330119.5961      -3021.589          14.000  
E25  25385045.136   133399184.319       -2599.315          24.000  
E34  25265709.451   132772009.227        1907.117          33.000  
E36  23426228.797   123105797.341        -366.431          30.000  
G01  23535574.798   123680236.133       -3093.763          25.000  
G03  21536753.553   113176227.853       -1400.618          29.000  
G06  21756765.842   114332492.003        2056.588          45.000  
G14  20929618.064   109985711.143       -2351.373          32.000  
G17  20681161.168   108680195.660         -60.673          27.000  
G19  20693445.763   108744632.933        1712.970          34.000  
G22  20818082.379   109399569.648        -814.063          40.000  
J02  37682702.645   198024068.623         470.649          24.000  
J03  39139357.324   205678796.494        -292.095          25.000  
> 2025 04 24 04 45 35.0002765  0 26                     
C03  37295988.025   194209897.729          73.702          36.000  
C07  35710904.056   185956003.212         184.303          30.000  
C10  36404366.581   189567002.880         421.315          26.000  
C13  39658720.439   206513347.848        1681.360          28.000  
C27  24629182.272   128250357.722       -2268.636          37.000  
C29  23220116.048   120913281.691        1803.183          36.000  
C30  21837981.080   113715878.305        -498.651          32.000  
C36  23370949.728   121698857.223       -2069.489          32.000  
C38  37462556.012   195077175.934        1503.198          29.000  
C40  35995233.219   187436843.240         211.121          24.000  
C45  24058022.777   125276469.089         537.473          35.000  
E02  23381077.617   122868292.280        -200.190          39.000  
E11  26349425.572   138467027.957       -2264.121          21.000  
E16  27465695.595   144333125.9831      -3021.962          11.000  
E25  25385541.555   133401767.516       -2599.513          24.000  
E34  25265350.862   132770086.404        1906.882          31.000  
E36  23426289.317   123106147.276        -366.160          29.000  
G01  23536086.207   123682967.534       -3093.733          22.000  
G03  21537020.931   113177614.268       -1402.745          31.000  
G06  21756372.477   114330419.348        2056.634          45.000  
G14  20930067.716   109988045.002       -2350.506          33.000  
G17  20681177.019   108680239.820         -61.081          29.000  
G19  20693115.954   108742904.284        1712.107          34.000  
G22  20818236.735   109400367.177        -813.942          41.000  
J02  37682614.469   198023582.357         470.220          26.000  
J03  39139415.447   205679071.416        -292.131          25.000  
> 2025 04 24 04 45 36.0002154  0 26                     
C03  37295975.246   194209811.873          73.864          36.000  
C07  35710867.593   185955805.577         184.404          30.000  
C10  36404290.547   189566568.249         421.256          26.000  
C13  39658401.572   206511653.341        1680.388          28.000  
C27  24629614.685   128252610.697       -2268.731          36.000  
C29  23219767.502   120911465.660        1802.187          36.000  
C30  21838081.024   113716364.403        -499.825          32.000  
C36  23371344.367   121700913.478       -2068.913          33.000  
C38  37462282.714   195075936.308        1502.635          30.000  
C40  35995194.658   187436617.389         212.013          23.000  
C45  24057922.759   125275918.711         536.331          36.000  
E02  23381113.105   122868478.560        -200.891          39.000  
E11  26349862.482   138469277.2721      -2264.033          20.000  
E16  27466275.805   144336134.4521      -3022.143          10.000  
E25  25386042.321   133404352.953       -2599.827          24.000  
E34  25264992.722   132768433.223        1906.050          31.000  
E36  23426349.988   123106500.251        -365.869          28.000  
G01  23536679.908   123686047.070       -3094.041          21.000  
G03  21537289.357   113179003.391       -1403.848          32.000  
G06  21755979.861   114328350.325        2055.353          45.000  
G14  20930516.318   109990381.378       -2351.712          33.000  
G17  20681191.821   108680285.967         -61.708          28.000  
G19  20692785.095   108741179.322        1711.558          33.000  
G22  20818391.240   109401167.973        -815.033          40.000  
J02  37682526.742   198023099.259         469.479          26.000  
J03  39139473.419   205679348.541        -292.259          26.000  
> 2025 04 24 04 45 37.0001543  0 26                     
C03  37295961.606   194209724.790          75.255          36.000  
C07  35710830.569   185955608.273         183.957          30.000  
C10  36404209.453   189566134.292         420.684          27.000  
C13  39658083.043   206509960.784        1678.153          26.000  
C27  24630051.333   128255139.867       -2270.073          37.000  
C29  23219417.194   120909650.034        1802.690          36.000  
C30  21838185.801   113717163.809        -500.966          32.000  
C36  23371743.841   121702968.470       -2070.573          32.000  
C38  37462004.956   195074421.259        1502.209          28.000  
C40  35995161.531   187436391.029         212.655          21.000  
C45  24057820.380   125275369.760         536.003          37.000  
E02  23381150.429   122868666.267        -201.541          39.000  
E11  26350293.434   138471526.9781      -2263.839          20.000  
E16  27466851.557   144339142.5111      -3023.184          11.000  
E25  25386544.324   133406939.919       -2600.877          24.000  
E34  25264620.829   132766514.495        1905.567          31.000  
E36  23426416.092   123106852.518        -367.831          27.000  
G01  23537273.047   123689126.220       -3094.891          21.000  
G03  21537558.421   113180395.382       -1405.114          32.000  
G06  21755586.683   114326282.301        2054.875          44.000  
G14  20930962.858   109992718.878       -2352.690          32.000  
G17  20681206.961   108680333.257         -62.813          24.000  
G19  20692451.876   108739455.447        1709.854          33.000  
G22  20818546.383   109401969.543        -815.694          41.000  
J02  37682438.453   198022616.830         469.132          25.000  
J03  39139530.829   205679625.622        -292.520          25.000  
> 2025 04 24 04 45 38.0000933  0 26                     
C03  37295977.082   194209794.469          73.310          36.000  
C07  35710825.660   185955567.309         184.361          30.000  
C10  36404158.376   189565856.311         421.604          27.000  
C13  39657789.733   206508425.819        1677.945          27.000  
C27  24630513.201   128257551.268       -2268.462          37.000  
C29  23219099.602   120907990.146        1803.298          36.000  
C30  21838308.903   113717806.282        -499.030          33.000  
C36  23372170.633   121705180.460       -2069.373          33.000  
C38  37461749.421   195073062.141        1501.793          26.000  
C40  35995154.523   187436320.230         213.164          21.000  
C45  24057743.521   125274977.128         535.112          36.000  
E02  23381220.468   122869012.205        -201.707          39.000  
E11  26350760.998   138473932.6091      -2263.107          19.000  
E16  27467456.426   144342309.5571      -3023.660          11.000  
E25  25387073.645   133409972.164       -2600.578          23.000  
E34  25264279.553   132764753.444        1906.709          31.000  
E36  23426517.310   123107364.010        -367.485          26.000  
G01  23537894.105   123692364.9081      -3094.585          19.000  
G03  21537856.602   113181944.744       -1404.925          32.000  
G06  21755224.122   114324371.613        2055.662          44.000  
G14  20931437.018   109995216.831       -2354.130          30.000  
G17  20681251.517   108680541.2881        -63.728          20.000  
G19  20692151.372   108737889.082        1712.223          33.000  
G22  20818730.043   109402927.327        -815.861          41.000  
J02  37682379.881   198022291.958         469.513          25.000  
J03  39139620.355   205680062.605        -292.194          25.000  
> 2025 04 24 04 45 39.0000322  0 26                     
C03  37295957.371   194209706.993          73.256          35.000  
C07  35710789.760   185955368.071         183.888          31.000  
C10  36404073.010   189565419.763         421.124          27.000  
C13  39657458.238   206506732.876        1677.709          24.000  
C27  24630946.775   128259802.490       -2269.432          35.000  
C29  23218759.712   120906172.249        1801.866          36.000  
C30  21838379.130   113718290.184        -500.930          34.000  
C36  23372551.145   121707235.046       -2070.255          34.000  
C38  37461456.898   195071546.165        1501.824          30.000  
C40  35995109.329   187436090.917         213.109          21.000  
C45  24057633.272   125274427.258         533.879          33.000  
E02  23381252.321   122869198.997        -202.505          38.000  
E11  26351180.482   138476181.008       -2263.690          21.000  
E16  27468027.305   144345320.0541      -3027.163          11.000  
E25  25387557.884   133412556.673       -2601.028          24.000  
E34  25263928.271   132762831.846        1906.292          31.000  
E36  23426601.926   123107715.768        -368.134          30.000  
G01  23538486.870   123695443.9051      -3094.737          18.000  
G03  21538119.895   113183334.145       -1405.670          31.000  
G06  21754831.768   114322302.205        2053.848          43.000  
G14  20931884.683   109997553.382       -2352.650          31.000  
G17  20681264.184   108680588.533         -64.290          21.000  
G19  20691822.874   108736161.039        1713.161          31.000  
G22  20818881.813   109403728.220        -816.849          41.000  
J02  37682289.719   198021807.574         469.080          23.000  
J03  39139680.088   205680337.851        -292.126          25.000  
> 2025 04 24 04 45 39.9999711  0 26                     
C03  37295941.370   194209620.617          71.827          36.000  
C07  35710753.972   185955171.372         183.295          31.000  
C10  36403987.456   189564985.140         421.185          25.000  
C13  39657135.249   206505042.444        1676.931          25.000  
C27  24631384.360   128262059.833       -2270.869          34.000  
C29  23218411.541   120904358.218        1800.834          33.000  
C30  21838475.251   113718777.449        -500.389          32.000  
C36  23372947.358   121709292.261       -2072.681          35.000  
C38  37461166.886   195070031.887        1500.221          28.000  
C40  35995071.143   187435864.242         211.836          24.000  
C45  24057529.731   125273880.506         533.638          37.000  
E02  23381294.779   122869387.309        -203.511          39.000  
E11  26351595.582   138478429.153       -2263.597          24.000  
E16  27468602.495   144348333.7251      -3027.519          10.000  
E25  25388045.834   133415143.247       -2601.403          24.000  
E34  25263570.806   132760913.331        1905.221          30.000  
E36  23426674.963   123108070.584        -369.541          32.000  
G01  23539081.246   123698522.9571      -3094.878          17.000  
G03  21538383.000   113184726.671       -1406.674          28.000  
G06  21754439.228   114320235.291        2053.574          43.000  
G14  20932333.659   109999893.252       -2354.782          31.000  
G17  20681282.059   108680638.784         -63.956          30.000  
G19  20691496.587   108734436.713        1709.858          31.000  
G22  20819033.995   109404531.730        -819.191          39.000  
J02  37682200.868   198021325.720         468.617          20.000  
J03  39139737.536   205680617.266        -292.118          22.000  
> 2025 04 24 04 45 40.9999100  0 26                     
C03  37295926.605   194209533.542          67.945          34.000  
C07  35710715.224   185954972.265         183.701          31.000  
C10  36403908.836   189564548.577         420.511          24.000  
C13  39656805.103   206503351.583        1672.731          27.000  
C27  24631812.089   128264311.581       -2267.077          35.000  
C29  23218066.405   120902540.713        1803.008          31.000  
C30  21838565.113   113719259.230        -499.259          30.000  
C36  23373351.103   121711347.190       -2074.415          32.000  
C38  37460878.411   195068516.810        1498.597          27.000  
C40  35995040.789   187435637.378         210.231          25.000  
C45  24057429.526   125273330.313         537.000          38.000  
E02  23381331.878   122869574.804        -204.954          38.000  
E11  26352029.007   138480676.398       -2263.527          21.000  
E16  27469175.923   144351344.0721      -3027.780           9.000  
E25  25388536.519   133417726.751       -2598.318          21.000  
E34  25263199.289   132758993.716        1902.174          32.000  
E36  23426740.842   123108422.506        -367.570          30.000  
G01  23539673.261   123701601.0291      -3094.922          19.000  
G03  21538650.640   113186116.546       -1406.585          27.000  
G06  21754047.324   114318167.557        2050.778          43.000  
G14  20932779.676   110002498.772       -2360.468          34.000  
G17  20681299.971   108680964.512         -63.610          30.000  
G19  20691171.238   108732709.902        1713.542          34.000  
G22  20819188.014   109405334.240        -821.037          39.000  
J02  37682106.958   198020840.766         469.645          21.000  
J03  39139794.721   205680891.339        -292.964          21.000  
> 2025 04 24 04 45 41.9998490  0 26                     
C03  37295942.306   194209612.251          62.694          34.000  
C07  35710709.041   185954930.877         184.961          31.000  
C10  36403853.187   189564270.803         420.741          23.000  
C13  39656509.020   206501827.598        1663.059          27.000  
C27  24632276.580   128266718.065       -2264.241          33.000  
C29  23217743.641   120900878.708        1805.588          31.000  
C30  21838688.740   113719900.942        -499.065          28.000  
C36  23373775.422   121713565.923       -2077.063          30.000  
C38  37460617.104   195067164.069        1491.341          27.000  
C40  35995037.004   187435570.560         208.661          24.000  
C45  24057356.489   125272934.329         540.647          35.000  
E02  23381399.144   122869923.905        -205.548          39.000  
E11  26352493.199   138483082.0921      -2263.006          18.000  
E16  27469779.218   144354515.8581      -3028.533           9.000  
E25  25389055.573   133420468.0251      -2596.830          19.000  
E34  25262867.231   132757237.381        1900.552          34.000  
E36  23426837.788   123108931.000        -366.120          30.000  
G01  23540293.644   123704838.7581      -3095.751          17.000  
G03  21538947.547   113187932.769       -1400.464          23.000  
G06  21753687.386   114316262.700        2047.958          38.000  
G14  20933257.058   110005005.213       -2368.266          33.000  
G17  20681344.753   108681169.961         -63.493          28.000  
G19  20690876.654   108731137.594        1718.763          34.000  
G22  20819373.398   109406302.055        -824.721          40.000  
J02  37682046.812   198020513.5891        472.431          17.000  
J03  39139885.971   205681328.958        -292.537          22.000  
> 2025 04 24 04 45 42.9997879  0 26                     
C03  37295929.940   194209536.745          58.772          34.000  
C07  35710671.791   185954731.748         184.639          31.000  
C10  36403768.271   189563835.265         421.997          22.000  
C13  39656189.366   206500155.021        1654.988          29.000  
C27  24632712.403   128268968.627       -2267.027          30.000  
C29  23217373.622   120899058.778        1804.780          39.000  
C30  21838781.901   113720385.485        -500.050          27.000  
C36  23374169.574   121715629.298       -2082.264          32.000  
C38  37460274.067   195065661.805        1485.874          28.000  
C40  35995008.749   187435348.245         207.830          25.000  
C45  24057247.289   125272378.969         541.019          36.000  
E02  23381439.241   122870115.149        -207.340          39.000  
E11  26352920.328   138485329.7151      -2262.511          16.000  
E16  27470354.444   144357530.3751      -3029.482           8.000  
E25  25389541.161   133423047.1211      -2598.787          18.000  
E34  25262499.610   132755325.105        1898.134          35.000  
E36  23426902.168   123109281.919        -366.120          29.000  
G01  23540881.462   123707921.0921      -3096.458          14.000  
G03  21539139.639   113188942.312       -1399.944          33.000  
G06  21753299.379   114314200.841        2047.251          35.000  
G14  20933706.072   110007361.014       -2371.749          34.000  
G17  20681359.368   108681220.925         -64.073          27.000  
G19  20690548.606   108729403.946        1719.487          33.000  
G22  20819529.814   109407111.990        -827.106          40.000  
J02  37681957.399   198020020.7851        479.426          18.000  
J03  39139944.955   205681603.973        -291.649          21.000  
> 2025 04 24 04 45 43.9997268  0 26                     
C03  37295918.435   194209466.973          53.189          34.000  
C07  35710634.804   185954533.720         185.872          30.000  
C10  36403685.715   189563400.0151        422.965          20.000  
C13  39655871.474   206498489.382        1650.371          28.000  
C27  24633149.388   128271221.189       -2268.658          26.000  
C29  23217021.253   120897238.427        1807.606          41.000  
C30  21838883.118   113720874.746        -504.606          26.000  
C36  23374566.387   121717701.127       -2085.429          31.000  
C38  37459996.946   195064166.426        1479.793          29.000  
C40  35994975.959   187435127.538         208.552          24.000  
C45  24057141.950   125271824.885         541.629          33.000  
E02  23381474.505   122870309.453        -207.374          38.000  
E11  26353347.720   138487577.0501      -2262.271          14.000  
E16  27470931.133   144360547.4691      -3030.093           8.000  
E25  25390031.210   133425631.5971      -2595.782          13.000  
E34  25262139.747   132753415.630        1897.232          29.000  
E36  23426968.310   123109632.053        -365.411          31.000  
G01  23541468.643   123711252.2431      -3083.425          14.000  
G03  21539413.537   113190327.298       -1398.149          35.000  
G06  21752911.935   114312140.246        2048.329          32.000  
G14  20934156.847   110009718.863       -2373.164          35.000  
G17  20681372.146   108681264.416         -56.727          29.000  
G19  20690221.720   108727670.660        1720.636          31.000  
G22  20819686.194   109408188.739        -827.257          39.000  
J02  37681868.848   198019526.9741        482.334          17.000  
J03  39139999.405   205681881.755        -292.232          23.000  
> 2025 04 24 04 45 44.9996657  0 26                     
C03  37295908.280   194209402.497          48.059          33.000  
C07  35710597.068   185954332.986         187.183          29.000  
C10  36403603.310   189562963.0111        423.824          18.000  
C13  39655552.832   206496828.396        1643.843          28.000  
C27  24633582.925   128273479.270       -2283.211          23.000  
C29  23216671.133   120895415.808        1808.544          41.000  
C30  21838979.989   113721368.303        -510.125          23.000  
C36  23374969.945   121719769.928       -2072.019          32.000  
C38  37459716.678   195062675.556        1476.151          30.000  
C40  35994946.617   187434904.469         210.056          23.000  
C45  24057037.360   125271267.777         543.018          28.000  
E02  23381513.215   122870503.633        -208.453          39.000  
E11  26353777.360   138489823.9811      -2243.285           6.000  
E16  27471508.570   144363563.1901      -3030.814           7.000  
E25  25390525.605   133428210.0111      -2593.232          12.000  
E34  25261784.830   132751501.450        1898.955          24.000  
E36  23427036.100   123109981.738        -362.995          31.000  
G01  23542054.475   123714320.2701      -3082.758          13.000  
G03  21539686.985   113191712.113       -1403.835          31.000  
G06  21752525.540   114310079.332        2045.267          31.000  
G14  20934605.674   110012081.300       -2380.155          36.000  
G17  20681381.178   108681304.293         -54.148          30.000  
G19  20689897.082   108725937.764        1706.194          26.000  
G22  20819841.823   109409002.705        -831.600          39.000  
J02  37681777.448   198019025.421         488.472          21.000  
J03  39140054.904   205682158.755        -291.672          25.000  
> 2025 04 24 04 45 45.9996047  0 25                     
C03  37295928.216   194209497.822          43.049          32.000  
C07  35710589.423   185954288.960         186.331          30.000  
C10  36403551.596   189562681.5531        425.210          19.000  
C13  39655263.982   206495330.005        1639.399          28.000  
C27  24634050.152   128275903.163       -2284.601          22.000  
C29  23216352.004   120893751.053        1808.528          42.000  
C30  21839108.150   113722020.583        -498.969          25.000  
C36  23375420.983   121721971.275       -2053.013          38.000  
C38  37459464.702   195061343.790        1472.348          30.000  
C40  35994938.373   187434836.033         212.807          22.000  
C45  24056964.360   125270869.332         539.790          24.000  
E02  23381583.816   122870856.301        -210.011          39.000  
E11  26354231.395   138492211.9421      -2243.028          14.000  
E16  27472113.402   144366737.1891      -3031.749           7.000  
E25  25391048.593   133430945.4321      -2579.313          13.000  
E34  25261454.309   132749747.9961       1897.316          19.000  
E36  23427136.081   123110487.511        -363.479          30.000  
G03  21539991.724   113193261.193       -1405.535          29.000  
G06  21752166.838   114308176.737        2068.028          27.000  
G14  20935088.490   110014604.788       -2382.429          35.000  
G17  20681421.800   108681501.158         -54.169          30.000  
G19  20689604.035   108724376.460        1705.422          21.000  
G22  20820027.845   109409978.934        -832.657          39.000  
J02  37681714.942   198018680.870         489.007          21.000  
J03  39140140.495   205682594.226        -291.541          27.000  
> 2025 04 24 04 45 46.9995436  0 26                     
C03  37295919.297   194209442.480          41.635          31.000  
C07  35710552.924   185954089.457         185.645          31.000  
C10  36403463.532   189562242.3011        426.473          18.000  
C13  39654946.877   206493677.809        1638.680          28.000  
C27  24634492.421   128278174.052       -2283.987          23.000  
C29  23216004.020   120891929.757        1808.932          42.000  
C30  21839213.152   113722507.478        -502.430          25.000  
C36  23375818.583   121724012.241       -2054.848          37.000  
C38  37459182.672   195059857.198        1474.339          28.000  
C40  35994907.869   187434930.576         215.123          24.000  
C45  24056863.105   125270319.289         533.743          25.000  
E02  23381620.466   122871051.546        -209.794          40.000  
E11  26354654.777   138494438.330       -2243.080          22.000  
E16  27472688.479   144369756.0621      -3033.142           7.000  
E25  25391540.927   133433509.7851      -2578.401          15.000  
E34  25261099.730   132747838.1571       1895.719          19.000  
E36  23427205.708   123110836.479        -365.007          28.000  
G01  23543532.077   123722095.1261      -3093.994           9.000  
G03  21540263.111   113194651.022       -1399.812          31.000  
G06  21751774.185   114306098.936        2055.714          31.000  
G14  20935541.551   110016972.629       -2380.508          34.000  
G17  20681431.168   108681541.458         -55.614          31.000  
G19  20689292.326   108722964.5741       1691.685          19.000  
G22  20820184.711   109410797.287        -833.812          39.000  
J02  37681621.181   198018177.9801        489.206          18.000  
J03  39140194.832   205682871.757        -291.760          27.000  
> 2025 04 24 04 45 47.9994825  0 25                     
C03  37295908.430   194209386.619          45.374          33.000  
C07  35710516.274   185953891.048         185.876          32.000  
C10  36403378.615   189561802.3171        428.181          18.000  
C13  39654630.521   206492024.119        1639.086          29.000  
C27  24634931.842   128280443.857       -2284.380          22.000  
C29  23215655.586   120890107.900        1809.830          40.000  
C30  21839309.611   113722995.874        -505.153          25.000  
C36  23376215.733   121726054.200       -2056.210          33.000  
C38  37458902.591   195058370.006        1474.953          25.000  
C40  35994878.114   187434702.586         215.719          25.000  
C45  24056761.401   125269779.884         514.802          25.000  
E02  23381659.664   122871250.287        -211.359          40.000  
E11  26355066.617   138496666.318       -2239.173          24.000  
E16  27473265.804   144372774.6291      -3034.002           7.000  
E25  25392031.612   133436073.8911      -2577.555          15.000  
E34  25260742.902   132745929.5161       1896.070          14.000  
E36  23427270.988   123111188.744        -364.621          28.000  
G01  23544118.096   123725176.1751      -3093.937           8.000  
G03  21540530.151   113196032.978       -1391.885          30.000  
G14  20935991.764   110019340.575       -2385.310          33.000  
G17  20681440.387   108681585.002         -56.060          32.000  
G19  20688982.266   108721260.381        1690.696          21.000  
G22  20820341.428   109411617.178        -835.074          39.000  
J02  37681529.370   198017681.8551        483.483          15.000  
J03  39140248.420   205683149.189        -292.878          26.000  
> 2025 04 24 04 45 49.0004214  0 25                     
C03  37295916.337   194209424.858          41.402          33.000  
C07  35710498.699   185953785.289         186.592          32.000  
C10  36403308.876   189561453.7191        429.255          19.000  
C13  39654332.939   206490465.969        1635.340          30.000  
C27  24635392.435   128282809.542       -2282.348          21.000  
C29  23215337.619   120888376.445        1809.405          37.000  
C30  21839345.398   113723202.512        -493.498          23.000  
C36  23376637.053   121728192.781       -2058.955          28.000  
C38  37458634.989   195056973.234        1475.837          22.000  
C40  35994864.137   187434567.473         214.250          24.000  
C45  24056680.269   125269347.351         510.848          29.000  
E02  23381717.037   122871541.595        -212.037          39.000  
E11  26355496.332   138498989.063       -2239.438          23.000  
E16  27473861.604   144375893.2281      -3034.810           6.000  
E25  25392538.674   133438733.7791      -2580.565          18.000  
E34  25260388.659   132744114.740        1891.115          30.000  
E36  23427356.541   123111634.516        -365.711          27.000  
G01  23544720.492   123728352.3271      -3093.548           9.000  
G06  21751001.358   114302079.4031       2043.062          43.000  
G14  20936460.752   110021809.152       -2386.352          34.000  
G17  20681468.380   108681720.755         -55.602          31.000  
G19  20688689.181   108719650.4821       1688.167          18.000  
G22  20820517.218   109412534.168        -835.718          40.000  
J02  37681453.935   198017279.0231        483.506          14.000  
J03  39140319.883   205683523.666        -292.785          26.000  
> 2025 04 24 04 45 50.0003603  0 25                     
C03  37295907.043   194209368.142          41.846          34.000  
C07  35710460.325   185953584.215         187.379          32.000  
C10  36403224.035   189561010.169         429.747          21.000  
C13  39654016.958   206488817.608        1633.743          29.000  
C27  24635834.929   128285073.921       -2268.388          24.000  
C29  23214994.057   120886552.332        1817.214          30.000  
C30  21839447.927   113723678.796        -491.530          27.000  
C36  23377043.572   121730234.034       -2055.383          26.000  
C38  37458351.086   195055483.117        1476.681          22.000  
C40  35994835.357   187434339.518         214.301          24.000  
C45  24056583.137   125268822.784         510.743          26.000  
E02  23381755.110   122871738.443        -212.079          39.000  
E11  26355918.140   138501211.368       -2238.357          26.000  
E16  27474438.704   144378912.9201      -3035.665           6.000  
E25  25393027.036   133441298.1461      -2580.329          16.000  
E34  25260015.718   132742211.672        1887.533          35.000  
E36  23427423.095   123111985.504        -365.602          26.000  
G01  23545304.787   123731432.8031      -3093.580          15.000  
G03  21541100.469   113199246.4731      -1394.709          41.000  
G06  21750609.829   114300021.292        2042.035          44.000  
G14  20936914.039   110024181.249       -2388.185          34.000  
G17  20681477.374   108681760.607         -54.726          31.000  
G19  20688380.095   108717949.5071       1685.594          20.000  
G22  20820674.909   109413355.357        -836.272          40.000  
J03  39140375.045   205683800.329        -290.411          28.000  
> 2025 04 24 04 45 51.0002992  0 25                     
C03  37295897.263   194209309.493          44.739          33.000  
C07  35710422.364   185953382.011         187.036          32.000  
C10  36403136.908   189560565.281         430.237          21.000  
C13  39653701.689   206487169.405        1633.360          29.000  
C27  24636282.332   128287587.064       -2259.313          25.000  
C29  23214648.208   120884720.366        1813.150          25.000  
C30  21839549.969   113724154.148        -489.451          27.000  
C36  23377387.247   121732277.641       -2095.607          26.000  
C38  37458062.198   195053991.275        1476.369          25.000  
C40  35994801.892   187434378.279         215.479          24.000  
C45  24056481.020   125268294.378         516.698          24.000  
E02  23381795.695   122871935.720        -212.353          39.000  
E11  26356339.461   138503433.051       -2240.880          24.000  
E16  27475015.018   144381932.7701      -3036.494           6.000  
E25  25393520.307   133443863.8441      -2580.032          16.000  
E34  25259652.481   132740308.431        1888.758          36.000  
E36  23427489.761   123112335.824        -364.657          26.000  
G01  23545889.495   123734511.3191      -3116.928          15.000  
G03  21541369.195   113200625.895       -1397.011          44.000  
G06  21750219.311   114297965.445        2040.663          44.000  
G14  20937367.437   110026553.234       -2385.689          35.000  
G17  20681485.880   108681798.084         -54.518          33.000  
G19  20687983.882   108716213.0041       1722.212          20.000  
G22  20820832.413   109414174.448        -835.754          40.000  
J03  39140432.118   205684358.337        -289.784          34.000  
> 2025 04 24 04 45 52.0002382  0 25                     
C03  37295917.274   194209409.571          42.029          33.000  
C07  35710415.694   185953338.789         186.382          32.000  
C10  36403079.872   189560279.263         428.741          23.000  
C13  39653417.410   206485679.175        1634.585          30.000  
C27  24636752.031   128289987.029       -2262.332          26.000  
C29  23214345.043   120883051.194        1806.518          26.000  
C30  21839679.704   113724787.421        -503.192          27.000  
C36  23377831.464   121734516.561       -2098.902          31.000  
C38  37457808.799   195052660.062        1462.456          26.000  
C40  35994802.117   187434306.643         214.513          25.000  
C45  24056428.781   125267912.613         546.783          25.000  
E02  23381861.574   122872293.095        -214.040          39.000  
E11  26356798.968   138505818.100       -2239.550          25.000  
E16  27475619.924   144385113.3051      -3037.510           5.000  
E25  25394042.470   133446585.6381      -2579.300          15.000  
E34  25259321.436   132738566.185        1886.267          34.000  
E36  23427583.821   123112842.104        -363.969          27.000  
G01  23546507.592   123737771.8711      -3115.243          16.000  
G03  21541666.215   113202168.263       -1398.869          44.000  
G06  21749859.486   114296071.120        2039.729          43.000  
G14  20937851.527   110029083.167       -2388.275          35.000  
G17  20681525.678   108681996.596         -55.124          29.000  
G19  20687690.310   108714634.866        1724.072          29.000  
G22  20821020.907   109415156.255        -837.917          40.000  
J03  39140524.079   205684792.510        -292.389          35.000  
> 2025 04 24 04 45 53.0001771  0 25                     
C03  37295908.130   194209354.688          42.931          34.000  
C07  35710376.871   185953139.319         185.824          32.000  
C10  36402993.382   189559837.819         427.626          23.000  
C13  39653101.879   206484030.310        1636.527          31.000  
C27  24637196.774   128292233.880       -2260.272          27.000  
C29  23214019.619   120881491.394        1811.246          29.000  
C30  21839776.088   113725272.873        -492.384          26.000  
C36  23378237.233   121736599.234       -2094.469          32.000  
C38  37457525.944   195051183.542        1468.640          25.000  
C40  35994769.889   187434079.061         214.787          24.000  
C45  24056348.287   125267717.496         545.249          32.000  
E02  23381899.498   122872492.858        -213.893          39.000  
E11  26357226.921   138508043.661       -2243.049          23.000  
E16  27476195.676   144388135.1111      -3038.194           5.000  
E25  25394533.380   133449150.3471      -2578.504           9.000  
E34  25258961.535   132736665.437        1887.683          34.000  
E36  23427653.523   123113192.712        -365.427          28.000  
G01  23547089.939   123740873.3851      -3114.132          16.000  
G03  21541931.081   113203552.881       -1399.757          42.000  
G06  21749470.805   114294017.573        2041.191          39.000  
G14  20938304.364   110031456.556       -2388.648          35.000  
G17  20681535.721   108682038.553         -56.111          30.000  
G19  20687360.988   108712897.263        1724.122          30.000  
G22  20821179.947   109415979.889        -838.250          40.000  
J03  39140579.691   205685068.585        -291.179          37.000  
> 2025 04 24 04 45 54.0001160  0 26                     
C03  37295898.124   194209297.637          44.045          33.000  
C07  35710338.984   185952938.504         187.114          33.000  
C10  36402908.428   189559396.005         427.083          21.000  
C13  39652784.586   206482378.583        1638.330          30.000  
C27  24637626.564   128294478.942       -2258.633          26.000  
C29  23213675.944   120879663.849        1820.124          26.000  
C30  21839873.708   113725750.614        -492.227          27.000  
C36  23378643.040   121738678.301       -2095.714          31.000  
C38  37457244.327   195049700.527        1469.129          24.000  
C40  35994734.102   187433850.435         213.231          22.000  
C45  24056222.561   125267160.896         540.783          35.000  
E02  23381940.757   122872689.779        -212.855          40.000  
E11  26357652.814   138510272.107       -2244.608          21.000  
E16  27476771.464   144391158.8151      -3039.231           5.000  
E25  25395027.026   133451712.4861      -2577.747           7.000  
E34  25258608.866   132734764.245        1887.020          29.000  
E36  23427719.665   123113541.904        -365.103          27.000  
G01  23547673.522   123743972.6211      -3114.161          16.000  
G03  21542196.285   113204937.212       -1399.715          44.000  
G06  21749084.260   114291959.682        2043.217          33.000  
G14  20938757.837   110033830.569       -2387.501          35.000  
G17  20681545.801   108682078.533         -55.385          31.000  
G19  20687032.603   108711159.186        1723.180          27.000  
G22  20821337.825   109416802.546        -837.021          40.000  
J02  37681010.916   198015048.3581        446.004          28.000  
J03  39140634.440   205685343.874        -290.573          38.000  
> 2025 04 24 04 45 55.0000549  0 26                     
C03  37295886.433   194209235.976          47.073          33.000  
C07  35710301.810   185952735.909         186.234          32.000  
C10  36402820.289   189558953.3841        426.967          20.000  
C13  39652469.204   206480723.438        1640.940          32.000  
C27  24638049.870   128296720.339       -2257.875          27.000  
C29  23213330.283   120877829.619        1806.423          28.000  
C30  21839967.842   113726225.957        -491.972          28.000  
C36  23379045.961   121740758.819       -2095.376          33.000  
C38  37456963.122   195048214.532        1482.846          23.000  
C40  35994695.428   187433622.095         212.565          23.000  
C45  24056113.137   125266605.894         537.360          33.000  
E02  23381984.826   122873159.693        -213.453          41.000  
E11  26358077.020   138512500.5121      -2243.657          19.000  
E16  27477347.066   144394433.1871      -3040.435           5.000  
E25  25395520.485   133454274.3431      -2577.004           7.000  
E34  25258256.610   132732862.677        1888.371          25.000  
E36  23427796.112   123113889.864        -366.031          26.000  
G01  23548261.715   123747070.9401      -3113.799          13.000  
G03  21542461.002   113206322.809       -1403.885          43.000  
G06  21748697.827   114290177.810        2040.198          31.000  
G14  20939209.924   110036199.233       -2384.893          35.000  
G17  20681552.696   108682117.688         -56.883          31.000  
G19  20686694.737   108709421.039        1722.226          32.000  
G22  20821494.617   109417622.689        -837.364          39.000  
J02  37680929.073   198014586.016         447.955          33.000  
J03  39140689.902   205685618.274        -290.885          38.000  
> 2025 04 24 04 45 55.9999939  0 25                     
C03  37295906.106   194209331.158          50.311          32.000  
C07  35710294.203   185952694.691         185.864          32.000  
C10  36402765.615   189558671.2581        426.810          19.000  
C13  39652185.188   206479225.377        1645.333          30.000  
C27  24638510.539   128299121.573       -2258.873          25.000  
C29  23213023.483   120876167.666        1807.195          30.000  
C30  21840088.247   113726861.967        -491.659          29.000  
C36  23379491.640   121742995.942       -2091.264          28.000  
C38  37456706.986   195046876.931        1482.579          22.000  
C40  35994688.421   187433553.848         213.124          23.000  
C45  24056034.179   125266213.259         536.545          35.000  
E02  23382048.869   122873517.823        -212.788          41.000  
E11  26358536.190   138514889.4461      -2244.417          17.000  
E16  27477954.633   144397619.2851      -3041.355           5.000  
E34  25257935.420   132731119.173        1891.138          25.000  
E36  23427889.834   123114400.597        -366.583          25.000  
G01  23548874.379   123750329.5911      -3112.962          12.000  
G03  21542756.485   113207870.298       -1405.333          42.000  
G06  21748340.662   114288283.395        2041.019          27.000  
G14  20939691.878   110038727.590       -2381.055          35.000  
G17  20681592.157   108682320.155         -58.514          33.000  
G19  20686390.335   108707845.617        1719.405          33.000  
G22  20821682.174   109418603.563        -836.221          39.000  
J02  37680873.799   198014281.835         450.907          35.000  
J03  39140774.031   205686053.085        -290.357          39.000  
> 2025 04 24 04 45 56.9999328  0 25                     
C03  37295894.415   194209264.559          55.147          31.000  
C07  35710256.129   185952495.325         185.445          32.000  
C10  36402683.771   189558230.6841        426.544          19.000  
C13  39651867.708   206477564.007        1649.849          28.000  
C27  24638867.892   128301050.217       -2261.154          23.000  
C29  23212667.929   120874345.956        1808.286          29.000  
C30  21840180.882   113727339.239        -494.987          27.000  
C36  23379903.255   121745068.573       -2085.673          26.000  
C38  37456420.984   195045381.869        1481.990          24.000  
C40  35994660.240   187433641.086         214.648          22.000  
C45  24055925.055   125265663.735         535.382          37.000  
E02  23382086.643   122873718.258        -213.893          41.000  
E11  26358966.092   138517117.7961      -2244.486          17.000  
E16  27478531.134   144400646.2551      -3042.520           5.000  
E34  25257584.963   132729505.299        1891.049          23.000  
E36  23427959.086   123114752.600        -367.254          25.000  
G01  23549463.171   123753428.6671      -3112.772          12.000  
G03  21543024.499   113209263.412       -1408.791          41.000  
G06  21747953.330   114286228.594        2041.065          25.000  
G14  20940144.565   110041094.194       -2381.897          34.000  
G17  20681602.050   108682366.608         -61.111          29.000  
G19  20686058.465   108706114.410        1715.949          34.000  
G22  20821839.266   109419423.969        -836.038          40.000  
J02  37680788.658   198013815.284         452.046          35.000  
J03  39140828.593   205686329.883        -292.238          38.000  
> 2025 04 24 04 45 57.9998717  0 26                     
C03  37295881.036   194209190.681          60.344          32.000  
C07  35710218.468   185952294.636         185.822          31.000  
C10  36402604.439   189557789.3751        426.225          20.000  
C13  39651549.141   206475897.155        1654.361          27.000  
C27  24639301.204   128303296.278       -2263.056          27.000  
C29  23212313.387   120872522.661        1808.628          29.000  
C30  21840272.432   113727820.957        -496.991          28.000  
C36  23380310.785   121747412.695       -2079.207          25.000  
C38  37456135.694   195043884.355        1482.909          23.000  
C40  35994622.879   187433411.400         214.505          21.000  
C45  24055821.739   125265114.485         532.093          34.000  
E02  23382125.429   122873913.212        -213.104          40.000  
E11  26359393.709   138519345.4711      -2241.719          16.000  
E16  27479107.147   144403673.0181      -3043.655           5.000  
E25  25397290.759   133463663.2981      -2620.697          15.000  
E34  25257232.819   132727598.9471       1894.406          18.000  
E36  23428023.055   123115104.864        -368.300          29.000  
G01  23550052.076   123756525.2381      -3111.689          12.000  
G03  21543292.027   113210658.571       -1412.862          35.000  
G06  21747568.809   114284172.063        2042.475          27.000  
G14  20940594.965   110043458.429       -2377.335          33.000  
G17  20681612.355   108682411.184         -61.075          29.000  
G19  20685727.306   108704383.555        1715.910          33.000  
G22  20821997.369   109420242.949        -833.704          41.000  
J02  37680702.730   198013345.082         455.867          37.000  
J03  39140883.268   205686606.344        -290.331          37.000  
> 2025 04 24 04 45 58.9998106  0 26                     
C03  37295869.045   194209117.605          56.468          30.000  
C07  35710181.893   185952095.110         185.020          31.000  
C10  36402525.893   189557349.5421        425.833          19.000  
C13  39651228.963   206474226.911        1658.348          25.000  
C27  24639736.203   128305546.760       -2265.406          31.000  
C29  23211980.618   120870699.385        1809.401          34.000  
C30  21840361.470   113728303.875        -498.967          27.000  
C36  23380727.497   121749473.696       -2081.570          26.000  
C38  37455847.594   195042386.671        1485.195          25.000  
C40  35994592.300   187433184.263         212.141          21.000  
C45  24055649.058   125264076.863         529.452          32.000  
E02  23382162.603   122874111.303        -212.620          41.000  
E11  26359820.014   138521571.9411      -2248.640          11.000  
E16  27479686.646   144406701.7481      -3044.505           5.000  
E25  25397788.414   133466270.8221      -2620.236          10.000  
E34  25256877.865   132725689.9591       1895.428          19.000  
E36  23428096.504   123115457.003        -370.015          27.000  
G01  23550627.677   123759593.459       -3081.078          20.000  
G03  21543561.540   113212056.481       -1416.711          30.000  
G06  21747186.873   114282115.124        2043.668          28.000  
G14  20941045.853   110045818.668       -2376.376          34.000  
G17  20681624.047   108682458.354         -61.576          27.000  
G19  20685396.336   108702655.093        1713.374          33.000  
G22  20822155.060   109421061.445        -834.555          41.000  
J02  37680615.790   198012873.528         457.521          37.000  
J03  39140938.430   205686880.780        -290.761          36.000  
> 2025 04 24 04 45 59.9997496  0 26                     
C03  37295878.900   194209201.311          59.260          25.000  
C07  35710176.159   185952052.274         184.816          31.000  
C10  36402473.392   189557065.7901        425.591          18.000  
C13  39650938.427   206472708.738        1662.350          23.000  
C27  24640199.345   128307953.480       -2266.884          34.000  
C29  23211676.591   120869034.289        1807.627          35.000  
C30  21840488.844   113728942.023        -500.381          25.000  
C36  23381167.555   121751691.849       -2077.725          28.000  
C38  37455588.536   195041040.748        1490.173          26.000  
C40  35994591.363   187433114.917         210.483          22.000  
C45  24055586.964   125263689.701         528.089          29.000  
E02  23382234.816   122874466.124        -213.118          41.000  
E11  26360279.258   138523963.2391      -2249.116          11.000  
E16  27480294.888   144409923.9331      -3045.549           5.000  
E25  25398311.815   133469032.1071      -2619.398          10.000  
E34  25256556.450   132723937.785        1895.908          21.000  
E36  23428194.199   123115970.829        -371.010          26.000  
G01  23551239.216   123762817.1721      -3081.869          18.000  
G03  21543859.197   113213617.196       -1416.963          30.000  
G06  21746831.282   114280214.804        2044.364          27.000  
G14  20941524.584   110048334.675       -2373.341          33.000  
G17  20681665.081   108682662.400         -62.887          28.000  
G19  20685094.407   108701084.040        1713.896          33.000  
G22  20822342.093   109422036.871        -833.170          41.000  
J02  37680558.492   198012555.368         463.265          35.000  
J03  39141023.533   205687313.149        -289.284          35.000  
> 2025 04 24 04 46 00.9996885  0 26                     
C03  37295872.717   194209395.598          56.832          46.000  
C07  35710139.397   185951855.797         184.906          31.000  
C10  36402389.563   189556628.9591        424.347          19.000  
C13  39650616.262   206471032.771        1666.346          21.000  
C27  24640635.056   128310207.930       -2268.258          30.000  
C29  23211240.505   120867219.175        1802.129          41.000  
C30  21840592.085   113729693.781        -503.282          24.000  
C36  23381566.091   121753753.688       -2072.511          30.000  
C38  37455305.644   195039537.912        1492.416          26.000  
C40  35994560.297   187432893.271         209.130          22.000  
C45  24055491.442   125263150.283         528.606          31.000  
E02  23382274.800   122874667.547        -213.217          41.000  
E11  26360707.175   138526200.7631      -2249.839          10.000  
E16  27480871.501   144412957.0161      -3046.367           5.000  
E25  25398808.683   133471639.2221      -2618.561           8.000  
E34  25256207.604   132722029.679        1897.038          27.000  
E36  23428265.062   123116329.066        -371.749          26.000  
G01  23551827.222   123765905.2301      -3100.818          16.000  
G03  21544058.971   113215019.195       -1413.697          35.000  
G06  21746444.063   114278158.239        2046.010          25.000  
G14  20941974.385   110050695.221       -2371.519          32.000  
G17  20681675.087   108682713.144         -64.883          31.000  
G19  20684765.347   108699359.621        1710.729          36.000  
G22  20822498.097   109422857.298        -832.858          40.000  
J02  37680473.164   198012077.121         466.230          34.000  
J03  39141077.608   205687589.056        -289.283          31.000  
> 2025 04 24 04 46 01.9996274  0 26                     
C03  37295859.751   194209325.634          55.814          36.000  
C07  35710102.448   185951656.844         184.637          32.000  
C10  36402308.544   189556191.1091        422.999          19.000  
C13  39650293.910   206469350.287        1670.077          21.000  
C27  24641071.179   128312460.475       -2267.039          27.000  
C29  23210892.671   120865403.163        1801.504          42.000  
C30  21840690.642   113730181.664        -504.800          25.000  
C36  23381965.040   121755809.950       -2074.110          29.000  
C38  37455016.869   195038030.493        1494.251          28.000  
C40  35994529.044   187432958.356         208.922          21.000  
C45  24055396.033   125262609.114         525.410          31.000  
E02  23382310.101   122874864.557        -213.365          41.000  
E11  26361131.006   138528434.7491      -2250.950          11.000  
E16  27481447.927   144415983.7591      -3047.267           5.000  
E25  25399303.566   133474242.5121      -2617.542           8.000  
E34  25255846.279   132720117.697        1897.882          26.000  
E36  23428331.841   123116683.583        -372.590          26.000  
G01  23552408.145   123768992.3301      -3100.168          16.000  
G03  21544334.705   113216418.557       -1417.087          36.000  
G06  21746056.356   114276097.246        2047.222          25.000  
G14  20942424.299   110053050.637       -2371.163          32.000  
G17  20681686.104   108682763.995         -66.015          29.000  
G19  20684439.098   108697635.973        1707.863          34.000  
G22  20822653.614   109423674.850        -832.785          40.000  
J02  37680387.348   198011594.154         468.627          32.000  
J03  39141133.295   205687864.686        -291.310          36.000  
> 2025 04 24 04 46 02.9995663  0 25                     
C03  37295846.897   194209250.440          64.129          31.000  
C07  35710066.810   185951458.563         184.448          32.000  
C10  36402224.339   189555754.8331        422.513          20.000  
C13  39649972.270   206467665.085        1673.183          22.000  
C27  24641508.614   128314714.813       -2270.505          27.000  
C29  23210536.855   120863588.342        1800.815          41.000  
C30  21840778.818   113730673.196        -505.185          26.000  
C36  23382368.298   121757872.799       -2078.436          30.000  
C38  37454731.204   195036521.602        1495.667          29.000  
C40  35994500.901   187432735.831         209.511          21.000  
C45  24055290.844   125262071.567         522.878          30.000  
E02  23382353.309   122875064.454        -213.167          41.000  
E16  27482024.166   144419012.0661      -3048.376           4.000  
E25  25399798.560   133476847.4431      -2616.459           9.000  
E34  25255493.461   132718514.022        1899.837          28.000  
E36  23428399.931   123117042.034        -373.255          26.000  
G01  23552762.237   123770600.423       -3089.777          22.000  
G03  21544609.352   113217821.715       -1417.704          32.000  
G06  21745669.961   114274035.599        2048.190          26.000  
G14  20942872.826   110055405.538       -2369.442          30.000  
G17  20681698.433   108682814.155         -67.388          27.000  
G19  20684112.962   108695914.797        1707.471          31.000  
G22  20822810.743   109424490.055        -831.365          40.000  
J02  37680300.446   198011111.166         466.845          31.000  
J03  39141187.295   205688139.183        -289.877          36.000  
> 2025 04 24 04 46 03.9995053  0 25                     
C03  37295857.653   194209323.389          72.328          30.000  
C07  35710059.578   185951416.362         183.642          33.000  
C10  36402171.239   189555474.3841        422.157          19.000  
C13  39649680.835   206466132.900        1675.216          22.000  
C27  24641973.554   128317126.796       -2267.603          24.000  
C29  23210216.039   120861930.040        1800.193          40.000  
C30  21840900.797   113731316.493        -502.559          25.000  
C36  23382794.566   121760090.778       -2078.283          28.000  
C38  37454479.341   195035167.437        1496.400          28.000  
C40  35994505.060   187432668.645         208.415          22.000  
C45  24055218.856   125261690.337         524.002          30.000  
E02  23382423.722   122875420.337        -214.002          41.000  
E16  27482633.606   144422214.2751      -3049.673           4.000  
E25  25400324.359   133479606.6561      -2615.636           9.000  
E34  25255154.058   132716757.127        1898.808          27.000  
E36  23428500.024   123117558.664        -374.543          27.000  
G01  23553367.480   123773834.4201      -3091.175          18.000  
G03  21544912.105   113219383.420       -1420.151          30.000  
G06  21745312.871   114272131.969        2046.887          26.000  
G14  20943353.955   110057917.985       -2369.733          32.000  
G17  20681740.367   108683024.347         -68.137          28.000  
G19  20683819.727   108694351.080        1705.477          28.000  
G22  20822998.376   109425465.263        -834.005          40.000  
J02  37680243.748   198010785.717         468.015          31.000  
J03  39141272.698   205688571.232        -290.586          31.000  
> 2025 04 24 04 46 04.9994442  0 25                     
C03  37295845.024   194209234.641          73.154          30.000  
C07  35710022.966   185951217.088         183.602          33.000  
C10  36402087.559   189555036.6201        422.475          19.000  
C13  39649358.520   206464446.953        1672.310          22.000  
C27  24642411.513   128319378.791       -2271.052          25.000  
C29  23209879.635   120860113.881        1801.222          40.000  
C30  21840998.491   113731804.413        -504.661          25.000  
C36  23383195.351   121762433.500       -2076.711          34.000  
C38  37454193.002   195033655.300        1496.235          29.000  
C40  35994474.744   187432444.715         207.895          22.000  
C45  24055118.988   125261152.207         522.083          29.000  
E02  23382459.060   122875617.244        -214.087          40.000  
E11  26362619.738   138536501.6771      -2269.470          14.000  
E16  27483212.468   144425256.4141      -3050.287           4.000  
E25  25400815.681   133482205.4631      -2614.640           8.000  
E34  25254797.567   132714842.172        1899.721          27.000  
E36  23428575.235   123117915.322        -374.835          26.000  
G01  23553952.038   123776909.3971      -3091.528          16.000  
G03  21545186.078   113220787.429       -1420.742          29.000  
G06  21744927.000   114270362.227        2046.035          28.000  
G14  20943804.206   110060269.676       -2369.150          33.000  
G17  20681752.621   108683342.862         -68.833          29.000  
G19  20683494.715   108692629.577        1705.963          30.000  
G22  20823154.830   109426281.442        -833.023          40.000  
J03  39141326.923   205688845.953        -290.975          28.000  
> 2025 04 24 04 46 06.0003831  0 26                     
C03  37295850.308   194209244.754          75.185          30.000  
C07  35710003.067   185951116.931         184.037          33.000  
C10  36402026.889   189554697.8621        422.180          19.000  
C13  39649055.617   206462855.374        1675.468          23.000  
C27  24642862.289   128321736.906       -2269.720          25.000  
C29  23209545.254   120858395.835        1797.729          41.000  
C30  21841120.394   113732391.880        -505.168          23.000  
C36  23383590.065   121764594.601       -2079.737          33.000  
C38  37453933.569   195032239.502        1499.158          27.000  
C40  35994466.237   187432630.783         206.837          23.000  
C45  24055036.432   125260714.409         519.861          31.000  
E02  23382523.703   122875915.702        -214.585          41.000  
E11  26363075.010   138538856.5011      -2268.300          16.000  
E16  27483811.641   144428405.0931      -3051.552           4.000  
E25  25401328.214   133484905.4391      -2603.728           8.000  
E34  25254459.589   132713024.764        1900.923          27.000  
E36  23428665.360   123118374.099        -374.734          25.000  
G01  23554545.215   123780088.562       -3093.348          21.000  
G03  21545480.362   113222294.053       -1421.643          29.000  
G06  21744557.544   114268399.146        2045.111          27.000  
G14  20944273.269   110062723.835       -2369.265          33.000  
G17  20681783.387   108683495.453         -69.003          31.000  
G19  20683188.514   108691006.665        1706.550          29.000  
G22  20823332.794   109427199.080        -833.061          40.000  
J02  37680090.704   198010212.4831        468.751          32.000  
J03  39141399.960   205689221.022        -292.789          27.000  
> 2025 04 24 04 46 07.0003220  0 26                     
C03  37295836.854   194209155.295          76.932          29.000  
C07  35709966.829   185950919.035         184.225          33.000  
C10  36401948.081   189554262.0651        421.825          19.000  
C13  39648732.479   206461165.360        1677.025          22.000  
C27  24643297.025   128323992.787       -2272.298          25.000  
C29  23209204.427   120856584.083        1798.509          42.000  
C30  21841213.967   113732883.206        -506.414          25.000  
C36  23383978.633   121766662.151       -2081.545          34.000  
C38  37453658.397   195031027.386        1498.573          29.000  
C40  35994432.698   187432411.257         204.768          23.000  
C45  24054933.041   125260181.978         519.669          31.000  
E02  23382558.217   122876116.828        -215.820          41.000  
E11  26363507.648   138541110.5111      -2267.824          16.000  
E16  27484392.076   144431454.9931      -3052.696           4.000  
E25  25401815.114   133487495.6101      -2607.331          15.000  
E34  25254096.278   132711109.729        1899.283          24.000  
E36  23428731.951   123118734.063        -376.664          27.000  
G01  23555124.452   123783170.1811      -3095.156          20.000  
G03  21545751.412   113223701.541       -1423.852          29.000  
G06  21744166.052   114266340.200        2045.763          29.000  
G14  20944722.096   110065078.071       -2369.223          33.000  
G17  20681793.317   108683549.230         -69.012          28.000  
G19  20682861.778   108689287.673        1704.725          27.000  
G22  20823490.522   109428017.419        -832.349          40.000  
J02  37680002.602   198009729.720         468.600          32.000  
J03  39141380.811   205689499.396        -292.000          23.000  
> 2025 04 24 04 46 08.0002609  0 26                     
C03  37295820.853   194209062.192          80.149          28.000  
C07  35709930.142   185950721.239         182.211          32.000  
C10  36401863.127   189553825.8271        421.660          19.000  
C13  39648409.190   206459478.892        1673.595          22.000  
C27  24643751.998   128326249.091       -2270.151          26.000  
C29  23208845.163   120854771.195        1797.324          41.000  
C30  21841295.099   113733374.016        -507.318          27.000  
C36  23384373.647   121768727.307       -2081.393          32.000  
C38  37453366.287   195029514.075        1499.956          29.000  
C40  35994401.107   187432192.168         204.419          24.000  
C45  24054836.995   125259647.262         519.655          29.000  
E02  23382597.377   122876317.433        -215.734          41.000  
E11  26363938.638   138543362.7391      -2266.240          16.000  
E16  27484971.762   144434501.8741      -3054.163           4.000  
E25  25402299.766   133490089.1681      -2608.117          19.000  
E34  25253739.412   132709196.131        1897.804          24.000  
E36  23428803.190   123119094.905        -378.162          26.000  
G01  23555712.232   123786249.4791      -3097.056          18.000  
G03  21546024.110   113225110.647       -1427.301          28.000  
G06  21743778.308   114264280.670        2043.933          29.000  
G14  20945170.173   110067431.207       -2368.979          31.000  
G17  20681804.597   108683603.482         -70.504          28.000  
G19  20682535.191   108687568.421        1704.850          26.000  
G22  20823647.202   109428835.019        -833.719          40.000  
J02  37679910.753   198009246.446         467.156          30.000  
J03  39141440.357   205689774.182        -290.921          21.000  
> 2025 04 24 04 46 09.0001998  0 25                     
C03  37295814.070   194208962.121          85.506          27.000  
C07  35709892.781   185950524.726         181.521          32.000  
C10  36401781.696   189553389.6831        420.518          19.000  
C13  39648088.824   206457788.736        1677.080          23.000  
C29  23208490.621   120852959.181        1796.874          41.000  
C30  21841382.750   113733866.811        -506.293          26.000  
C36  23384767.987   121770794.613       -2083.870          32.000  
C38  37453077.099   195027999.962        1499.261          29.000  
C40  35994374.838   187431972.599         205.221          24.000  
C45  24054744.472   125259113.244         517.628          28.000  
E02  23382636.163   122876516.636        -216.389          41.000  
E11  26364377.646   138545613.4771      -2266.046          16.000  
E16  27485553.472   144437558.1271      -3055.114           4.000  
E25  25402780.146   133492683.2881      -2608.683          19.000  
E34  25253384.870   132707283.441        1898.042          25.000  
E36  23428872.554   123119457.109        -378.282          24.000  
G01  23556293.942   123789332.4861      -3098.706          18.000  
G03  21546292.237   113226523.325       -1428.604          26.000  
G06  21743394.986   114262222.788        2042.538          29.000  
G14  20945619.974   110069784.122       -2368.504          31.000  
G17  20681817.900   108683659.558         -72.122          30.000  
G19  20682203.733   108685848.794        1704.644          24.000  
G22  20823803.506   109429653.404        -833.526          39.000  
J02  37679813.433   198008762.790         468.335          26.000  
J03  39141500.428   205690049.182        -290.424          22.000  
> 2025 04 24 04 46 10.0001388  0 24                     
C03  37295831.383   194209023.628          79.867          27.000  
C07  35709884.911   185950486.207         182.244          32.000  
C10  36401727.958   189553115.2021        417.450          19.000  
C13  39647795.252   206456254.227        1678.307          25.000  
C29  23208176.664   120851305.222        1797.472          41.000  
C30  21841498.096   113734515.029        -506.674          29.000  
C36  23385191.219   121773020.669       -2083.318          32.000  
C38  37452816.205   195026644.486        1498.828          29.000  
C40  35994375.662   187431910.454         206.037          24.000  
C45  24054679.642   125259028.744         517.163          29.000  
E02  23382710.436   122876877.632        -216.572          42.000  
E11  26364838.652   138548024.4011      -2265.253          16.000  
E25  25403292.117   133495435.0181      -2609.536          17.000  
E34  25253057.422   132705529.848        1898.568          28.000  
E36  23428975.907   123119976.924        -378.154          27.000  
G01  23556913.238   123792576.8191      -3098.312          19.000  
G03  21546593.154   113228092.854       -1425.961          26.000  
G06  21743039.057   114260325.094        2042.567          28.000  
G14  20946098.967   110072296.559       -2370.482          32.000  
G17  20681860.696   108683874.855         -71.785          29.000  
G19  20681901.767   108684289.672        1703.252          21.000  
G22  20823989.602   109430632.036        -835.663          39.000  
J02  37679746.204   198008438.171         467.445          24.000  
J03  39141593.289   205690484.004        -290.655          21.000  
> 2025 04 24 04 46 11.0000777  0 24                     
C03  37295807.662   194208926.049          76.269          27.000  
C07  35709847.699   185950547.515         184.408          32.000  
C10  36401649.075   189552681.4661        418.395          15.000  
C13  39647470.840   206454561.155        1677.029          25.000  
C29  23207834.563   120849491.982        1799.641          42.000  
C30  21841593.092   113735005.132        -506.475          26.000  
C36  23385599.199   121775087.194       -2081.744          34.000  
C38  37452531.365   195025129.940        1499.484          29.000  
C40  35994344.746   187431998.529         206.750          24.000  
C45  24054579.474   125258497.297         515.848          29.000  
E02  23382747.273   122877077.849        -216.559          42.000  
E11  26365272.714   138550273.3451      -2264.824          16.000  
E25  25403779.842   133497764.5351      -2606.413          17.000  
E34  25252705.428   132703615.208        1898.917          28.000  
E36  23429054.116   123120339.546        -378.642          25.000  
G01  23557507.989   123795657.659       -3096.576          21.000  
G03  21546863.829   113229502.904       -1427.579          27.000  
G06  21742654.086   114258266.617        2043.674          28.000  
G14  20946547.719   110074649.617       -2370.501          31.000  
G17  20681871.451   108683928.595         -69.992          30.000  
G19  20681573.457   108682572.106        1701.599          22.000  
G22  20824146.956   109431450.040        -834.199          40.000  
J02  37679648.734   198007953.746         467.655          21.000  
J03  39141655.308   205690757.846        -291.228          20.000  
> 2025 04 24 04 46 12.0000166  0 24                     
C03  37295796.233   194208837.401          73.354          27.000  
C07  35709810.787   185950349.161         183.629          32.000  
C10  36401563.597   189552248.2741        419.771          14.000  
C13  39647150.924   206452870.726        1676.240          25.000  
C29  23207502.056   120847679.750        1797.102          42.000  
C30  21841686.590   113735494.627        -503.730          22.000  
C36  23385995.187   121777153.311       -2083.152          33.000  
C38  37452236.631   195023616.447        1498.893          25.000  
C40  35994311.732   187431776.948         208.459          23.000  
C45  24054482.004   125257967.549         515.467          28.000  
E02  23382788.307   122877277.758        -217.121          41.000  
E11  26365697.482   138552524.2311      -2265.484          16.000  
E25  25404278.359   133500355.7581      -2606.727           9.000  
E34  25252357.632   132702034.834        1897.280          27.000  
E36  23429114.936   123120702.030        -378.602          25.000  
G01  23558102.740   123798739.344       -3096.000          22.000  
G03  21547134.504   113230915.767       -1427.546          25.000  
G06  21742192.968   114256208.260        2044.511          24.000  
G14  20946996.471   110077005.980       -2370.288          29.000  
G17  20681882.506   108683983.636         -69.540          29.000  
G19  20681250.243   108680855.918        1702.333          21.000  
G22  20824304.909   109432269.833        -834.937          39.000  
J02  37679553.063   198007471.626         465.629          28.000  
J03  39141713.431   205691035.025        -290.746          22.000  
> 2025 04 24 04 46 12.9999555  0 24                     
C03  37295774.235   194208753.664          72.746          25.000  
C07  35709776.499   185950154.471         183.000          33.000  
C10  36401484.639   189552082.7191        423.479          14.000  
C13  39646825.536   206451183.631        1675.214          28.000  
C29  23207171.572   120845871.123        1797.514          42.000  
C30  21841786.009   113735986.200        -503.800          21.000  
C36  23386396.497   121779225.233       -2084.173          34.000  
C38  37451896.254   195022106.302        1499.360          25.000  
C40  35994284.038   187431556.124         210.321          24.000  
C45  24054384.758   125257440.039         516.200          28.000  
E02  23382829.866   122877483.183        -217.558          41.000  
E11  26366129.671   138554777.3311      -2265.592          16.000  
E25  25404772.904   133502952.5851      -2610.482          11.000  
E34  25251925.818   132699766.064        1897.444          27.000  
E36  23429175.082   123121066.983        -378.463          25.000  
G01  23558685.724   123801821.9701      -3096.233          18.000  
G03  21547407.503   113232329.729       -1427.409          23.000  
G06  21741805.824   114254153.184        2042.853          29.000  
G14  20947449.045   110079362.563       -2370.810          35.000  
G17  20681896.483   108684040.878         -70.592          29.000  
G19  20680922.158   108679141.953        1702.504          22.000  
G22  20824463.986   109433091.694        -835.960          40.000  
J02  37679470.508   198006992.546         466.860          32.000  
J03  39141772.977   205691311.549        -290.504          24.000  
> 2025 04 24 04 46 13.9998945  0 24                     
C03  37295785.365   194208821.070          70.716          25.000  
C07  35709769.641   185950110.974         182.867          33.000  
C10  36401438.808   189551801.0051        420.269          16.000  
C13  39646527.280   206449648.014        1675.049          28.000  
C29  23206861.924   120844213.806        1797.146          42.000  
C30  21841914.357   113736626.871        -503.387          22.000  
C36  23386828.536   121781448.575       -2084.783          34.000  
C38  37451645.066   195020746.853        1497.833          24.000  
C40  35994283.776   187431485.379         209.667          24.000  
C45  24054313.445   125257064.499         514.664          29.000  
E02  23382901.254   122877841.898        -218.484          41.000  
E11  26366592.888   138557184.2251      -2265.160          16.000  
E25  25405301.176   133505702.5071      -2609.683          14.000  
E34  25251586.490   132698008.801        1898.787          29.000  
E36  23429272.252   123121584.501        -377.786          24.000  
G01  23559310.529   123805059.7981      -3096.807          18.000  
G03  21547713.029   113233897.656       -1428.572          24.000  
G06  21741447.909   114252252.791        2041.218          30.000  
G14  20947928.751   110081873.726       -2369.608          33.000  
G17  20681939.691   108684252.414         -72.217          29.000  
G19  20680615.808   108677580.351        1701.980          23.000  
G22  20824650.494   109434068.385        -836.589          40.000  
J02  37679415.084   198006665.008         467.712          32.000  
J03  39141862.353   205691742.445        -290.449          26.000  
> 2025 04 24 04 46 14.9998334  0 24                     
C03  37295768.389   194208742.290          68.774          26.000  
C07  35709731.979   185949917.799         183.697          33.000  
C10  36401363.673   189551371.6161        418.936          19.000  
C13  39646202.418   206447962.573        1675.878          28.000  
C29  23206516.675   120842406.634        1798.537          41.000  
C30  21842008.904   113737119.397        -504.494          21.000  
C36  23387230.370   121783520.339       -2084.091          34.000  
C38  37451371.168   195019240.786        1495.608          28.000  
C40  35994253.010   187431266.417         208.152          24.000  
C45  24054215.526   125256541.115         514.558          29.000  
E02  23382941.239   122878047.918        -218.171          41.000  
E11  26367023.502   138559438.6051      -2265.028          16.000  
E25  25405795.646   133508302.6071      -2610.032          15.000  
E34  25251222.955   132696100.424        1898.002          29.000  
E36  23429344.915   123121951.378        -378.166          26.000  
G01  23559911.425   123808146.348       -3096.885          20.000  
G03  21547984.453   113235316.847       -1430.315          25.000  
G06  21741062.788   114250200.273        2041.484          31.000  
G14  20948380.351   110084233.048       -2372.262          33.000  
G17  20681956.592   108684314.350         -72.537          26.000  
G19  20680288.846   108675868.819        1700.723          24.000  
G22  20824809.197   109434893.636        -837.921          40.000  
J02  37679328.556   198006186.321         467.379          32.000  
J03  39141921.824   205692021.913        -291.329          26.000  
> 2025 04 24 04 46 15.9997723  0 24                     
C03  37295745.568   194208660.359          62.196          25.000  
C07  35709695.367   185949718.775         182.935          33.000  
C10  36401285.090   189550936.7851        419.299          19.000  
C13  39645878.904   206446271.315        1676.100          28.000  
C29  23206165.881   120840593.353        1796.908          39.000  
C30  21842104.800   113737608.930        -506.319          25.000  
C36  23387629.356   121785589.323       -2084.915          33.000  
C38  37451082.730   195017728.774        1497.262          28.000  
C40  35994224.192   187431370.357         207.803          25.000  
C45  24054104.565   125256010.444         514.348          29.000  
E02  23382977.477   122878250.157        -218.998          41.000  
E11  26367453.367   138561687.1441      -2266.048          16.000  
E25  25406292.665   133510896.6241      -2610.140          15.000  
E34  25250869.462   132694186.953        1897.486          30.000  
E36  23429417.727   123122313.775        -378.857          27.000  
G01  23560511.572   123811227.638       -3096.926          22.000  
G03  21548254.229   113236729.451       -1430.485          27.000  
G06  21740678.716   114248143.369        2040.475          32.000  
G14  20948829.402   110086587.836       -2372.222          34.000  
G17  20681973.043   108684368.888         -72.901          28.000  
G19  20679968.031   108674152.170        1701.458          25.000  
G22  20824968.050   109435714.585        -838.241          41.000  
J02  37679240.979   198005702.332         466.777          32.000  
J03  39141979.946   205692295.604        -290.655          24.000  
> 2025 04 24 04 46 16.9997112  0 25                     
C03  37295722.596   194208590.058          56.157          26.000  
C07  35709658.905   185949524.678         181.880          33.000  
C10  36401209.654   189550505.7341        418.938          17.000  
C13  39645555.241   206444583.893        1675.449          27.000  
C29  23205811.638   120838785.853        1796.283          39.000  
C30  21842200.547   113738102.951        -507.808          24.000  
C36  23388027.893   121787662.539       -2086.521          33.000  
C38  37450788.446   195016218.770        1497.387          25.000  
C40  35994196.424   187431151.967         205.246          26.000  
C45  24054007.245   125255486.518         509.813          29.000  
E02  23383018.661   122878458.539        -220.328          41.000  
E11  26367890.876   138563941.0231      -2266.255          16.000  
E16  27490812.094   144465192.7031      -3027.546          22.000  
E25  25406794.330   133513495.8131      -2612.848          15.000  
E34  25250516.419   132692278.565        1896.188          30.000  
E36  23429495.485   123122679.642        -379.684          26.000  
G01  23561114.567   123814312.569       -3097.569          23.000  
G03  21548524.454   113238147.480       -1431.441          25.000  
G06  21740295.394   114246091.525        2039.827          32.000  
G14  20949278.304   110088948.343       -2372.943          34.000  
G17  20681988.745   108684430.056         -73.765          30.000  
G19  20679648.265   108672438.893        1701.515          24.000  
G22  20825127.352   109436541.039        -839.119          41.000  
J02  37679154.751   198005223.340         465.881          32.000  
J03  39142037.919   205692573.668        -291.123          29.000  
> 2025 04 24 04 46 17.9996502  0 24                     
C03  37295732.901   194208673.562          56.138          25.000  
C07  35709651.822   185949482.589         181.569          33.000  
C10  36401158.502   189550226.8031        418.752          16.000  
C13  39645262.756   206443049.183        1673.635          27.000  
C29  23205477.182   120837130.007        1796.260          39.000  
C30  21842323.274   113738750.644        -509.383          22.000  
C36  23388447.415   121789887.005       -2085.418          32.000  
C38  37450526.840   195014861.336        1495.855          24.000  
C40  35994199.234   187431087.165         204.036          26.000  
C45  24053928.212   125255115.175         511.694          30.000  
E02  23383085.627   122878819.584        -220.919          41.000  
E11  26368353.269   138566631.4261      -2266.572          16.000  
E25  25407319.079   133516249.6271      -2613.452          15.000  
E34  25250191.556   132690523.649        1895.706          31.000  
E36  23429595.429   123123199.367        -380.471          27.000  
G01  23561743.644   123817549.740       -3097.868          25.000  
G03  21548826.758   113239719.105       -1432.532          27.000  
G06  21739942.951   114244192.880        2039.177          32.000  
G14  20949757.185   110091460.554       -2373.842          35.000  
G17  20682032.327   108684643.743         -74.129          32.000  
G19  20679360.277   108670879.136        1700.382          23.000  
G22  20825316.633   109437520.555        -840.133          41.000  
J02  37679096.704   198004898.023         465.711          32.000  
J03  39142121.673   205693005.886        -291.139          28.000  
> 2025 04 24 04 46 18.9995891  0 25                     
C03  37295708.618   194208599.318          61.223          26.000  
C07  35709617.946   185949287.119         181.613          33.000  
C10  36401078.458   189549793.9481        419.220          16.000  
C13  39644942.877   206441361.752        1673.943          28.000  
C29  23205110.536   120835319.760        1796.211          40.000  
C30  21842426.103   113739245.445        -507.868          26.000  
C36  23388846.738   121791956.171       -2087.312          33.000  
C38  37450236.641   195013351.239        1497.551          21.000  
C40  35994170.454   187430868.747         205.090          27.000  
C45  24053827.182   125254589.156         511.995          31.000  
E02  23383127.598   122879024.991        -220.936          41.000  
E11  26368793.664   138568882.5901      -2266.337          19.000  
E16  27491998.186   144471425.1201      -3027.145          24.000  
E25  25407814.936   133518848.0481      -2613.778           9.000  
E34  25249832.705   132688614.046        1895.681          31.000  
E36  23429669.777   123123563.941        -380.098          28.000  
G01  23562336.634   123820914.556       -3098.217          25.000  
G03  21549099.869   113241137.136       -1432.888          29.000  
G06  21739561.315   114242140.180        2038.780          32.000  
G14  20950206.574   110093819.212       -2374.724          35.000  
G17  20682044.618   108684702.058         -74.378          31.000  
G19  20679041.897   108669164.800        1700.201          23.000  
G22  20825475.823   109438613.248        -839.800          42.000  
J02  37679009.465   198004417.372         465.820          33.000  
J03  39142177.135   205693281.417        -290.988          27.000  
> 2025 04 24 04 46 19.9995280  0 24                     
C03  37295692.879   194208528.580          55.723          25.000  
C07  35709580.922   185949092.063         182.112          33.000  
C10  36400997.963   189549361.1071        420.004          16.000  
C13  39644621.350   206439946.398        1674.616          27.000  
C29  23204760.229   120833510.917        1795.351          39.000  
C30  21842529.082   113739740.219        -510.616          28.000  
C36  23389249.210   121794028.981       -2086.832          33.000  
C38  37449951.088   195011840.778        1497.201          26.000  
C40  35994141.524   187430939.764         204.956          26.000  
C45  24053718.207   125254064.254         511.423          31.000  
E02  23383170.018   122879233.122        -221.281          41.000  
E11  26369223.416   138571136.5431      -2266.858          16.000  
E25  25408308.844   133521448.6631      -2614.302           8.000  
E34  25249475.202   132686705.232        1895.790          29.000  
E36  23429736.781   123123929.374        -380.227          29.000  
G01  23562934.570   123823999.425       -3097.464          22.000  
G03  21549372.530   113242556.936       -1434.088          30.000  
G06  21739176.531   114240087.830        2039.007          28.000  
G14  20950656.412   110096181.016       -2375.989          34.000  
G17  20682056.460   108684763.176         -74.148          29.000  
G19  20678717.672   108667452.455        1699.726          23.000  
G22  20825634.263   109439440.174        -840.427          41.000  
J02  37678920.576   198003937.268         465.891          32.000  
J03  39142236.643   205693841.646        -290.071          25.000  
> 2025 04 24 04 46 20.9994669  0 25                     
C03  37295689.769   194208459.413          56.830          26.000  
C07  35709544.834   185948897.320         181.167          32.000  
C10  36400918.706   189548927.7271        420.493          16.000  
C13  39644301.059   206438258.545        1675.134          26.000  
C27  24649503.441   128356432.4101      -2272.191          24.000  
C29  23204424.049   120831702.043        1796.344          40.000  
C30  21842629.100   113740237.008        -510.788          27.000  
C36  23389654.417   121796103.688       -2087.095          34.000  
C38  37449672.769   195010330.742        1497.738          28.000  
C40  35994106.936   187430721.780         205.707          25.000  
C45  24053617.964   125253540.108         510.432          31.000  
E02  23383210.378   122879439.104        -221.573          41.000  
E11  26369648.710   138573389.9911      -2267.654          16.000  
E25  25408801.890   133524049.0231      -2614.632           8.000  
E34  25249118.936   132684797.106        1894.742          26.000  
E36  23429811.916   123124296.480        -381.136          26.000  
G01  23563528.646   123827084.7031      -3097.523          20.000  
G03  21549644.629   113243975.246       -1432.905          31.000  
G06  21738788.487   114238036.020        2038.533          23.000  
G14  20951104.490   110098543.262       -2376.075          32.000  
G17  20682067.740   108684822.639         -74.826          28.000  
G19  20678392.884   108665739.533        1700.645          25.000  
G22  20825793.341   109440267.244        -841.391          41.000  
J02  37678829.327   198003457.461         465.214          32.000  
J03  39142297.689   205694117.152        -290.805          24.000  
> 2025 04 24 04 46 22.0004058  0 26                     
C03  37295702.997   194208479.588          61.992          27.000  
C07  35709526.584   185948796.042         181.133          30.000  
C10  36400859.684   189548586.8291        420.440          16.000  
C13  39643999.205   206436662.272        1674.368          26.000  
C27  24649959.163   128358786.520       -2271.443          23.000  
C29  23204106.606   120829984.530        1795.218          40.000  
C30  21842744.258   113740828.373        -510.308          26.000  
C36  23390078.061   121798271.188       -2087.788          34.000  
C38  37449418.282   195008911.354        1497.220          29.000  
C40  35994093.483   187430595.619         205.278          24.000  
C45  24053533.160   125253108.840         510.179          29.000  
E02  23383270.973   122879740.909        -221.626          41.000  
E11  26370091.840   138575742.1211      -2268.035          16.000  
E16  27493747.250   144480616.5491      -3029.005          25.000  
E25  25409314.872   133526748.1011      -2614.986           8.000  
E34  25248782.607   132683248.513        1894.248          23.000  
E36  23429894.996   123124758.353        -381.277          25.000  
G01  23564144.757   123830266.483       -3098.093          23.000  
G03  21549937.564   113245489.625       -1434.593          31.000  
G06  21738418.281   114236076.605        2037.936          22.000  
G14  20951571.004   110101001.985       -2376.798          32.000  
G17  20682097.157   108684978.652         -75.447          28.000  
G19  20678079.938   108664118.231        1698.903          23.000  
G22  20825969.956   109441189.618        -842.275          41.000  
J02  37678756.814   198003070.702         467.179          31.000  
J03  39142378.071   205694487.729        -291.175          27.000  
> 2025 04 24 04 46 23.0003447  0 25                     
C03  37295692.954   194208397.758          75.966          27.000  
C07  35709489.260   185948603.365         181.401          31.000  
C10  36400785.486   189548441.4141        419.733          16.000  
C13  39643675.579   206434975.750        1674.982          26.000  
C27  24650390.415   128361044.259       -2270.703          24.000  
C29  23203773.087   120828178.048        1796.249          40.000  
C30  21842845.138   113741325.605        -509.904          28.000  
C36  23390480.532   121800345.851       -2088.459          35.000  
C38  37449135.128   195007403.932        1494.838          30.000  
C40  35994063.953   187430378.909         205.231          25.000  
C45  24053433.480   125252589.452         508.258          29.000  
E02  23383310.396   122879951.012        -222.870          41.000  
E11  26370509.001   138577998.5141      -2264.775          16.000  
E25  25409808.780   133529351.2921      -2615.078           8.000  
E34  25248425.704   132681342.696        1894.252          23.000  
E36  23429971.893   123125126.332        -381.123          27.000  
G01  23564743.892   123833352.514       -3098.325          24.000  
G03  21550213.223   113246913.066       -1436.438          30.000  
G06  21738029.001   114234027.604        2037.043          23.000  
G14  20952022.642   110103365.694       -2377.001          34.000  
G17  20682107.800   108685041.990         -75.512          29.000  
G19  20677748.218   108662408.131        1696.530          22.000  
G22  20826128.696   109442019.931        -843.022          41.000  
J02  37678667.926   198002591.993         464.900          30.000  
J03  39142437.579   205694765.660        -291.362          28.000  
> 2025 04 24 04 46 24.0002836  0 24                     
C03  37295682.724   194208303.812          79.307          27.000  
C07  35709452.948   185948406.041         181.822          31.000  
C10  36400697.609   189548006.1141        419.819          16.000  
C13  39643351.167   206433285.457        1673.713          27.000  
C27  24650817.582   128363299.141       -2277.298          24.000  
C29  23203436.982   120826367.251        1794.671          40.000  
C30  21842936.237   113741818.996        -510.721          29.000  
C36  23390886.114   121802418.087       -2088.594          35.000  
C38  37448845.191   195005894.212        1494.546          31.000  
C40  35994031.538   187430157.975         205.248          25.000  
C45  24053336.609   125252064.637         509.796          30.000  
E02  23383352.030   122880158.433        -223.551          41.000  
E11  26370934.669   138580247.1071      -2267.578          19.000  
E34  25248051.225   132679432.878        1893.993          24.000  
E36  23430039.908   123125489.819        -382.104          26.000  
G01  23565341.941   123836707.425       -3098.312          25.000  
G03  21550484.198   113248334.601       -1437.953          30.000  
G06  21737638.034   114231975.264        2036.473          25.000  
G14  20952472.593   110105725.338       -2378.158          34.000  
G17  20682114.657   108685099.346         -75.272          28.000  
G19  20677417.509   108660695.4171       1697.439          19.000  
G22  20826286.649   109442846.919        -844.705          41.000  
J02  37678577.351   198002111.307         464.313          30.000  
J03  39142490.305   205695040.843        -293.077          27.000  
> 2025 04 24 04 46 25.0002225  0 24                     
C03  37295659.340   194208209.056          84.261          28.000  
C07  35709416.673   185948212.305         180.972          31.000  
C10  36400619.963   189547574.0961        419.617          15.000  
C13  39643026.192   206431600.693        1671.558          27.000  
C27  24651242.388   128365563.069       -2273.638          25.000  
C29  23203094.919   120824561.019        1793.794          40.000  
C30  21843033.070   113742315.904        -512.650          28.000  
C36  23391289.635   121804496.422       -2090.839          35.000  
C38  37448558.890   195004385.994        1496.776          31.000  
C40  35994006.955   187430239.541         204.789          25.000  
C45  24053242.474   125251544.120         507.473          31.000  
E02  23383392.502   122880368.266        -224.483          41.000  
E11  26371366.670   138582502.4431      -2267.906          19.000  
E34  25247680.682   132677526.969        1893.156          27.000  
E36  23430113.058   123125859.405        -383.240          26.000  
G01  23565937.329   123839793.768       -3099.690          26.000  
G03  21550751.013   113249758.951       -1438.250          28.000  
G06  21737250.702   114229926.928        2035.501          28.000  
G14  20952923.780   110108357.435       -2379.422          34.000  
G17  20682123.052   108685163.275         -76.943          30.000  
G19  20677095.532   108658985.8651       1697.077          18.000  
G22  20826445.239   109443676.746        -844.667          41.000  
J02  37678489.512   198001632.571         465.246          31.000  
J03  39142546.367   205695321.567        -293.380          28.000  
> 2025 04 24 04 46 26.0001615  0 25                     
C03  37295679.201   194208262.856          89.700          27.000  
C07  35709409.553   185948172.772         180.509          31.000  
C10  36400573.270   189547295.8091        419.457          15.000  
C13  39642731.271   206430069.489        1673.454          27.000  
C27  24651697.847   128367978.620       -2273.916          26.000  
C29  23202777.514   120822908.244        1793.676          41.000  
C30  21843160.857   113742970.300        -513.486          29.000  
C36  23391719.612   121806725.459       -2091.020          36.000  
C38  37448306.240   195003031.248        1494.920          31.000  
C40  35994006.730   187430176.030         204.661          26.000  
C45  24053185.289   125251177.563         507.368          30.000  
E02  23383466.326   122880734.620        -224.759          41.000  
E11  26371836.820   138584913.8861      -2268.723          20.000  
E25  25411183.366   133536670.0711      -2614.264           9.000  
E34  25247344.390   132675776.437        1892.933          30.000  
E36  23430215.062   123126383.516        -383.295          24.000  
G01  23566559.473   123843033.970       -3099.240          25.000  
G03  21551049.381   113251337.665       -1438.607          29.000  
G06  21736891.626   114228033.643        2035.387          29.000  
G14  20953407.720   110110879.035       -2379.610          35.000  
G17  20682161.800   108685380.843         -77.334          29.000  
G19  20676792.817   108657431.2171       1697.489          17.000  
G22  20826635.083   109444663.103        -844.314          42.000  
J02  37678429.928   198001308.725         465.159          32.000  
J03  39142634.880   205695753.512        -289.269          27.000  
> 2025 04 24 04 46 27.0001004  0 25                     
C03  37295659.490   194208158.895          89.504          27.000  
C07  35709373.952   185947978.885         180.532          31.000  
C10  36400502.894   189546863.0251        419.198          15.000  
C13  39642407.270   206428382.535        1674.102          26.000  
C27  24652133.521   128370237.896       -2273.596          27.000  
C29  23202429.830   120821101.059        1793.667          40.000  
C30  21843256.266   113743468.914        -512.232          29.000  
C36  23392120.509   121808803.344       -2091.104          35.000  
C38  37448018.514   195001523.295        1494.807          31.000  
C40  35993970.530   187429957.519         205.273          25.000  
C45  24053096.325   125250657.380         506.872          29.000  
E02  23383506.573   122880945.912        -225.582          41.000  
E11  26372276.091   138587168.865       -2269.114          20.000  
E25  25411677.199   133539270.0771      -2614.125           8.000  
E34  25246983.515   132673870.276        1892.969          30.000  
E36  23430291.584   123126753.218        -383.711          22.000  
G01  23567155.235   123846120.576       -3099.857          26.000  
G03  21551320.469   113252761.636       -1439.451          29.000  
G06  21736503.469   114225985.187        2034.981          29.000  
G14  20953859.882   110113242.530       -2379.540          35.000  
G17  20682175.066   108685444.444         -77.479          28.000  
G19  20676458.623   108655720.6561       1696.616          18.000  
G22  20826794.348   109445494.357        -845.574          42.000  
J02  37678341.265   198000829.596         465.191          33.000  
J03  39142692.815   205696028.133        -291.388          26.000  
> 2025 04 24 04 46 28.0000393  0 25                     
C03  37295632.433   194208058.687          87.642          28.000  
C07  35709338.202   185947785.478         180.698          30.000  
C10  36400427.571   189546430.7861        420.051          16.000  
C13  39642080.121   206426696.731        1673.036          26.000  
C27  24652572.642   128372496.849       -2273.148          28.000  
C29  23202078.398   120819294.772        1794.059          39.000  
C30  21843350.326   113743963.964        -509.084          27.000  
C36  23392518.559   121810878.986       -2089.926          35.000  
C38  37447731.238   195000015.126        1496.572          31.000  
C40  35993940.776   187429739.655         204.855          25.000  
C45  24052996.420   125250138.375         506.112          31.000  
E02  23383548.169   122881158.123        -225.607          41.000  
E11  26372715.212   138589425.0981      -2265.743          18.000  
E25  25412173.581   133541871.2341      -2613.776           8.000  
E34  25246619.192   132671964.617        1892.914          31.000  
E36  23430360.461   123127121.786        -383.791          26.000  
G01  23567747.550   123849206.081       -3099.368          26.000  
G03  21551591.706   113254187.832       -1439.796          28.000  
G06  21736116.662   114223937.008        2035.368          29.000  
G14  20954312.194   110115610.478       -2380.582          34.000  
G17  20682188.182   108685507.144         -77.111          30.000  
G19  20676135.072   108654011.0521       1697.194          19.000  
G22  20826954.362   109446326.472        -846.048          41.000  
J02  37678254.550   198000350.850         464.884          33.000  
J03  39142749.101   205696306.504        -291.461          29.000  
> 2025 04 24 04 46 28.9999782  0 25                     
C03  37295616.619   194207959.687          83.021          29.000  
C07  35709301.103   185947591.378         180.431          31.000  
C10  36400349.700   189545996.9581        419.979          16.000  
C13  39641755.821   206425010.170        1673.208          26.000  
C27  24653016.409   128374756.699       -2273.870          29.000  
C29  23201717.223   120817488.449        1792.862          39.000  
C30  21843454.129   113744459.241        -510.776          27.000  
C36  23392923.653   121812956.986       -2092.301          35.000  
C38  37447444.711   194998505.351        1495.581          31.000  
C40  35993911.171   187429521.501         204.505          25.000  
C45  24052893.966   125249619.799         505.203          31.000  
E02  23383587.217   122881370.348        -226.809          41.000  
E11  26373141.591   138591677.0171      -2268.860          19.000  
E25  25412671.611   133544471.5331      -2614.055          10.000  
E34  25246250.822   132670058.673        1893.575          31.000  
E36  23430433.986   123127761.952        -384.437          27.000  
G01  23568338.216   123852293.108       -3099.265          25.000  
G03  21551862.793   113255614.535       -1441.103          28.000  
G06  21735729.705   114221888.478        2034.615          29.000  
G14  20954764.956   110117975.514       -2380.252          34.000  
G17  20682203.846   108685570.917         -77.372          29.000  
G19  20675815.868   108652300.320        1696.803          22.000  
G22  20827114.526   109447158.948        -847.523          41.000  
J02  37678167.985   197999871.691         463.752          34.000  
J03  39142800.740   205696583.268        -293.151          28.000  
> 2025 04 24 04 46 29.9999172  0 26                     
C03  37295629.023   194208019.680          81.384          29.000  
C07  35709295.819   185947552.722         179.608          31.000  
C10  36400302.745   189545723.2081        415.710          15.000  
C13  39641458.539   206423478.770        1672.268          26.000  
C27  24653489.594   128377170.596       -2274.061          29.000  
C29  23201385.165   120815836.414        1793.215          40.000  
C30  21843590.047   113745112.734        -513.570          29.000  
C36  23393358.165   121815188.788       -2091.853          35.000  
C38  37447178.907   194997151.339        1495.272          31.000  
C40  35993907.386   187429720.657         204.190          24.000  
C45  24052819.130   125249255.420         506.261          31.000  
E02  23383660.778   122881737.163        -226.718          41.000  
E11  26373594.990   138594088.4661      -2268.717          18.000  
E16  27498374.022   144504930.4951      -3028.521          20.000  
E25  25413200.557   133547227.8401      -2614.203          10.000  
E34  25245907.072   132668309.144        1892.394          31.000  
E36  23430532.430   123128288.379        -384.654          27.000  
G01  23568960.398   123855535.575       -3100.602          26.000  
G03  21552165.396   113257196.822       -1440.510          28.000  
G06  21735372.165   114219997.236        2033.163          29.000  
G14  20955246.535   110120497.374       -2382.008          34.000  
G17  20682248.627   108685789.940         -79.104          29.000  
G19  20675524.882   108650746.184        1696.025          23.000  
G22  20827304.407   109448148.429        -846.982          41.000  
J02  37678107.839   197999549.399         464.835          35.000  
J03  39142884.495   205697019.385        -292.217          28.000  
> 2025 04 24 04 46 30.9998561  0 25                     
C03  37295605.864   194207925.732          75.760          27.000  
C07  35709261.268   185947358.435         180.549          31.000  
C10  36400231.019   189545554.2971        420.049          16.000  
C13  39641135.588   206421792.340        1672.438          25.000  
C27  24653923.919   128379427.816       -2273.064          29.000  
C29  23201033.134   120814028.004        1793.531          40.000  
C30  21843689.503   113745611.521        -513.044          27.000  
C36  23393761.011   121817264.293       -2092.430          36.000  
C38  37446891.332   194995641.488        1494.695          28.000  
C40  35993877.932   187429501.846         204.886          24.000  
C45  24052723.721   125248735.492         503.985          30.000  
E02  23383700.576   122881949.377        -226.243          41.000  
E11  26374019.721   138596343.3511      -2268.136          13.000  
E25  25413701.136   133549827.1541      -2613.950          11.000  
E34  25245539.452   132666402.100        1893.492          31.000  
E36  23430601.007   123128657.013        -383.587          28.000  
G01  23569558.109   123858620.675       -3100.016          27.000  
G03  21552437.833   113258620.813       -1440.720          27.000  
G06  21734984.458   114217949.855        2033.125          29.000  
G14  20955698.547   110122864.398       -2381.466          33.000  
G17  20682263.542   108685853.056         -79.009          29.000  
G19  20675206.427   108649035.654        1695.608          23.000  
G22  20827463.222   109448979.861        -846.988          41.000  
J02  37678018.126   197999068.233         466.413          32.000  
J03  39142937.183   205697294.565        -290.428          29.000  
> 2025 04 24 04 46 31.9997950  0 25                     
C03  37295582.443   194207838.909          70.268          26.000  
C07  35709225.555   185947163.475         180.742          31.000  
C10  36400152.436   189545120.8461        418.887          16.000  
C13  39640823.167   206420105.924        1672.369          25.000  
C27  24654351.685   128381684.178       -2273.028          29.000  
C29  23200692.232   120812220.795        1791.614          40.000  
C30  21843787.798   113746109.071        -513.033          24.000  
C36  23394163.895   121819341.966       -2093.663          36.000  
C38  37446610.089   194994133.037        1496.194          23.000  
C40  35993850.313   187429283.066         204.907          24.000  
C45  24052633.146   125248218.271         504.094          27.000  
E02  23383744.608   122882160.418        -227.324          42.000  
E11  26374456.181   138598596.6081      -2268.401          11.000  
E25  25414202.052   133552426.9601      -2613.843          11.000  
E34  25245170.370   132664495.027        1890.195          29.000  
E36  23430678.017   123129026.042        -384.206          27.000  
G01  23570156.458   123862007.808       -3100.008          25.000  
G03  21552713.904   113260047.663       -1442.551          27.000  
G06  21734595.590   114215902.526        2033.176          31.000  
G14  20956149.697   110125229.707       -2382.154          34.000  
G17  20682276.695   108685916.798         -78.748          29.000  
G19  20674878.717   108647325.799        1695.387          21.000  
G22  20827622.674   109449813.652        -848.966          41.000  
J02  37677930.849   197998862.406         464.671          29.000  
J03  39142990.209   205697568.892        -289.755          29.000  
> 2025 04 24 04 46 32.9997339  0 26                     
C03  37295560.633   194207757.648          70.488          24.000  
C07  35709189.355   185946968.983         180.620          31.000  
C10  36400070.068   189544688.5091        419.281          15.000  
C13  39640509.659   206418418.955        1672.510          26.000  
C27  24654785.560   128383944.762       -2275.909          28.000  
C29  23200363.735   120810415.934        1791.959          41.000  
C30  21843884.706   113746607.693        -512.246          22.000  
C36  23394569.589   121821421.157       -2093.943          36.000  
C38  37446319.365   194992623.755        1495.514          22.000  
C40  35993821.608   187429064.969         204.749          24.000  
C45  24052536.688   125247700.619         503.749          25.000  
E02  23383787.253   122882374.440        -228.923          42.000  
E11  26374888.257   138600852.3751      -2268.573          11.000  
E16  27500136.164   144514190.4811      -3032.470          23.000  
E25  25414705.478   133555027.1401      -2615.775          12.000  
E34  25244804.998   132662591.554        1889.800          27.000  
E36  23430744.646   123129395.998        -386.108          28.000  
G01  23570751.621   123865092.399       -3099.507          25.000  
G03  21552992.186   113261477.278       -1444.293          28.000  
G06  21734209.233   114213855.296        2033.544          33.000  
G14  20956600.660   110127597.712       -2383.372          34.000  
G17  20682287.563   108685981.365         -78.407          27.000  
G19  20674552.318   108645616.9901       1695.349          16.000  
G22  20827782.539   109450647.825        -849.061          40.000  
J02  37677843.684   197998383.306         464.086          29.000  
J03  39143043.048   205697845.705        -290.420          28.000  
> 2025 04 24 04 46 33.9996729  0 25                     
C03  37295564.793   194207831.609          68.412          23.000  
C07  35709183.322   185946930.809         179.982          31.000  
C10  36400015.768   189544411.5861        418.506          16.000  
C13  39640236.510   206416890.566        1670.311          26.000  
C27  24655245.704   128386361.643       -2275.248          28.000  
C29  23200060.008   120808765.903        1792.943          41.000  
C30  21844016.277   113747524.320        -512.476          21.000  
C36  23395000.953   121823657.683       -2094.593          36.000  
C38  37445998.550   194991271.013        1493.041          27.000  
C40  35993821.871   187429274.986         204.476          25.000  
C45  24052469.797   125247339.253         503.865          25.000  
E02  23383858.866   122882746.728        -229.603          42.000  
E11  26375346.602   138603262.8431      -2271.751          11.000  
E25  25415239.970   133557784.5881      -2615.642          11.000  
E34  25244474.889   132660845.028        1890.607          24.000  
E36  23430853.433   123129924.074        -386.144          29.000  
G01  23571154.204   123867250.690       -3100.059          24.000  
G03  21553304.533   113263379.414       -1445.394          28.000  
G06  21733854.241   114211966.074        2032.446          35.000  
G14  20957082.988   110130123.897       -2384.043          35.000  
G17  20682328.597   108686202.249         -79.571          26.000  
G19  20674252.188   108644065.477        1694.802          21.000  
G22  20827971.970   109451639.557        -850.481          41.000  
J02  37677790.583   197998062.490         464.707          27.000  
J03  39143127.552   205698279.549        -293.603          27.000  
> 2025 04 24 04 46 34.9996118  0 25                     
C03  37295570.189   194207750.425          64.456          26.000  
C07  35709146.747   185946736.868         180.094          31.000  
C10  36399931.827   189543979.3341        418.327          15.000  
C13  39639910.036   206415206.159        1670.658          22.000  
C27  24655676.206   128388621.743       -2273.773          28.000  
C29  23199719.144   120806959.013        1793.072          41.000  
C30  21844103.517   113748022.259        -514.816          28.000  
C36  23395395.480   121825736.410       -2093.211          36.000  
C38  37445725.139   194989763.656        1494.308          30.000  
C40  35993787.394   187429056.729         204.480          22.000  
C45  24052379.259   125246822.109         503.021          21.000  
E02  23383902.036   122883234.214        -229.368          41.000  
E11  26375769.610   138605521.0151      -2271.187          13.000  
E25  25415744.221   133560386.6411      -2615.800          11.000  
E34  25244125.930   132658940.563        1890.894          25.000  
E36  23430923.584   123130294.650        -385.813          29.000  
G01  23571747.494   123870338.376       -3100.117          23.000  
G03  21553586.038   113264810.320       -1446.145          24.000  
G06  21733471.406   114209919.235        2033.321          32.000  
G14  20957539.572   110132492.585       -2384.346          35.000  
G17  20682341.788   108686267.205         -79.965          24.000  
G19  20673935.907   108642356.675        1694.958          26.000  
G22  20828132.059   109452475.866        -850.033          41.000  
J02  37677697.947   197997583.504         463.552          35.000  
J03  39143175.219   205698556.947        -293.136          25.000  
> 2025 04 24 04 46 35.9995507  0 25                     
C03  37295570.526   194207675.772          62.423          27.000  
C07  35709108.711   185946544.229         181.032          31.000  
C13  39639588.696   206413522.719        1671.969          21.000  
C27  24656117.538   128390882.658       -2273.301          25.000  
C29  23199364.527   120805154.015        1793.324          40.000  
C30  21844194.092   113748521.587        -511.737          31.000  
C36  23395798.438   121827815.917       -2093.913          35.000  
C38  37445448.768   194988257.879        1492.721          31.000  
C40  35993754.455   187428840.645         203.729          23.000  
C45  24052281.864   125246307.477         501.899          23.000  
E02  23383941.047   122883449.730        -228.890          41.000  
E11  26376196.252   138607778.5671      -2267.883          18.000  
E16  27501893.848   144523427.6461      -3030.955          24.000  
E25  25416246.411   133563276.2901      -2615.951          11.000  
E34  25243769.515   132657036.917        1892.924          23.000  
E36  23430986.578   123130666.203        -384.486          27.000  
G01  23572341.720   123873425.6901      -3100.370          20.000  
G03  21553787.536   113265917.504       -1446.610          23.000  
G06  21733085.011   114207874.084        2033.216          32.000  
G14  20957986.001   110134864.550       -2383.625          33.000  
G17  20682356.215   108686333.732         -79.584          25.000  
G19  20673624.760   108640649.400        1695.463          28.000  
G22  20828292.186   109453311.929        -850.791          41.000  
J02  37677609.546   197997107.130         464.368          31.000  
J03  39143220.225   205698838.319        -292.385          25.000  
> 2025 04 24 04 46 36.9994896  0 24                     
C03  37295565.167   194207596.679          68.111          29.000  
C07  35709073.073   185946349.724         180.871          31.000  
C13  39639267.656   206411836.417        1672.973          22.000  
C27  24656557.071   128393141.448       -2275.166          23.000  
C29  23198999.717   120803348.308        1792.817          41.000  
C30  21844288.564   113749021.636        -513.431          30.000  
C36  23396202.596   121830166.202       -2095.256          35.000  
C38  37445142.417   194986751.455        1493.834          29.000  
C40  35993725.712   187428622.884         203.699          24.000  
C45  24052182.371   125245792.073         501.676          26.000  
E02  23383986.653   122883664.312        -230.255          41.000  
E11  26376624.693   138610032.8601      -2267.677          16.000  
E25  25416747.102   133565878.0631      -2616.547          12.000  
E34  25243422.392   132655130.713        1890.229          24.000  
E36  23431051.071   123131036.071        -386.251          26.000  
G01  23572934.147   123876511.2151      -3100.622          15.000  
G03  21554069.378   113267349.828       -1446.663          27.000  
G06  21732692.620   114205828.100        2031.471          30.000  
G14  20958441.123   110137233.507       -2384.096          34.000  
G17  20682372.441   108686399.082         -78.944          30.000  
G19  20673312.414   108638941.131        1695.783          29.000  
G22  20828452.912   109454147.627        -850.644          40.000  
J02  37677513.650   197996627.763         465.387          34.000  
J03  39143271.527   205699113.595        -291.173          27.000  
> 2025 04 24 04 46 38.0004285  0 24                     
C03  37295567.378   194207610.084          66.164          29.000  
C07  35709056.997   185946250.692         180.206          31.000  
C13  39638957.483   206410244.135        1672.863          22.000  
C27  24657020.363   128395498.909       -2277.243          23.000  
C29  23198662.563   120801635.038        1791.409          41.000  
C30  21844399.899   113749616.035        -514.656          28.000  
C36  23396620.619   121832343.951       -2094.603          33.000  
C38  37444876.614   194985338.311        1492.585          31.000  
C40  35993719.829   187428500.248         204.754          24.000  
C45  24052108.734   125245641.048         500.847          25.000  
E02  23384048.523   122883975.854        -229.725          41.000  
E11  26377071.496   138612383.5361      -2267.658          10.000  
E25  25417266.455   133568580.9911      -2619.122          12.000  
E34  25243088.836   132653321.636        1890.037          28.000  
E36  23431145.318   123131506.348        -387.269          27.000  
G01  23573548.534   123879698.2241      -3100.340          17.000  
G03  21554371.382   113268878.012       -1446.441          29.000  
G06  21732319.791   114203878.271        2030.087          30.000  
G14  20958912.809   110139701.811       -2386.350          35.000  
G17  20682407.330   108686559.122         -79.741          30.000  
G19  20673014.532   108637327.319        1694.202          29.000  
G22  20828632.300   109455082.536        -853.556          40.000  
J02  37677436.416   197996245.220         462.306          36.000  
J03  39143344.189   205699488.142        -292.004          29.000  
> 2025 04 24 04 46 39.0003674  0 24                     
C03  37295555.949   194207529.169          67.650          31.000  
C07  35709022.183   185946057.380         178.846          32.000  
C13  39638631.571   206408557.140        1672.026          22.000  
C27  24657450.527   128397760.359       -2274.152          23.000  
C29  23198331.554   120799830.525        1791.704          40.000  
C30  21844491.598   113750116.068        -514.477          28.000  
C36  23397007.314   121834425.076       -2095.737          34.000  
C38  37444595.371   194983832.337        1491.308          32.000  
C40  35993690.412   187428590.528         204.173          24.000  
C45  24052010.664   125245126.800         493.367          24.000  
E02  23384085.659   122884192.285        -231.535          41.000  
E11  26377500.162   138614638.9271      -2271.216          14.000  
E25  25417761.975   133571185.8331      -2616.779          17.000  
E34  25242737.142   132651417.857        1889.579          28.000  
E36  23431222.327   123131878.049        -386.310          29.000  
G01  23574146.283   123882783.8181      -3100.633          18.000  
G03  21554654.948   113270312.736       -1449.282          25.000  
G06  21731932.721   114201834.137        2031.190          30.000  
G14  20959366.358   110142074.285       -2388.866          33.000  
G17  20682422.582   108686626.476         -81.844          29.000  
G19  20672692.818   108635620.120        1692.512          26.000  
G22  20828791.453   109455921.192        -853.871          39.000  
J02  37677348.839   197995767.681         462.274          36.000  
J03  39143398.714   205699765.346        -293.523          26.000  
> 2025 04 24 04 46 40.0003063  0 25                     
C03  37295535.076   194207446.180          68.147          32.000  
C07  35708986.920   185945863.131         180.174          31.000  
C10  36399510.581   189541803.0781        418.763           7.000  
C13  39638307.308   206406873.384        1668.859          21.000  
C27  24657885.938   128400018.574       -2275.372          24.000  
C29  23197991.102   120798023.196        1793.686          41.000  
C30  21844591.242   113750611.258        -510.588          29.000  
C36  23397395.058   121836503.690       -2093.250          35.000  
C38  37444316.377   194982325.688        1490.619          31.000  
C40  35993657.847   187428370.865         205.559          24.000  
C45  24051898.355   125244617.234         502.659          28.000  
E02  23384129.541   122884408.653        -231.646          41.000  
E11  26377931.975   138616893.1781      -2267.349          15.000  
E25  25418262.141   133573786.4651      -2614.946          15.000  
E34  25242390.694   132649512.877        1891.148          26.000  
E36  23431290.493   123132246.104        -385.273          32.000  
G01  23574745.081   123885870.2581      -3102.691          18.000  
G03  21554935.666   113271743.496       -1447.397          27.000  
G06  21731544.003   114199787.961        2031.541          29.000  
G14  20959820.356   110144446.069       -2389.281          34.000  
G17  20682437.384   108686690.537         -81.033          28.000  
G19  20672370.353   108633912.745        1692.100          24.000  
G22  20828950.155   109456759.136        -854.642          40.000  
J02  37677259.913   197995287.426         465.898          33.000  
J03  39143449.491   205700041.362        -289.765          25.000  
> 2025 04 24 04 46 41.0002453  0 25                     
C03  37295551.227   194207521.791          63.235          32.000  
C07  35708980.287   185945824.714         180.666          30.000  
C10  36399453.882   189541526.1151        417.753          12.000  
C13  39638014.673   206405347.2671       1666.914          19.000  
C27  24658346.682   128402434.474       -2277.007          29.000  
C29  23197682.279   120796371.167        1794.429          41.000  
C30  21844720.715   113751264.954        -510.729          27.000  
C36  23397827.321   121838735.727       -2089.273          36.000  
C38  37444054.920   194980980.949        1481.274          32.000  
C40  35993657.210   187428307.055         206.226          24.000  
C45  24051815.575   125244256.383         502.951          30.000  
E02  23384207.450   122884783.326        -233.641          40.000  
E11  26378394.218   138619304.7321      -2267.147          14.000  
E25  25418790.338   133576544.6451      -2614.186          13.000  
E34  25242062.384   132647764.638        1893.634          25.000  
E36  23431395.682   123132775.105        -385.144          33.000  
G01  23575372.809   123889420.2881      -3102.255          16.000  
G03  21555245.314   113273332.586       -1446.046          25.000  
G06  21731185.713   114197900.669        2031.291          29.000  
G14  20960303.584   110146982.951       -2397.313          36.000  
G17  20682480.816   108686914.069         -79.864          27.000  
G19  20672080.117   108632364.078        1691.917          22.000  
G22  20829142.285   109457757.680        -859.420          41.000  
J02  37677200.217   197994962.658         467.945          31.000  
J03  39143532.496   205700473.514        -290.902          24.000  
> 2025 04 24 04 46 42.0001842  0 26                     
C03  37295535.263   194207446.520          63.424          32.000  
C07  35708944.237   185945630.976         181.657          30.000  
C10  36399362.970   189541094.6571        418.138          13.000  
C13  39637695.320   206403673.4791       1659.710          18.000  
C27  24658781.906   128404699.742       -2281.897          25.000  
C29  23197333.245   120794562.917        1795.835          41.000  
C30  21844820.470   113751762.324        -513.985          24.000  
C36  23398228.069   121840809.072       -2085.200          36.000  
C38  37443771.242   194979490.737        1476.712          31.000  
C40  35993628.055   187428087.402         207.643          23.000  
C45  24051707.574   125243739.636         505.527          31.000  
E02  23384246.348   122885004.782        -234.331          39.000  
E11  26378827.043   138621557.2991      -2266.113          13.000  
E16  27505391.039   144541805.0241      -3024.435          13.000  
E25  25419286.419   133579144.5551      -2610.291          14.000  
E34  25241630.008   132645857.353        1895.729          22.000  
E36  23431470.555   123133146.031        -384.746          31.000  
G01  23575960.327   123892499.4401      -3090.674          15.000  
G03  21555521.048   113275027.206       -1440.139          26.000  
G06  21730798.306   114195857.338        2029.992          28.000  
G14  20960758.294   110149368.321       -2401.185          36.000  
G17  20682493.932   108686978.138         -76.225          31.000  
G19  20671757.165   108630659.0601       1692.256          18.000  
G22  20829304.098   109458604.751        -860.940          40.000  
J02  37677110.804   197994478.571         472.312          30.000  
J03  39143583.686   205700751.755        -291.154          25.000  
> 2025 04 24 04 46 43.0001231  0 25                     
C03  37295528.930   194207375.086          54.338          31.000  
C07  35708906.726   185945436.713         181.872          30.000  
C10  36399270.897   189540658.2791        422.309          16.000  
C13  39637372.705   206402007.1511       1651.600          19.000  
C27  24659222.563   128406965.469       -2275.067          23.000  
C29  23196984.249   120792754.689        1795.622          41.000  
C30  21844918.165   113752262.751        -513.235          27.000  
C36  23398627.954   121842879.964       -2087.472          36.000  
C38  37443483.104   194978001.637        1475.824          31.000  
C40  35993593.841   187427866.342         209.231          23.000  
C45  24051604.108   125243220.884         505.617          33.000  
E02  23384288.581   122885225.705        -235.160          39.000  
E11  26379256.308   138623810.9351      -2264.803           6.000  
E25  25419781.039   133581742.1541      -2606.857          14.000  
E34  25241268.121   132643947.675        1899.900          21.000  
E36  23431541.869   123133514.866        -383.379          31.000  
G01  23576541.288   123895572.199       -3083.124          20.000  
G03  21555797.719   113276454.188       -1437.890          26.000  
G06  21730406.440   114193810.663        2039.423          30.000  
G14  20961213.641   110151756.479       -2403.419          36.000  
G17  20682507.086   108687308.213         -75.857          29.000  
G19  20671433.652   108628954.2581       1692.576          17.000  
G22  20829466.848   109459453.816        -861.276          40.000  
J02  37677022.328   197993992.109         473.023          30.000  
J03  39143637.311   205701028.662        -291.398          23.000  
> 2025 04 24 04 46 44.0000620  0 24                     
C03  37295521.810   194207568.454          53.928          32.000  
C07  35708871.125   185945239.384         182.806          30.000  
C10  36399183.432   189540220.6831        420.974          15.000  
C13  39637051.703   206400342.867        1647.991          23.000  
C27  24659661.234   128409224.562       -2273.758          21.000  
C29  23196638.364   120790943.665        1795.498          42.000  
C30  21845014.773   113752758.997        -508.564          28.000  
C36  23399030.051   121844953.577       -2095.536          34.000  
C38  37443197.776   194976510.749        1475.808          31.000  
C40  35993561.838   187427921.262         210.647          22.000  
C45  24051504.353   125242699.069         507.071          34.000  
E02  23384334.225   122885444.168        -234.902          39.000  
E25  25420275.172   133584332.2451      -2605.386          14.000  
E34  25240910.844   132642031.698        1897.514          25.000  
E36  23431610.296   123133879.094        -381.237          31.000  
G01  23577119.063   123898637.066       -3080.864          22.000  
G03  21556074.503   113277872.042       -1433.907          26.000  
G06  21730012.888   114191755.445        2037.972          29.000  
G14  20961670.000   110154145.842       -2403.685          36.000  
G17  20682517.953   108687367.682         -75.739          27.000  
G19  20671108.752   108627246.2611       1693.051          19.000  
G22  20829629.710   109460298.696        -862.514          40.000  
J02  37676932.465   197993504.323         471.329          29.000  
J03  39143688.051   205701303.045        -290.670          21.000  
> 2025 04 24 04 46 45.0000009  0 22                     
C03  37295505.172   194207502.271          52.432          32.000  
C07  35708833.202   185945043.100         183.292          30.000  
C10  36399103.537   189539786.2391        419.779          14.000  
C13  39636728.376   206398682.541        1648.204          25.000  
C29  23196291.054   120789134.085        1796.565          41.000  
C30  21845111.157   113753251.066        -507.590          25.000  
C36  23399434.021   121847039.893       -2102.724          29.000  
C38  37442911.324   194975020.364        1480.010          31.000  
C40  35993528.411   187427696.712         211.489          22.000  
C45  24051407.669   125242181.482         496.879          32.000  
E02  23384374.547   122885664.684        -235.276          40.000  
E25  25420767.881   133586924.1061      -2605.916          14.000  
E34  25240535.953   132640119.541        1899.332          29.000  
E36  23431687.193   123134248.350        -383.128          30.000  
G01  23577630.658   123901285.161       -3080.759          22.000  
G03  21556350.162   113279292.309       -1433.357          26.000  
G14  20962125.835   110156533.971       -2402.287          36.000  
G17  20682531.294   108687428.122         -74.643          28.000  
G19  20670780.629   108625528.240        1704.237          23.000  
G22  20829791.748   109461146.252        -861.365          41.000  
J02  37676844.776   197993016.928         473.311          32.000  
J03  39143741.564   205701580.1901       -289.925          20.000  
> 2025 04 24 04 46 45.9999398  0 23                     
C03  37295488.945   194207436.387          50.109          33.000  
C07  35708795.390   185944844.523         182.895          30.000  
C10  36399018.359   189539349.8721        419.552          14.000  
C13  39636404.563   206397014.622        1651.074          25.000  
C29  23195940.859   120787321.880        1797.842          40.000  
C30  21845212.449   113753743.256        -509.780          24.000  
C36  23399837.205   121849125.197       -2102.953          27.000  
C38  37442624.985   194973525.675        1477.615          33.000  
C40  35993496.896   187427469.696         211.395          23.000  
C45  24051319.793   125241675.384         486.522          31.000  
E02  23384420.378   122885885.534        -235.813          40.000  
E11  26380358.533   138629719.9521      -2255.496          16.000  
E25  25421263.401   133589512.7231      -2604.782          14.000  
E34  25240167.171   132638205.064        1897.766          31.000  
E36  23431752.510   123134613.649        -383.059          31.000  
G01  23578219.413   123904351.412       -3083.046          25.000  
G06  21729205.059   114187673.2311       2025.746          43.000  
G14  20962580.882   110158919.082       -2402.521          36.000  
G17  20682543.548   108687487.848         -75.373          28.000  
G19  20670451.419   108623810.040        1702.758          25.000  
G22  20829954.198   109461991.236        -863.189          40.000  
J02  37676758.698   197992529.662         467.950          31.000  
J03  39143795.189   205701851.645        -288.997          22.000  
> 2025 04 24 04 46 46.9998788  0 24                     
C03  37295508.619   194207526.878          54.562          33.000  
C07  35708789.282   185944806.707         182.238          29.000  
C10  36398965.483   189539073.9051        420.450          13.000  
C13  39636116.350   206395510.711        1646.127          26.000  
C29  23195626.864   120785668.166        1800.016          36.000  
C30  21845337.950   113754398.659        -510.416          23.000  
C36  23400273.590   121851369.170       -2097.375          26.000  
C38  37442371.848   194972197.161        1468.883          34.000  
C40  35993496.783   187427403.706         210.277          23.000  
C45  24051262.720   125241334.710         484.308          29.000  
E02  23384491.916   122886265.856        -236.743          39.000  
E11  26380808.109   138632120.7681      -2252.078          16.000  
E25  25421787.325   133592264.4281      -2610.495          14.000  
E34  25239838.186   132636452.798        1899.172          28.000  
E36  23431852.828   123135141.555        -382.762          32.000  
G01  23578838.972   123907582.989       -3084.727          27.000  
G03  21556935.207   113282294.8671      -1436.059          30.000  
G06  21728846.095   114185795.148        2023.208          43.000  
G14  20963066.733   110161468.569       -2408.448          37.000  
G17  20682586.006   108687707.137         -75.607          29.000  
G19  20670154.812   108622252.974        1703.722          28.000  
G22  20830147.451   109463001.456        -865.914          40.000  
J02  37676703.423   197992209.293         465.052          31.000  
J03  39143877.820   205702285.821        -288.109          22.000  
> 2025 04 24 04 46 47.9998177  0 24                     
C03  37295497.789   194207458.872          46.809          33.000  
C07  35708752.070   185944608.415         183.240          29.000  
C10  36398870.411   189538631.6301        425.619          14.000  
C13  39635799.432   206393853.209        1637.573          27.000  
C29  23195283.265   120783851.695        1800.498          30.000  
C30  21845429.949   113754890.118        -508.983          22.000  
C36  23400681.270   121853448.706       -2093.109          23.000  
C38  37442087.307   194970714.166        1465.907          33.000  
C40  35993466.766   187427177.312         210.586          24.000  
C45  24051177.841   125240835.739         483.595          25.000  
E02  23384536.547   122886488.296        -238.138          39.000  
E11  26381225.682   138634356.8081      -2251.569          17.000  
E25  25422281.046   133594856.8341      -2608.759          10.000  
E34  25239478.398   132634537.415        1900.354          25.000  
E36  23431927.139   123135506.735        -381.638          32.000  
G01  23579426.228   123910649.030       -3079.544          29.000  
G03  21557209.779   113283714.997       -1437.221          39.000  
G06  21728457.827   114183757.230        2021.068          43.000  
G14  20963523.580   110163863.782       -2415.870          37.000  
G17  20682599.160   108687765.360         -73.879          29.000  
G19  20669827.101   108620532.462        1705.895          26.000  
G22  20830311.101   109463851.324        -868.073          41.000  
J02  37676617.046   197991728.129         460.763          31.000  
J03  39143929.946   205702558.395        -288.360          22.000  
> 2025 04 24 04 46 48.9997566  0 24                     
C03  37295489.320   194207404.375          37.496          40.000  
C07  35708715.421   185944411.800         184.864          28.000  
C10  36398781.598   189538192.2811        425.903          14.000  
C13  39635482.476   206392207.591        1628.558          29.000  
C29  23194951.020   120782038.726        1797.198          27.000  
C30  21845524.608   113755385.003        -505.025          23.000  
C36  23401088.913   121855524.245       -2080.034          24.000  
C38  37441804.528   194969239.171        1458.877          34.000  
C40  35993431.616   187427242.978         210.254          22.000  
C45  24051086.629   125240340.122         482.770          21.000  
E02  23384581.441   122886712.963        -239.129          39.000  
E11  26381646.216   138636594.9321      -2247.895          17.000  
E25  25422776.528   133597451.8831      -2607.101           9.000  
E34  25239119.771   132632623.810        1879.137          22.000  
E36  23431998.715   123135873.687        -381.085          33.000  
G01  23580010.149   123913712.441       -3072.891          30.000  
G03  21557483.115   113285136.314       -1432.000          41.000  
G06  21728071.319   114181724.173        2020.637          43.000  
G14  20963981.588   110166268.314       -2418.936          36.000  
G17  20682612.275   108687824.784         -71.080          29.000  
G19  20669501.152   108618811.913        1709.166          27.000  
G22  20830475.012   109464706.153        -869.157          41.000  
J02  37676530.031   197991253.971         456.315          32.000  
J03  39143983.834   205702833.3171       -289.305          19.000  
> 2025 04 24 04 46 49.9996955  0 23                     
C03  37295482.125   194207354.791          35.106          35.000  
C07  35708677.347   185944210.667         185.906          29.000  
C10  36398694.658   189537749.2501        427.247          14.000  
C13  39635169.193   206390566.161        1623.738          29.000  
C29  23194625.145   120780499.484        1806.589          27.000  
C30  21845616.045   113755870.662        -502.499          22.000  
C36  23401498.130   121857587.242       -2077.835          25.000  
C38  37441522.423   194967767.528        1455.426          34.000  
C40  35993393.542   187427017.064         210.902          22.000  
C45  24050995.492   125239843.269         480.061          22.000  
E02  23384626.410   122886935.977        -240.208          39.000  
E11  26382071.022   138638827.2641      -2251.887          16.000  
E25  25423271.485   133600042.6561      -2605.712           8.000  
E34  25238753.425   132630730.498        1875.693          29.000  
E36  23432068.267   123136237.745        -379.374          33.000  
G01  23580594.444   123916766.737       -3067.645          26.000  
G03  21557755.327   113286549.391       -1430.706          41.000  
G06  21727684.887   114179690.433        2017.925          43.000  
G14  20964440.870   110168671.927       -2422.879          36.000  
G17  20682622.468   108687877.170         -68.665          31.000  
G22  20830639.298   109465563.344        -873.252          40.000  
J02  37676443.091   197991044.330         481.273          31.000  
J03  39144035.998   205703105.2151       -289.008          20.000  
> 2025 04 24 04 46 50.9996344  0 22                     
C03  37295475.042   194207309.801          32.057          34.000  
C07  35708640.585   185944012.046         184.944          29.000  
C10  36398605.133   189537306.2061        428.956          15.000  
C13  39634857.522   206388930.612        1620.344          31.000  
C29  23194284.693   120778679.089        1807.557          24.000  
C30  21845710.592   113756356.024        -497.506          22.000  
C36  23401842.104   121859652.033       -2118.045          24.000  
C38  37441242.530   194966301.298        1449.643          34.000  
C40  35993363.076   187426792.740         211.382          21.000  
C45  24050905.967   125239351.792         477.027          22.000  
E02  23384671.192   122887164.066        -240.779          40.000  
E11  26382497.440   138641065.7221      -2251.891           9.000  
E34  25238385.692   132628844.258        1869.586          32.000  
E36  23432138.830   123136602.003        -378.228          33.000  
G01  23581175.854   123919817.561       -3063.988          22.000  
G03  21558026.152   113287967.299       -1429.469          41.000  
G06  21727300.365   114177661.195        2014.806          39.000  
G14  20964901.463   110171082.267       -2426.623          37.000  
G17  20682634.273   108687931.750         -68.616          31.000  
G19  20668845.618   108615358.5161       1715.146          27.000  
G22  20830803.997   109466422.545        -874.464          40.000  
J03  39144089.773   205703379.982        -288.128          24.000  
