     3.04           OBSERVATION DATA    M: Mixed            RINEX VERSION / TYPE
RTKCONV demo5 b34k                      20250410 083345 UTC PGM / RUN BY / DATE 
format: RINEX                                               COMMENT             
log: E:\Proj-ES\GNSS-SPP\RTKLIB-py\data\beijing\��·\rover.oCOMMENT             
  bs                                                        COMMENT             
Geo++                                                       MARKER NAME         
                                                            MARKER NUMBER       
                                                            MARKER TYPE         
                                                            OBSERVER / AGENCY   
unknown             UNISOC              uis7865_6h10_go_a32bREC # / TYPE / VERS 
unknown             uis7865_6h10_go_a32b                    ANT # / TYPE        
 -2181950.4806  4380760.0166  4076408.3630                  APPROX POSITION XYZ 
        0.0000        0.0000        0.0000                  ANTENNA: DELTA H/E/N
G    4 C1C L1C D1C S1C                                      SYS / # / OBS TYPES 
E    4 C1C L1C D1C S1C                                      SYS / # / OBS TYPES 
J    4 C1C L1C D1C S1C                                      SYS / # / OBS TYPES 
C    4 C2I L2I D2I S2I                                      SYS / # / OBS TYPES 
  2025    04    08    03    01   43.0003600     GPS         TIME OF FIRST OBS   
  2025    04    08    03    28   31.0001560     GPS         TIME OF LAST OBS    
G L1C                                                       SYS / PHASE SHIFT   
E L1C  0.00000                                              SYS / PHASE SHIFT   
J L1C                                                       SYS / PHASE SHIFT   
C L2I                                                       SYS / PHASE SHIFT   
 24 R01  1 R02 -4 R03  5 R04  6 R05  1 R06 -4 R07  5 R08  6 GLONASS SLOT / FRQ #
    R09 -2 R10 -5 R11  0 R12 -1 R13 -2 R14 -7 R15  0 R16 -1 GLONASS SLOT / FRQ #
    R17  4 R18 -3 R19  3 R20  2 R21  4 R22 -3 R23  3 R24  2 GLONASS SLOT / FRQ #
 C1C    0.000 C1P    0.000 C2C    0.000 C2P    0.000        GLONASS COD/PHS/BIS 
                                                            END OF HEADER       
> 2025 04 08 03 01 43.0003600  0 20                     
C06  37339361.548   194435853.967       -1494.837          27.000  
C07  36037055.016   187654401.585         174.913          39.000  
C09  36794807.735   191600218.920       -1021.838          37.000  
C10  37025094.510   192799382.627         293.746          36.000  
C26  23228882.429   120958885.916        2028.115          35.000  
C29  21803306.935   113535540.105       -1196.687          31.000  
C35  22780610.561   118624616.316        1966.610          45.000  
C40  36101946.293   187992307.209         -19.468          38.000  
C45  21944022.619   114268284.156       -1186.890          43.000  
E31  23511622.692   123554410.948        -422.160          39.000  
E33  23910655.747   125651343.649        -515.363          39.000  
G01  20530617.499   107889122.538        1147.902          39.000  
G02  21162031.680   111207226.622       -1567.732          38.000  
G07  21624437.264   113637184.375       -2272.727          39.000  
G08  22060370.873   115928030.958       -2515.619          41.000  
G14  21747642.970   114284634.721        2619.783          38.000  
G17  22699965.491   119289123.116        2187.377          38.000  
G22  23574726.606   123886023.614        2752.718          33.000  
G30  21345253.139   112170061.424        -402.460          45.000  
J02  38796310.023   203875984.507         587.529          38.000  
> 2025 04 08 03 01 43.0003600  0 20                     
C06  37339361.548   194435853.967       -1494.837          27.000  
C07  36037055.016   187654401.585         174.913          39.000  
C09  36794807.735   191600218.920       -1021.838          37.000  
C10  37025094.510   192799382.627         293.746          36.000  
C26  23228882.429   120958885.916        2028.115          35.000  
C29  21803306.935   113535540.105       -1196.687          31.000  
C35  22780610.561   118624616.316        1966.610          45.000  
C40  36101946.293   187992307.209         -19.468          38.000  
C45  21944022.619   114268284.156       -1186.890          43.000  
E31  23511622.692   123554410.948        -422.160          39.000  
E33  23910655.747   125651343.649        -515.363          39.000  
G01  20530617.499   107889122.538        1147.902          39.000  
G02  21162031.680   111207226.622       -1567.732          38.000  
G07  21624437.264   113637184.375       -2272.727          39.000  
G08  22060370.873   115928030.958       -2515.619          41.000  
G14  21747642.970   114284634.721        2619.783          38.000  
G17  22699965.491   119289123.116        2187.377          38.000  
G22  23574726.606   123886023.614        2752.718          33.000  
G30  21345253.139   112170061.424        -402.460          45.000  
J02  38796310.023   203875984.507         587.529          38.000  
> 2025 04 08 03 01 44.0002989  0 20                     
C06  37339641.479   194437334.970       -1501.099          27.000  
C07  36037019.565   187654213.672         170.292          38.000  
C09  36795002.525   191601226.878       -1026.623          37.000  
C10  37025034.477   192799075.527         289.779          36.000  
C26  23228492.924   120956845.302        2022.834          34.000  
C29  21803537.700   113536724.228       -1202.985          31.000  
C35  22780231.849   118622636.283        1963.000          44.000  
C40  36101946.218   187992313.698         -24.682          37.000  
C45  21944249.187   114269456.964       -1191.252          43.000  
E31  23511702.662   123554820.937        -426.457          40.000  
E33  23910758.801   125651847.921        -520.202          40.000  
G01  20530398.576   107887962.195        1142.294          39.000  
G02  21162327.800   111208780.469       -1572.755          39.000  
G07  21624869.190   113639441.823       -2276.992          39.000  
G08  22060848.667   115930531.377       -2519.659          41.000  
G14  21747145.240   114282001.779        2615.391          37.000  
G17  22699547.505   119286923.417        2182.449          38.000  
G22  23574202.194   123883256.635        2749.503          32.000  
G30  21345327.712   112170450.685        -406.601          45.000  
J02  38796196.327   203875383.549         584.873          37.000  
> 2025 04 08 03 01 45.0002379  0 20                     
C06  37339958.060   194438978.598       -1502.909          26.000  
C07  36037014.169   187654186.292         166.130          38.000  
C09  36795227.369   191602395.471       -1031.332          37.000  
C10  37025006.596   192798929.679         285.521          36.000  
C26  23228135.272   120954966.110        2018.518          35.000  
C29  21803797.920   113538068.446       -1207.223          29.000  
C35  22779883.790   118620817.874        1957.383          45.000  
C40  36101981.293   187992479.508         -27.901          37.000  
C45  21944508.208   114270792.108       -1197.106          43.000  
E31  23511811.786   123555392.916        -430.476          40.000  
E33  23910885.913   125652513.686        -524.541          40.000  
G01  20530208.507   107886964.819        1139.283          39.000  
G02  21162655.174   111210497.657       -1577.729          39.000  
G07  21625331.769   113641864.824       -2282.127          40.000  
G08  22061356.815   115933196.015       -2524.754          41.000  
G14  21746677.863   114279532.369        2610.385          37.000  
G17  22699161.373   119284887.048        2177.167          37.000  
G22  23573707.837   123880652.873        2743.981          31.000  
G30  21345433.239   112171001.777        -411.979          45.000  
J02  38796113.285   203874944.812         579.897          37.000  
> 2025 04 08 03 01 46.0001768  0 20                     
C06  37340242.357   194440467.777       -1498.683          25.000  
C07  36036980.686   187654003.824         173.139          38.000  
C09  36795423.527   191603409.273       -1023.885          38.000  
C10  37024948.230   192798627.973         291.720          36.000  
C26  23227747.434   120952932.194        2023.753          35.000  
C29  21804029.153   113539260.931       -1205.243          29.000  
C35  22779504.946   118618843.699        1964.546          45.000  
C40  36101985.584   187992490.010         -20.690          38.000  
C45  21944735.245   114271971.619       -1190.143          43.000  
E31  23511892.224   123555808.371        -428.668          40.000  
E33  23910981.641   125653023.202        -522.732          40.000  
G01  20529988.853   107885809.303        1145.567          39.000  
G02  21162952.961   111212059.080       -1572.519          39.000  
G07  21625764.164   113644128.908       -2275.595          40.000  
G08  22061835.678   115935703.671       -2517.551          42.000  
G14  21746180.301   114276906.603        2615.743          38.000  
G17  22698743.855   119282692.673        2185.157          37.000  
G22  23573182.394   123877893.096        2750.327          32.000  
G30  21345509.480   112171396.044        -405.402          45.000  
J02  38796000.357   203874348.491         587.666          38.000  
> 2025 04 08 03 01 47.0001157  0 20                     
C06  37340529.539   194441952.517       -1494.860          26.000  
C07  36036944.093   187653816.536         176.353          39.000  
C09  36795618.973   191604417.165       -1021.897          38.000  
C10  37024890.052   192798321.386         295.467          35.000  
C26  23227354.387   120950893.468        2028.772          36.000  
C29  21804258.776   113540450.130       -1198.030          32.000  
C35  22779124.490   118616865.343        1966.842          45.000  
C40  36101990.062   187992495.017         -18.580          38.000  
C45  21944962.768   114273146.747       -1188.479          44.000  
E31  23511971.951   123556219.748        -425.167          39.000  
E33  23911076.656   125653530.073        -519.529          39.000  
G01  20529768.487   107884651.063        1146.450          39.000  
G02  21163249.737   111213614.999       -1568.376          38.000  
G07  21626196.446   113646389.049       -2273.790          40.000  
G08  22062312.329   115938205.542       -2515.571          42.000  
G14  21745680.229   114274275.398        2621.035          39.000  
G17  22698325.626   119280494.161        2187.147          38.000  
G22  23572656.839   123875128.240        2754.235          32.000  
G30  21345585.309   112171787.273        -404.135          45.000  
J02  38795887.916   203873747.412         588.669          38.000  
> 2025 04 08 03 01 48.0000546  0 20                     
C06  37340812.337   194443430.207       -1494.254          27.000  
C07  36036909.410   187653626.265         175.458          39.000  
C09  36795812.433   191605424.918       -1021.714          37.000  
C10  37024834.684   192798010.993         295.158          34.000  
C26  23226964.751   120948850.444        2027.709          34.000  
C29  21804484.913   113541631.272       -1198.724          35.000  
C35  22778745.346   118614884.014        1967.233          45.000  
C40  36101991.955   187992498.105         -17.458          37.000  
C45  21945189.505   114274319.982       -1187.633          44.000  
E31  23512049.091   123556628.351        -425.186          37.000  
E33  23911176.281   125654032.757        -519.201          38.000  
G01  20529547.034   107883489.611        1147.140          40.000  
G02  21163544.827   111215168.044       -1568.613          38.000  
G07  21626627.641   113648646.530       -2273.150          39.000  
G08  22062789.392   115940705.558       -2515.013          42.000  
G14  21745180.568   114271640.085        2620.565          40.000  
G17  22697907.809   119278292.224        2188.176          38.000  
G22  23572130.797   123872359.010        2754.414          32.000  
G30  21345660.051   112172176.497        -403.302          46.000  
J02  38795776.487   203873142.921         590.873          38.000  
> 2025 04 08 03 01 48.9999936  0 20                     
C06  37341125.733   194445065.262       -1495.074          27.000  
C07  36036904.726   187653592.179         176.694          39.000  
C09  36796036.790   191606587.374       -1020.289          37.000  
C10  37024807.216   192797858.828         294.626          33.000  
C26  23226603.313   120946965.942        2027.831          34.000  
C29  21804746.444   113542972.334       -1197.986          36.000  
C35  22778396.201   118613059.430        1966.726          45.000  
C40  36102025.944   187992657.101         -16.825          37.000  
C45  21945447.439   114275648.073       -1188.191          44.000  
E31  23512157.129   123557195.824        -423.757          36.000  
E33  23911302.006   125654693.542        -518.039          38.000  
G01  20529355.579   107882487.185        1145.350          40.000  
G02  21163871.413   111216879.849       -1569.598          37.000  
G07  21627088.534   113651064.363       -2274.299          38.000  
G08  22063296.154   115943363.891       -2514.489          41.000  
G14  21744711.506   114269163.340        2620.378          40.000  
G17  22697520.890   119276248.092        2187.604          37.000  
G22  23571634.453   123869748.983        2754.704          32.000  
G30  21345765.091   112172721.951        -404.240          46.000  
J02  38795693.556   203872696.874         589.960          38.000  
> 2025 04 08 03 01 49.9999325  0 20                     
C06  37341414.208   194446545.462       -1495.439          28.000  
C07  36036868.526   187653400.790         177.001          39.000  
C09  36796231.131   191607591.576       -1021.727          37.000  
C10  37024749.131   192797548.546         295.251          33.000  
C26  23226213.358   120944923.503        2026.421          33.000  
C29  21804975.261   113544155.093       -1199.989          35.000  
C35  22778016.738   118611077.824        1967.204          45.000  
C40  36102026.019   187992657.104         -17.357          37.000  
C45  21945673.558   114276821.076       -1188.287          44.000  
E31  23512233.651   123557601.686        -423.650          37.000  
E33  23911400.113   125655196.189        -518.852          39.000  
G01  20529134.107   107881327.455        1145.524          39.000  
G02  21164167.383   111218433.635       -1569.590          38.000  
G07  21627518.212   113653321.634       -2273.760          38.000  
G08  22063772.599   115945860.893       -2514.445          41.000  
G14  21744211.227   114266527.893        2619.758          38.000  
G17  22697103.354   119274045.477        2187.322          37.000  
G22  23571106.594   123866979.611        2754.332          32.000  
G30  21345839.814   112173112.527        -404.530          46.000  
J02  38795580.010   203872091.415         590.999          37.000  
> 2025 04 08 03 01 50.9998714  0 20                     
C06  37341699.517   194448024.807       -1494.650          28.000  
C07  36036831.258   187653207.486         179.625          38.000  
C09  36796424.103   191608597.759       -1019.180          37.000  
C10  37024687.879   192797236.719         299.238          33.000  
C26  23225824.734   120942882.494        2029.083          32.000  
C29  21805202.410   113545339.847       -1198.891          31.000  
C35  22777636.808   118609095.389        1968.967          46.000  
C40  36102028.323   187992657.634         -14.657          36.000  
C45  21945900.107   114277992.500       -1186.427          43.000  
E31  23512313.302   123558009.065        -422.797          38.000  
E33  23911498.951   125655698.720        -517.497          40.000  
G01  20528912.467   107880165.789        1147.991          40.000  
G02  21164464.084   111219987.182       -1567.686          37.000  
G07  21627947.721   113655577.410       -2271.460          39.000  
G08  22064249.475   115948357.954       -2512.185          43.000  
G14  21743712.279   114263893.564        2620.856          34.000  
G17  22696688.047   119271842.988        2189.165          35.000  
G22  23570580.364   123864209.882        2756.943          33.000  
G30  21345915.268   112173499.425        -402.853          45.000  
J02  38795465.396   203871484.585         592.451          37.000  
> 2025 04 08 03 01 51.9998104  0 20                     
C06  37342014.543   194449663.793       -1497.454          24.000  
C07  36036825.506   187653173.407         178.758          38.000  
C09  36796647.093   191609760.279       -1020.182          36.000  
C10  37024658.743   192797083.312         297.395          33.000  
C26  23225461.929   120940997.667        2029.582          33.000  
C29  21805459.875   113546681.680       -1196.860          29.000  
C35  22777286.894   118607272.140        1967.858          45.000  
C40  36102059.446   187992818.054         -16.076          36.000  
C45  21946155.174   114279322.953       -1188.380          43.000  
E31  23512424.169   123558576.143        -422.236          37.000  
E33  23911626.307   125656362.044        -517.978          41.000  
G01  20528721.743   107879166.091        1145.487          40.000  
G02  21164789.602   111221700.158       -1569.394          37.000  
G07  21628407.546   113657996.035       -2273.203          40.000  
G08  22064756.068   115951016.228       -2513.385          43.000  
G14  21743242.448   114261417.897        2622.493          34.000  
G17  22696300.359   119269800.146        2189.275          36.000  
G22  23570086.250   123861599.830        2756.076          33.000  
G30  21346021.338   112174048.394        -405.031          44.000  
J02  38795381.398   203871039.251         591.584          37.000  
> 2025 04 08 03 01 52.9997493  0 20                     
C06  37342299.345   194451143.817       -1496.674          21.000  
C07  36036790.131   187652981.197         178.733          37.000  
C09  36796843.457   191610765.170       -1020.098          36.000  
C10  37024599.684   192796772.198         297.940          33.000  
C26  23225069.800   120938955.104        2027.867          33.000  
C29  21805687.418   113547863.455       -1197.651          28.000  
C35  22776907.356   118605290.816        1967.559          46.000  
C40  36102060.345   187992819.266         -15.932          37.000  
C45  21946381.218   114280497.703       -1187.858          43.000  
E31  23512500.016   123558985.615        -423.298          37.000  
E33  23911723.140   125656864.409        -518.153          41.000  
G01  20528503.194   107878005.953        1146.917          41.000  
G02  21165086.697   111223253.483       -1569.499          38.000  
G07  21628838.648   113660253.638       -2272.805          40.000  
G08  22065232.738   115953515.449       -2513.208          44.000  
G14  21742742.394   114258782.878        2620.751          34.000  
G17  22695883.048   119267597.498        2189.222          35.000  
G22  23569560.114   123858829.722        2756.060          34.000  
G30  21346097.186   112174438.319        -404.074          44.000  
J02  38795267.177   203870432.145         594.462          37.000  
> 2025 04 08 03 01 53.9996882  0 20                     
C06  37342580.719   194452627.3361      -1495.748          20.000  
C07  36036754.924   187652789.899         179.023          38.000  
C09  36797040.289   191611772.363       -1019.624          37.000  
C10  37024540.494   192796461.400         298.180          34.000  
C26  23224679.639   120936915.371        2027.339          34.000  
C29  21805914.529   113549047.006       -1198.175          28.000  
C35  22776527.388   118603310.858        1967.721          45.000  
C40  36102061.413   187992820.730         -15.314          36.000  
C45  21946608.329   114281670.640       -1188.834          43.000  
E31  23512580.229   123559395.370        -423.460          37.000  
E33  23911819.842   125657368.975        -519.022          41.000  
G01  20528285.114   107876848.008        1144.283          41.000  
G02  21165384.559   111224810.790       -1570.295          38.000  
G07  21629269.918   113662513.259       -2274.518          40.000  
G08  22065709.577   115956015.095       -2513.683          43.000  
G14  21742241.010   114256149.411        2620.132          33.000  
G17  22695465.007   119265396.430        2187.913          35.000  
G22  23569033.548   123856061.134        2756.547          34.000  
G30  21346172.602   112174830.544        -406.189          44.000  
J02  38795153.724   203869827.112         590.736          38.000  
> 2025 04 08 03 01 54.9996272  0 20                     
C06  37342891.604   194454261.5801      -1494.700          20.000  
C07  36036748.328   187652752.007         178.114          38.000  
C09  36797267.832   191612930.219       -1020.062          36.000  
C10  37024513.513   192796303.979         297.935          34.000  
C26  23224317.490   120935028.062        2028.446          35.000  
C29  21806170.852   113550384.947       -1197.455          28.000  
C35  22776177.530   118601484.028        1966.865          45.000  
C40  36102092.891   187992975.347         -15.383          36.000  
C45  21946864.052   114282999.270       -1189.403          42.000  
E31  23512688.454   123559959.247        -423.086          37.000  
E33  23911944.555   125658028.631        -519.201          40.000  
G01  20528097.444   107875845.192        1144.704          41.000  
G02  21165712.832   111226521.000       -1570.848          38.000  
G07  21629730.099   113664928.392       -2274.114          39.000  
G08  22066214.727   115958668.736       -2513.667          43.000  
G14  21741770.036   114253670.804        2621.681          32.000  
G17  22695077.375   119263350.073        2188.706          35.000  
G22  23568537.991   123853446.834        2756.657          34.000  
G30  21346278.429   112175377.337        -405.909          44.000  
J02  38795070.082   203869376.976         592.203          37.000  
> 2025 04 08 03 01 55.9995661  0 20                     
C06  37343179.873   194455741.187       -1494.345          23.000  
C07  36036712.522   187652558.491         180.557          38.000  
C09  36797462.266   191613934.634       -1018.945          36.000  
C10  37024451.324   192795990.886         298.929          34.000  
C26  23223927.328   120932985.714        2027.861          35.000  
C29  21806397.364   113551566.790       -1198.083          27.000  
C35  22775798.162   118599502.252        1968.266          45.000  
C40  36102093.060   187992974.857         -13.208          36.000  
C45  21947090.564   114284172.718       -1187.976          42.000  
E31  23512766.569   123560366.318        -422.515          37.000  
E33  23912043.356   125658532.959        -519.449          40.000  
G01  20527879.963   107874685.779        1145.419          42.000  
G02  21166012.193   111228076.921       -1569.020          38.000  
G07  21630159.571   113667187.846       -2274.110          39.000  
G08  22066690.966   115961165.650       -2512.377          43.000  
G14  21741269.251   114251035.012        2622.878          33.000  
G17  22694660.532   119261147.416        2188.271          35.000  
G22  23568012.323   123850674.873        2757.852          33.000  
G30  21346354.445   112175765.790        -405.578          44.000  
J02  38794955.430   203868769.446         593.187          37.000  
> 2025 04 08 03 01 56.9995050  0 20                     
C06  37343465.501   194457222.704       -1493.842          22.000  
C07  36036677.371   187652368.043         178.352          38.000  
C09  36797655.257   191614942.727       -1021.434          36.000  
C10  37024393.090   192795681.314         298.302          33.000  
C26  23223535.125   120930947.128        2027.011          34.000  
C29  21806619.135   113552753.830       -1201.043          27.000  
C35  22775420.049   118597523.749        1966.667          45.000  
C40  36102094.484   187992975.712         -15.884          36.000  
C45  21947318.631   114285349.064       -1190.122          42.000  
E31  23512845.040   123560775.579        -422.635          36.000  
E33  23912142.812   125659039.232        -519.500          41.000  
G01  20527662.239   107873530.705        1142.705          42.000  
G02  21166311.611   111229634.582       -1570.915          38.000  
G07  21630590.897   113669448.920       -2275.696          39.000  
G08  22067168.761   115963668.115       -2514.031          44.000  
G14  21740769.122   114248402.613        2620.338          33.000  
G17  22694243.146   119258947.517        2188.018          34.000  
G22  23567487.312   123847906.612        2756.181          33.000  
G30  21346431.717   112176160.602        -407.632          44.000  
J02  38794840.535   203868165.127         592.558          37.000  
> 2025 04 08 03 01 57.9994440  0 20                     
C06  37343782.344   194458854.755       -1493.882          21.000  
C07  36036670.139   187652329.569         178.859          37.000  
C09  36797880.963   191616101.463       -1020.891          36.000  
C10  37024362.174   192795523.767         297.609          34.000  
C26  23223175.337   120929061.376        2025.792          35.000  
C29  21806879.917   113554092.574       -1199.922          28.000  
C35  22775071.053   118595698.274        1965.729          46.000  
C40  36102127.124   187993131.199         -17.206          36.000  
C45  21947575.816   114286679.968       -1191.179          42.000  
E31  23512956.825   123561340.486        -424.001          36.000  
E33  23912269.287   125659701.161        -520.510          41.000  
G01  20527474.232   107872529.812        1142.703          42.000  
G02  21166639.547   111231345.727       -1571.886          38.000  
G07  21631050.741   113671865.979       -2275.334          39.000  
G08  22067674.473   115966320.763       -2514.094          43.000  
G14  21740297.212   114245923.497        2621.321          33.000  
G17  22693856.676   119256902.253        2186.537          34.000  
G22  23566991.418   123845292.895        2754.976          32.000  
G30  21346537.506   112176709.366        -408.234          43.000  
J02  38794754.457   203867714.291         592.767          36.000  
> 2025 04 08 03 01 59.0003828  0 20                     
C06  37344054.668   194460275.569       -1495.001          23.000  
C07  36036622.584   187652075.778         179.305          37.000  
C09  36798065.148   191617047.241       -1019.603          36.000  
C10  37024291.835   192795150.827         298.615          34.000  
C26  23222772.828   120926959.308        2026.125          35.000  
C29  21807099.478   113555218.510       -1200.040          28.000  
C35  22774678.737   118593655.680        1966.474          45.000  
C40  36102115.544   187993070.748         -12.999          36.000  
C45  21947791.779   114287795.020       -1190.352          42.000  
E31  23513023.791   123561687.998        -423.292          36.000  
E33  23912357.538   125660146.159        -520.253          41.000  
G01  20527244.103   107871310.782        1143.035          42.000  
G02  21166927.460   111232842.547       -1571.562          38.000  
G07  21631469.364   113674066.583       -2275.135          39.000  
G08  22068139.264   115968760.917       -2512.926          43.000  
G14  21739782.580   114243225.037        2620.711          34.000  
G17  22693426.287   119254637.940        2187.808          34.000  
G22  23566452.203   123842459.830        2756.032          32.000  
G30  21346601.774   112177041.344        -407.417          43.000  
J02  38794626.857   203867045.144         593.135          36.000  
> 2025 04 08 03 02 00.0003218  0 20                     
C06  37344370.405   194461910.133       -1495.733          23.000  
C07  36036616.944   187652036.679         179.690          37.000  
C09  36798288.550   191618207.271       -1020.931          36.000  
C10  37024264.310   192794992.542         299.390          34.000  
C26  23222411.034   120925073.646        2027.557          35.000  
C29  21807356.456   113556557.828       -1201.603          27.000  
C35  22774328.635   118591829.846        1966.108          45.000  
C40  36102147.079   187993225.286         -14.424          36.000  
C45  21948046.658   114289124.804       -1191.057          42.000  
E31  23513132.372   123562252.287        -423.155          36.000  
E33  23912484.107   125660807.030        -520.266          41.000  
G01  20527056.489   107870310.705        1141.078          42.000  
G02  21167255.789   111234555.753       -1572.729          38.000  
G07  21631928.702   113676482.847       -2275.374          39.000  
G08  22068645.070   115971415.031       -2513.681          43.000  
G14  21739310.763   114240746.162        2621.353          34.000  
G17  22693038.112   119252591.653        2187.968          35.000  
G22  23565954.005   123839845.317        2756.447          32.000  
G30  21346707.957   112177590.155        -409.576          43.000  
J02  38794542.372   203866593.934         593.526          36.000  
> 2025 04 08 03 02 01.0002607  0 20                     
C06  37344655.208   194463390.761       -1496.651          24.000  
C07  36036580.669   187651843.758         179.351          37.000  
C09  36798480.717   191619213.396       -1020.561          36.000  
C10  37024204.951   192794679.813         298.055          33.000  
C26  23222023.103   120923033.644        2025.744          35.000  
C29  21807577.703   113557745.536       -1201.005          26.000  
C35  22773949.997   118589850.666        1965.365          45.000  
C40  36102150.376   187993224.828         -15.385          36.000  
C45  21948275.100   114290302.037       -1191.761          42.000  
E31  23513211.817   123562660.954        -423.679          36.000  
E33  23912582.738   125661314.437        -520.924          41.000  
G01  20526838.840   107869155.364        1141.472          42.000  
G02  21167554.082   111236113.323       -1573.598          38.000  
G07  21632358.005   113678743.294       -2277.068          38.000  
G08  22069121.140   115973914.096       -2513.422          43.000  
G14  21738810.410   114238111.674        2621.016          34.000  
G17  22692620.501   119250390.342        2187.050          35.000  
G22  23565427.869   123837075.286        2755.245          31.000  
G30  21346783.804   112177985.363        -409.010          43.000  
J02  38794429.051   203865986.766         592.708          37.000  
> 2025 04 08 03 02 02.0001996  0 20                     
C06  37344944.958   194464875.276       -1497.265          23.000  
C07  36036543.645   187651653.012         177.870          37.000  
C09  36798676.931   191620221.435       -1021.491          37.000  
C10  37024145.442   192794370.064         297.773          33.000  
C26  23221630.825   120920997.170        2024.620          35.000  
C29  21807800.899   113558932.098       -1200.955          26.000  
C35  22773570.310   118587874.447        1964.529          45.000  
C40  36102150.826   187993228.447         -15.992          35.000  
C45  21948503.092   114291481.223       -1192.363          42.000  
E31  23513289.314   123563073.586        -424.464          36.000  
E33  23912678.822   125661823.436        -522.035          41.000  
G01  20526620.741   107868003.497        1139.765          42.000  
G02  21167852.825   111237674.805       -1573.708          38.000  
G07  21632790.456   113681008.866       -2277.737          38.000  
G08  22069598.560   115976415.099       -2514.877          43.000  
G14  21738313.804   114235480.161        2618.956          34.000  
G17  22692202.140   119248191.764        2186.722          34.000  
G22  23564901.583   123834309.707        2753.557          31.000  
G30  21346859.801   112178382.133        -410.993          43.000  
J02  38794315.279   203865382.877         592.289          37.000  
> 2025 04 08 03 02 03.0001386  0 20                     
C06  37345267.216   194466513.400       -1496.064          23.000  
C07  36036536.431   187651615.817         178.783          37.000  
C09  36798902.056   191621383.390       -1020.933          36.000  
C10  37024115.444   192794213.856         298.051          33.000  
C26  23221271.355   120919115.194        2023.898          36.000  
C29  21808065.297   113560275.603       -1202.895          27.000  
C35  22773221.633   118586051.718        1964.771          45.000  
C40  36102181.986   187993384.350         -14.609          36.000  
C45  21948760.296   114292815.920       -1192.233          42.000  
E31  23513399.618   123563640.963        -424.733          36.000  
E33  23912808.014   125662487.730        -522.122          41.000  
G01  20526431.553   107867007.153        1139.820          42.000  
G02  21168180.780   111239391.337       -1574.467          38.000  
G07  21633251.818   113683427.647       -2277.672          38.000  
G08  22070106.390   115979071.118       -2513.732          44.000  
G14  21737843.111   114233004.918        2618.232          33.000  
G17  22691812.991   119246148.890        2186.861          34.000  
G22  23564403.309   123831698.928        2756.434          29.000  
G30  21346965.909   112178935.636        -410.635          43.000  
J02  38794231.918   203864933.363         593.112          37.000  
> 2025 04 08 03 02 04.0000775  0 20                     
C06  37345550.651   194467993.554       -1495.559          23.000  
C07  36036500.287   187651422.308         178.741          38.000  
C09  36799094.055   191622389.836       -1021.653          36.000  
C10  37024056.517   192793901.451         297.835          33.000  
C26  23220881.756   120917076.721        2023.461          37.000  
C29  21808296.568   113561462.580       -1201.662          28.000  
C35  22772843.126   118584072.321        1964.323          45.000  
C40  36102182.716   187993382.904         -15.697          36.000  
C45  21948987.670   114293991.294       -1193.380          42.000  
E31  23513483.691   123564049.494        -425.198          37.000  
E33  23912904.078   125662994.147        -523.153          41.000  
G01  20526212.536   107865852.991        1138.795          42.000  
G02  21168478.904   111240950.350       -1575.389          38.000  
G07  21633682.751   113685689.511       -2278.196          38.000  
G08  22070583.790   115981570.901       -2514.572          44.000  
G14  21737342.888   114230371.134        2619.406          33.000  
G17  22691395.511   119243947.095        2186.863          34.000  
G22  23563880.303   123828927.658        2755.740          31.000  
G30  21347042.188   112179330.204        -412.101          43.000  
J02  38794117.829   203864325.701         592.628          37.000  
> 2025 04 08 03 02 05.0000164  0 20                     
C06  37345835.810   194469476.786       -1496.160          22.000  
C07  36036465.868   187651230.902         178.246          38.000  
C09  36799288.377   191623397.083       -1022.816          36.000  
C10  37024001.411   192793590.786         297.824          33.000  
C26  23220493.281   120915040.660        2023.858          37.000  
C29  21808525.965   113562651.737       -1201.428          28.000  
C35  22772466.044   118582096.434        1963.121          45.000  
C40  36102186.070   187993384.894         -16.720          36.000  
C45  21949216.767   114295172.149       -1194.556          43.000  
E31  23513560.195   123564460.694        -425.771          37.000  
E33  23913002.467   125663504.743        -524.295          41.000  
G01  20525995.843   107864702.590        1137.665          42.000  
G02  21168778.453   111242512.925       -1576.445          38.000  
G07  21634115.707   113687957.122       -2279.442          38.000  
G08  22071062.015   115984070.972       -2515.142          45.000  
G14  21736842.891   114227739.414        2619.837          34.000  
G17  22690978.256   119241749.313        2184.233          33.000  
G22  23563356.621   123826160.221        2755.218          30.000  
G30  21347119.890   112179730.320        -413.438          43.000  
J02  38794004.863   203863721.057         591.338          38.000  
> 2025 04 08 03 02 05.9999554  0 20                     
C06  37346135.246   194471110.527       -1494.765          22.000  
C07  36036461.015   187651194.290         177.177          38.000  
C09  36799512.265   191624560.659       -1024.106          36.000  
C10  37023970.476   192793434.410         296.058          34.000  
C26  23220131.075   120913159.031        2021.356          37.000  
C29  21808787.028   113563992.488       -1203.204          29.000  
C35  22772117.928   118580275.187        1961.680          45.000  
C40  36102216.893   187993541.132         -16.720          36.000  
C45  21949473.933   114296507.694       -1195.980          43.000  
E31  23513673.460   123565029.600        -427.273          37.000  
E33  23913134.319   125664171.508        -525.269          41.000  
G01  20525808.716   107863707.957        1135.517          42.000  
G02  21169106.970   111244230.170       -1578.282          37.000  
G07  21634578.830   113690378.471       -2282.143          38.000  
G08  22071569.508   115986727.168       -2516.556          44.000  
G14  21736372.760   114225263.076        2617.201          34.000  
G17  22690589.969   119239706.608        2184.022          33.000  
G22  23562861.308   123823548.090        2752.676          31.000  
G30  21347227.459   112180284.426        -414.698          43.000  
J02  38793920.265   203863271.209         592.564          37.000  
> 2025 04 08 03 02 06.9998943  0 20                     
C06  37346415.852   194472590.785       -1493.972          22.000  
C07  36036428.037   187651001.922         178.005          38.000  
C09  36799705.631   191625569.936       -1022.067          36.000  
C10  37023912.316   192793124.077         296.946          34.000  
C26  23219741.345   120911123.321        2021.962          37.000  
C29  21809010.374   113565181.622       -1204.137          28.000  
C35  22771738.991   118578299.085        1962.768          45.000  
C40  36102218.991   187993541.714         -16.558          36.000  
C45  21949701.475   114297688.859       -1195.351          43.000  
E31  23513753.804   123565442.962        -427.221          37.000  
E33  23913232.951   125664682.596        -525.644          41.000  
G01  20525591.366   107862558.098        1136.036          42.000  
G02  21169406.163   111245792.973       -1577.504          38.000  
G07  21635012.930   113692644.260       -2280.387          38.000  
G08  22072047.677   115989228.228       -2515.320          44.000  
G14  21735873.905   114222632.185        2617.643          35.000  
G17  22690172.358   119237508.654        2185.489          33.000  
G22  23562337.271   123820780.837        2754.706          32.000  
G30  21347305.106   112180684.370        -414.650          43.000  
J02  38793806.644   203862665.267         592.049          37.000  
> 2025 04 08 03 02 07.9998332  0 20                     
C06  37346700.898   194474072.455       -1494.056          22.000  
C07  36036393.805   187650811.903         178.495          38.000  
C09  36799902.239   191626577.913       -1022.516          36.000  
C10  37023857.098   192792815.368         297.933          34.000  
C26  23219351.858   120909089.611        2022.135          38.000  
C29  21809239.959   113566372.931       -1205.285          28.000  
C35  22771360.896   118576324.835        1962.358          45.000  
C40  36102220.734   187993544.760         -14.895          36.000  
C45  21949930.760   114298871.623       -1196.088          43.000  
E31  23513834.392   123565856.324        -426.261          37.000  
E33  23913331.526   125665195.596        -524.876          41.000  
G01  20525374.560   107861410.505        1136.830          42.000  
G02  21169704.999   111247357.491       -1577.146          38.000  
G07  21635447.573   113694911.843       -2281.073          39.000  
G08  22072526.089   115991731.190       -2515.693          44.000  
G14  21735374.395   114220002.477        2618.341          35.000  
G17  22689756.789   119235311.980        2184.788          33.000  
G22  23561813.477   123818014.333        2754.445          32.000  
G30  21347383.295   112181086.040        -414.652          43.000  
J02  38793693.866   203862060.978         593.503          37.000  
> 2025 04 08 03 02 08.9997722  0 20                     
C06  37347020.608   194475704.713       -1494.807          22.000  
C07  36036388.540   187650772.443         178.516          39.000  
C09  36800126.615   191627741.370       -1021.712          36.000  
C10  37023823.953   192792656.682         298.560          34.000  
C26  23218992.239   120907207.285        2022.004          38.000  
C29  21809507.205   113567717.196       -1204.389          28.000  
C35  22771012.668   118574502.330        1961.863          44.000  
C40  36102251.444   187993698.103         -15.487          36.000  
C45  21950186.315   114300206.155       -1196.330          42.000  
E31  23513942.749   123566421.664        -426.520          37.000  
E33  23913460.568   125665860.014        -525.381          41.000  
G01  20525186.422   107860415.773        1134.006          42.000  
G02  21170031.605   111249074.070       -1578.522          37.000  
G07  21635909.984   113697332.367       -2282.238          38.000  
G08  22073033.469   115994387.265       -2516.150          44.000  
G14  21734904.751   114217525.414        2617.845          35.000  
G17  22689370.188   119233268.848        2183.730          33.000  
G22  23561319.550   123815400.952        2754.708          31.000  
G30  21347490.752   112181640.731        -416.098          43.000  
J02  38793610.355   203861609.561         591.241          37.000  
> 2025 04 08 03 02 09.9997111  0 20                     
C06  37347308.278   194477186.609       -1496.426          23.000  
C07  36036353.333   187650582.579         176.355          38.000  
C09  36800321.948   191628749.293       -1025.114          36.000  
C10  37023764.163   192792346.874         295.524          34.000  
C26  23218602.977   120905173.879        2019.139          38.000  
C29  21809741.811   113568908.296       -1204.968          29.000  
C35  22770634.199   118572528.723        1960.100          44.000  
C40  36102252.812   187993701.159         -17.896          36.000  
C45  21950415.225   114301388.272       -1198.344          42.000  
E31  23514022.362   123566836.881        -428.542          37.000  
E33  23913557.870   125666372.292        -527.372          41.000  
G01  20524970.440   107859269.704        1132.918          42.000  
G02  21170331.266   111250641.347       -1581.233          37.000  
G07  21636343.952   113699602.583       -2283.130          38.000  
G08  22073511.207   115996890.064       -2517.418          44.000  
G14  21734405.465   114214895.920        2615.818          35.000  
G17  22688951.247   119231072.050        2182.667          33.000  
G22  23560795.982   123812634.049        2753.538          30.000  
G30  21347569.766   112182044.978        -417.623          43.000  
J02  38793497.502   203861005.743         590.465          37.000  
> 2025 04 08 03 02 10.9996500  0 20                     
C06  37347591.376   194478667.263       -1497.126          23.000  
C07  36036315.953   187650390.024         178.451          39.000  
C09  36800517.207   191629757.242       -1022.720          36.000  
C10  37023707.596   192792035.264         297.748          34.000  
C26  23218213.041   120903139.182        2020.414          38.000  
C29  21809971.546   113570096.671       -1205.868          29.000  
C35  22770257.154   118570553.118        1961.584          44.000  
C40  36102253.805   187993702.031         -15.808          36.000  
C45  21950643.761   114302570.211       -1196.748          43.000  
E31  23514103.100   123567249.788        -428.428          37.000  
E33  23913656.595   125666885.677        -528.081          41.000  
G01  20524753.184   107858120.812        1135.171          43.000  
G02  21170629.953   111252205.302       -1578.733          38.000  
G07  21636777.546   113701867.846       -2281.897          39.000  
G08  22073989.470   115999389.252       -2515.121          45.000  
G14  21733905.805   114212264.618        2617.935          35.000  
G17  22688533.730   119228873.976        2183.833          31.000  
G22  23560269.940   123809864.979        2754.458          29.000  
G30  21347647.206   112182445.817        -415.919          43.000  
J02  38793382.175   203860398.741         593.499          37.000  
> 2025 04 08 03 02 11.9995889  0 20                     
C06  37347884.310   194480151.199       -1496.691          24.000  
C07  36036280.315   187650198.879         180.048          39.000  
C09  36800713.309   191630767.454       -1022.465          36.000  
C10  37023649.773   192791724.747         298.950          34.000  
C26  23217823.648   120901105.977        2021.777          39.000  
C29  21810201.224   113571289.478       -1204.526          29.000  
C35  22769879.753   118568579.552        1961.546          45.000  
C40  36102255.641   187993703.911         -14.276          37.000  
C45  21950873.739   114303755.431       -1197.933          43.000  
E31  23514182.882   123567664.154        -427.648          37.000  
E33  23913755.864   125667399.131        -526.976          42.000  
G01  20524537.071   107856975.028        1132.287          43.000  
G02  21170928.284   111253770.787       -1579.703          38.000  
G07  21637211.083   113704139.088       -2283.551          39.000  
G08  22074467.976   116001892.099       -2515.712          45.000  
G14  21733405.489   114209634.797        2617.110          34.000  
G17  22688117.356   119226677.798        2185.521          31.000  
G22  23559743.841   123807099.073        2752.939          28.000  
G30  21347725.190   112182849.162        -417.753          43.000  
J02  38793268.292   203859793.848         592.630          37.000  
> 2025 04 08 03 02 12.9995279  0 20                     
C06  37348199.579   194481788.821       -1497.267          25.000  
C07  36036273.607   187650160.968         177.855          39.000  
C09  36800938.341   191631930.916       -1024.014          36.000  
C10  37023621.480   192791567.096         299.015          34.000  
C26  23217462.885   120899226.438        2019.667          39.000  
C29  21810461.931   113572635.422       -1205.168          28.000  
C35  22769532.181   118566759.695        1960.153          45.000  
C40  36102285.808   187993859.231         -15.785          37.000  
C45  21951132.347   114305092.510       -1198.518          43.000  
E31  23514288.897   123568233.060        -427.820          37.000  
E33  23913884.362   125668067.702        -527.245          42.000  
G01  20524349.588   107855984.726        1133.141          43.000  
G02  21171255.845   111255491.235       -1579.730          38.000  
G07  21637673.550   113706562.170       -2283.528          39.000  
G08  22074976.312   116004548.552       -2516.573          45.000  
G14  21732935.002   114207159.794        2617.045          35.000  
G17  22687729.911   119224636.144        2184.936          31.000  
G22  23559246.973   123804487.628        2754.292          28.000  
G30  21347832.403   112183409.325        -418.214          43.000  
J02  38793185.137   203859344.115         592.232          37.000  
> 2025 04 08 03 02 13.9994668  0 20                     
C06  37348486.050   194483273.046       -1497.252          25.000  
C07  36036238.100   187649971.456         178.987          39.000  
C09  36801132.175   191632942.323       -1022.541          36.000  
C10  37023561.990   192791258.402         297.815          34.000  
C26  23217075.422   120897195.543        2020.529          40.000  
C29  21810691.441   113573828.058       -1204.412          29.000  
C35  22769153.712   118564788.184        1960.965          45.000  
C40  36102290.473   187993862.517         -14.984          37.000  
C45  21951361.557   114306279.413       -1198.139          43.000  
E31  23514369.709   123568649.636        -428.346          37.000  
E33  23913983.462   125668584.614        -528.079          42.000  
G01  20524133.607   107854840.723        1131.449          43.000  
G02  21171554.307   111257060.072       -1581.069          37.000  
G07  21638106.919   113708833.651       -2283.724          39.000  
G08  22075454.650   116007053.417       -2515.874          45.000  
G14  21732434.218   114204531.036        2617.771          36.000  
G17  22687313.968   119222440.577        2183.944          31.000  
G22  23558724.303   123801722.761        2753.177          28.000  
G30  21347910.518   112183814.147        -418.736          42.000  
J02  38793071.684   203858739.483         592.771          37.000  
> 2025 04 08 03 02 15.0004057  0 20                     
C06  37348791.576   194484852.759       -1496.750          25.000  
C07  36036221.949   187649873.335         179.410          39.000  
C09  36801344.166   191634045.094       -1023.191          36.000  
C10  37023521.855   192791040.842         299.124          34.000  
C26  23216704.017   120895254.396        2020.123          39.000  
C29  21810933.711   113575112.681       -1204.675          29.000  
C35  22768794.298   118562906.933        1960.811          45.000  
C40  36102308.798   187993958.409         -15.118          36.000  
C45  21951608.624   114307558.331       -1197.885          43.000  
E31  23514467.779   123569158.368        -427.953          37.000  
E33  23914100.119   125669192.966        -528.237          41.000  
G01  20523934.882   107853789.989        1132.476          43.000  
G02  21171870.325   111258722.708       -1580.044          37.000  
G07  21638559.943   113711200.866       -2283.421          39.000  
G08  22075950.843   116009652.447       -2515.514          45.000  
G14  21731952.189   114201993.124        2617.838          35.000  
G17  22686914.682   119220336.629        2184.088          30.000  
G22  23558217.392   123799048.366        2754.363          28.000  
G30  21348007.388   112184314.286        -417.690          42.000  
J02  38792976.388   203858228.431         593.149          37.000  
> 2025 04 08 03 02 16.0003446  0 20                     
C06  37349080.838   194486331.474       -1496.733          27.000  
C07  36036186.536   187649679.989         176.733          39.000  
C09  36801539.293   191635054.074       -1025.640          36.000  
C10  37023462.759   192790726.722         297.527          35.000  
C26  23216315.148   120893219.929        2018.040          39.000  
C29  21811160.317   113576301.968       -1206.626          29.000  
C35  22768416.822   118560931.758        1958.678          45.000  
C40  36102311.459   187993957.537         -16.372          36.000  
C45  21951838.227   114308741.726       -1200.816          43.000  
E31  23514547.786   123569569.934        -429.623          36.000  
E33  23914198.713   125669706.152        -529.699          41.000  
G01  20523717.795   107852643.533        1128.933          43.000  
G02  21172168.581   111260286.326       -1583.228          38.000  
G07  21638993.705   113713468.572       -2286.756          40.000  
G08  22076428.375   116012152.695       -2517.301          44.000  
G14  21731452.098   114199361.001        2615.713          35.000  
G17  22686494.935   119218138.069        2181.992          31.000  
G22  23557692.717   123796278.364        2754.742          29.000  
G30  21348084.397   112184717.250        -421.859          43.000  
J02  38792861.829   203857620.180         591.302          37.000  
> 2025 04 08 03 02 17.0002835  0 20                     
C06  37349368.770   194487815.800       -1498.605          27.000  
C07  36036151.292   187649488.709         177.369          39.000  
C09  36801734.290   191636064.633       -1025.102          36.000  
C10  37023402.032   192790416.360         297.390          35.000  
C26  23215926.449   120891188.485        2018.169          39.000  
C29  21811389.789   113577494.859       -1207.322          29.000  
C35  22768038.915   118558959.291        1959.037          45.000  
C40  36102312.789   187993958.914         -16.833          36.000  
C45  21952067.400   114309927.205       -1199.669          43.000  
E31  23514627.662   123569987.239        -429.880          36.000  
E33  23914297.177   125670221.443        -529.996          41.000  
G01  20523500.576   107851500.433        1130.220          43.000  
G02  21172468.505   111261855.435       -1581.639          38.000  
G07  21639428.236   113715740.806       -2284.865          40.000  
G08  22076906.076   116014923.633       -2516.067          44.000  
G14  21730953.974   114196731.225        2616.563          35.000  
G17  22686077.455   119215943.214        2181.737          28.000  
G22  23557166.713   123793509.842        2754.550          29.000  
G30  21348163.074   112185124.058        -420.205          43.000  
J02  38792746.540   203857014.690         592.466          37.000  
> 2025 04 08 03 02 18.0002225  0 20                     
C06  37349688.592   194489455.707       -1498.488          27.000  
C07  36036145.240   187649453.393         178.324          39.000  
C09  36801957.579   191637229.268       -1023.656          36.000  
C10  37023374.095   192790260.864         298.897          35.000  
C26  23215566.641   120889312.989        2018.433          39.000  
C29  21811649.353   113578844.415       -1205.971          29.000  
C35  22767691.999   118557142.786        1958.722          45.000  
C40  36102343.911   187994378.258         -15.234          37.000  
C45  21952326.964   114311269.926       -1200.808          43.000  
E31  23514732.833   123570559.303        -429.272          36.000  
E33  23914427.830   125671166.469        -529.528          41.000  
G01  20523314.049   107850515.815        1129.050          43.000  
G02  21172797.021   111263581.195       -1582.499          38.000  
G07  21639891.958   113718169.231       -2286.127          41.000  
G08  22077413.568   116017583.207       -2516.878          44.000  
G14  21730485.342   114194259.208        2616.555          35.000  
G17  22685687.669   119213905.567        2182.785          26.000  
G22  23556671.999   123790899.716        2755.371          30.000  
G30  21348271.543   112185688.842        -421.316          43.000  
J02  38792663.142   203856566.753         592.312          38.000  
> 2025 04 08 03 02 19.0001614  0 20                     
C06  37349972.552   194490938.420       -1499.153          27.000  
C07  36036109.920   187649260.538         177.967          39.000  
C09  36802154.299   191638238.598       -1024.393          36.000  
C10  37023316.291   192789948.376         296.221          34.000  
C26  23215177.267   120887280.459        2016.237          39.000  
C29  21811875.453   113580034.255       -1205.849          28.000  
C35  22767313.717   118555170.014        1957.000          45.000  
C40  36102346.066   187994378.926         -16.696          37.000  
C45  21952557.261   114312725.588       -1203.135          43.000  
E31  23514812.334   123570975.304        -431.208          36.000  
E33  23914528.916   125671681.865        -531.717          41.000  
G01  20523096.756   107849372.403        1126.614          43.000  
G02  21173095.071   111265147.287       -1584.913          38.000  
G07  21640324.915   113720439.740       -2288.254          40.000  
G08  22077890.594   116020084.986       -2519.058          45.000  
G14  21729986.843   114191628.552        2613.878          35.000  
G17  22685195.166   119211708.090        2181.684          24.000  
G22  23556147.119   123788129.690        2753.477          29.000  
G30  21348349.545   112186093.583        -424.693          43.000  
J02  38792548.677   203855959.723         590.345          37.000  
> 2025 04 08 03 02 20.0001003  0 20                     
C06  37350254.394   194492419.783       -1496.987          26.000  
C07  36036073.983   187649066.966         179.511          39.000  
C09  36802350.700   191639247.167       -1024.230          36.000  
C10  37023257.270   192789636.244         298.245          34.000  
C26  23214788.774   120885247.990        2020.559          39.000  
C29  21812104.232   113581223.296       -1206.556          28.000  
C35  22766936.016   118553196.948        1960.131          45.000  
C40  36102345.204   187994377.099         -12.913          37.000  
C45  21952785.740   114313911.276       -1199.949          43.000  
E31  23514889.718   123571389.676        -430.310          36.000  
E33  23914625.487   125672197.914        -531.079          41.000  
G01  20522880.043   107848229.225        1128.053          43.000  
G02  21173395.501   111266714.613       -1582.699          37.000  
G07  21640757.253   113722710.031       -2285.735          40.000  
G08  22078367.602   116022586.494       -2515.960          45.000  
G14  21729488.026   114188998.922        2615.555          34.000  
G17  22684787.486   119209511.020        2181.167          22.000  
G22  23555622.519   123785631.617        2753.660          29.000  
G30  21348427.828   112186501.528        -422.267          42.000  
J02  38792435.094   203855621.566         592.630          37.000  
> 2025 04 08 03 02 21.0000393  0 20                     
C06  37350569.008   194494060.155       -1496.832          26.000  
C07  36036069.317   187649032.235         179.640          39.000  
C09  36802578.074   191640681.576       -1023.770          36.000  
C10  37023230.420   192789482.281         300.025          34.000  
C26  23214428.854   120883374.200        2017.752          39.000  
C29  21812360.985   113582572.911       -1207.989          26.000  
C35  22766588.088   118551382.133        1958.698          45.000  
C40  36102377.713   187994535.529         -14.430          37.000  
C45  21953044.892   114315255.655       -1201.775          43.000  
E31  23514997.175   123571963.384        -429.449          36.000  
E33  23914758.726   125672871.647        -531.060          42.000  
G01  20522694.903   107847247.372        1127.662          43.000  
G02  21173726.303   111268442.185       -1583.249          37.000  
G07  21641220.863   113725140.093       -2287.823          39.000  
G08  22078874.682   116025246.676       -2516.743          44.000  
G14  21729018.682   114186527.866        2616.938          34.000  
G17  22684408.679   119207475.458        2181.792          22.000  
G22  23555127.693   123783022.331        2755.977          28.000  
G30  21348535.885   112187069.362        -423.138          42.000  
J02  38792350.383   203855174.975         592.872          37.000  
> 2025 04 08 03 02 21.9999782  0 20                     
C06  37350855.553   194495544.884       -1497.734          25.000  
C07  36036032.986   187648841.226         177.276          39.000  
C09  36802774.082   191641692.573       -1026.530          36.000  
C10  37023171.304   192789171.030         296.860          34.000  
C26  23214039.967   120881345.480        2014.366          40.000  
C29  21812593.268   113583768.562       -1208.286          26.000  
C35  22766211.192   118549412.200        1955.995          45.000  
C40  36102380.055   187994538.362         -17.010          37.000  
C45  21953274.477   114316443.349       -1203.509          43.000  
E31  23515078.962   123572379.053        -431.130          36.000  
E33  23914857.601   125673391.430        -532.474          42.000  
G01  20522478.696   107846107.478        1126.811          43.000  
G02  21174026.639   111270013.784       -1585.212          38.000  
G07  21641653.707   113727416.114       -2288.135          39.000  
G08  22079351.895   116027751.341       -2518.502          45.000  
G14  21728519.771   114183899.650        2613.924          34.000  
G17  22684001.505   119205281.007        2181.684          23.000  
G22  23554601.801   123780254.588        2753.135          29.000  
G30  21348614.374   112187477.697        -424.426          42.000  
J02  38792235.507   203854569.505         593.415          37.000  
> 2025 04 08 03 02 22.9999171  0 20                     
C06  37351136.796   194497026.238       -1497.358          25.000  
C07  36035997.648   187648649.421         178.975          39.000  
C09  36802970.484   191642703.601       -1025.939          36.000  
C10  37023113.782   192788859.774         297.329          33.000  
C26  23213651.773   120879576.456        2016.388          40.000  
C29  21812834.939   113584960.344       -1207.802          30.000  
C35  22765834.091   118547441.291        1957.198          45.000  
C40  36102380.092   187994539.550         -15.560          38.000  
C45  21953504.455   114317631.739       -1203.190          44.000  
E31  23515165.340   123572796.298        -431.130          36.000  
E33  23914956.570   125673909.515        -532.552          42.000  
G01  20522261.984   107844967.197        1125.652          43.000  
G02  21174327.668   111271584.169       -1585.523          39.000  
G07  21642086.046   113729687.845       -2288.545          39.000  
G08  22079829.802   116030253.321       -2517.724          45.000  
G14  21728020.355   114181271.130        2615.259          33.000  
G17  22683597.722   119203086.312        2180.853          27.000  
G22  23554076.002   123777488.336        2752.825          29.000  
G30  21348693.857   112187886.781        -424.754          43.000  
J02  38792119.524   203853962.146         593.280          37.000  
> 2025 04 08 03 02 23.9998561  0 20                     
C06  37351458.473   194498664.085       -1499.068          27.000  
C07  36035992.551   187648612.952         176.914          40.000  
C09  36803195.328   191643868.831       -1026.007          37.000  
C10  37023081.704   192788703.485         296.355          33.000  
C26  23213293.521   120877702.076        2014.989          41.000  
C29  21813101.754   113586309.013       -1210.129          29.000  
C35  22765485.732   118545626.039        1955.529          46.000  
C40  36102410.072   187994694.564         -15.739          37.000  
C45  21953763.776   114318975.036       -1204.286          44.000  
E31  23515274.464   123573368.663        -432.445          35.000  
E33  23915087.879   125674584.089        -534.480          42.000  
G01  20522075.213   107843984.325        1124.251          43.000  
G02  21174659.238   111273585.320       -1586.971          39.000  
G07  21642549.525   113732118.608       -2290.096          39.000  
G08  22080337.351   116032913.489       -2519.104          44.000  
G14  21727552.079   114178798.761        2613.087          33.000  
G17  22683220.583   119201048.673        2179.658          29.000  
G22  23553578.647   123774877.080        2753.919          27.000  
G30  21348802.981   112188455.246        -426.882          43.000  
J02  38792034.983   203853511.802         592.106          38.000  
> 2025 04 08 03 02 24.9997950  0 20                     
C06  37351742.995   194500149.647       -1499.693          27.000  
C07  36035957.794   187648688.489         177.377          41.000  
C09  36803390.512   191644881.320       -1027.040          38.000  
C10  37023019.965   192788393.138         295.949          32.000  
C26  23212907.108   120875673.712        2014.238          41.000  
C29  21813338.009   113587774.913       -1210.275          33.000  
C35  22765107.713   118543656.489        1955.944          46.000  
C40  36102411.589   187994695.375         -16.282          36.000  
C45  21953993.435   114320165.157       -1205.386          44.000  
E31  23515357.825   123573787.085        -432.109          36.000  
E33  23915187.729   125675102.532        -534.398          42.000  
G01  20521859.681   107842846.690        1123.607          43.000  
G02  21174959.349   111275157.308       -1587.101          38.000  
G07  21642984.243   113734393.137       -2290.575          39.000  
G08  22080814.939   116035417.260       -2519.098          43.000  
G14  21727053.543   114176436.667        2612.994          33.000  
G17  22682813.184   119198855.168        2179.747          32.000  
G22  23553050.131   123772110.089        2752.095          30.000  
G30  21348882.745   112189135.868        -427.155          43.000  
J02  38791919.881   203852906.373         590.965          38.000  
> 2025 04 08 03 02 25.9997339  0 20                     
C06  37352024.763   194501632.476       -1499.860          26.000  
C07  36035921.782   187648497.057         178.082          41.000  
C09  36803586.239   191645891.997       -1025.097          38.000  
C10  37022962.068   192788082.699         296.881          35.000  
C26  23212519.139   120873644.968        2014.777          40.000  
C29  21813568.812   113588968.564       -1209.113          33.000  
C35  22764730.536   118541686.759        1955.540          46.000  
C40  36102413.950   187994696.220         -15.329          37.000  
C45  21954222.140   114321354.566       -1205.652          44.000  
E31  23515432.736   123574203.451        -431.871          35.000  
E33  23915286.323   125675622.496        -534.492          41.000  
G01  20521644.392   107841709.067        1123.196          43.000  
G02  21175259.404   111276730.369       -1587.831          38.000  
G07  21643420.103   113736940.300       -2291.061          39.000  
G08  22081292.471   116037919.262       -2518.833          44.000  
G14  21726551.952   114173809.342        2613.514          33.000  
G17  22682401.531   119196661.583        2178.585          33.000  
G22  23552524.258   123769344.087        2752.638          28.000  
G30  21348962.752   112189547.250        -428.163          43.000  
J02  38791804.724   203852300.124         592.333          37.000  
> 2025 04 08 03 02 26.9996729  0 20                     
C06  37352341.456   194503276.819       -1499.047          25.000  
C07  36035917.697   187648462.992         178.625          40.000  
C09  36803810.596   191647061.331       -1026.713          38.000  
C10  37022935.499   192787929.892         297.662          34.000  
C26  23212161.299   120871774.537        2015.216          40.000  
C29  21813828.245   113590321.345       -1210.133          33.000  
C35  22764383.789   118539875.145        1955.933          45.000  
C40  36102447.040   187994855.456         -15.516          36.000  
C45  21954480.973   114322703.274       -1205.580          43.000  
E31  23515546.769   123574781.362        -432.395          35.000  
E33  23915417.145   125676301.844        -534.987          40.000  
G01  20521459.233   107840995.965        1122.706          42.000  
G02  21175588.089   111278461.629       -1588.686          38.000  
G07  21643884.594   113739374.800       -2290.901          40.000  
G08  22081799.832   116040582.051       -2518.140          42.000  
G14  21726081.990   114171340.979        2613.752          32.000  
G17  22682017.310   119194627.555        2180.390          31.000  
G22  23552027.315   123766736.864        2752.453          25.000  
G30  21349072.888   112190118.569        -427.502          42.000  
J02  38791719.695   203851852.854         592.104          36.000  
> 2025 04 08 03 02 27.9996118  0 20                     
C06  37352636.021   194504756.713       -1500.219          26.000  
C07  36035882.190   187648268.895         177.676          39.000  
C09  36804006.829   191648071.346       -1025.868          37.000  
C10  37022873.311   192787616.546         297.542          32.000  
C26  23211773.836   120869744.303        2013.743          39.000  
C29  21814063.750   113591515.747       -1210.588          34.000  
C35  22764006.219   118537903.980        1955.220          44.000  
C40  36102446.609   187994855.153         -16.842          35.000  
C45  21954710.183   114323891.788       -1206.100          42.000  
E31  23515622.186   123575195.715        -432.001          34.000  
E33  23915519.243   125676820.835        -535.376          39.000  
G01  20521243.551   107839857.248        1122.401          42.000  
G02  21175887.151   111280033.485       -1588.301          37.000  
G07  21644319.462   113741647.862       -2291.968          39.000  
G08  22082277.270   116043083.773       -2519.249          40.000  
G14  21725583.304   114168712.046        2612.252          31.000  
G17  22681601.666   119192431.257        2179.492          29.000  
G22  23551503.146   123763968.397        2752.188          26.000  
G30  21349152.802   112190530.990        -428.418          41.000  
J02  38791604.144   203851243.524         593.272          35.000  
> 2025 04 08 03 02 28.9995507  0 20                     
C06  37352924.065   194506243.781       -1501.735          27.000  
C07  36035847.058   187648078.247         178.280          39.000  
C09  36804202.837   191649083.128       -1026.511          36.000  
C10  37022815.994   192787307.149         297.052          31.000  
C26  23211384.949   120867718.147        2014.196          39.000  
C29  21814294.235   113592712.984       -1210.906          33.000  
C35  22763629.923   118535936.921        1954.764          43.000  
C40  36102447.452   187994857.565         -14.983          34.000  
C45  21954940.068   114325085.341       -1206.312          42.000  
E31  23515698.277   123575613.497        -432.637          31.000  
E33  23915620.517   125677341.486        -535.547          40.000  
G01  20521029.443   107838723.113        1121.913          41.000  
G02  21176187.187   111281608.467       -1589.368          36.000  
G07  21644754.704   113743925.929       -2290.493          39.000  
G08  22082754.783   116045588.232       -2518.498          40.000  
G14  21725085.892   114166086.716        2613.745          30.000  
G17  22681187.297   119190240.294        2177.756          27.000  
G22  23550978.153   123761202.939        2753.959          27.000  
G30  21349233.090   112190945.589        -429.037          40.000  
J02  38791490.466   203850638.922         592.598          35.000  
> 2025 04 08 03 02 29.9994897  0 20                     
C06  37353240.871   194507887.362       -1499.647          27.000  
C07  36035840.988   187648043.736         177.056          39.000  
C09  36804429.705   191650251.919       -1027.482          35.000  
C10  37022784.441   192787153.102         297.635          28.000  
C26  23211026.022   120865848.404        2013.074          38.000  
C29  21814553.780   113594066.019       -1211.996          32.000  
C35  22763284.188   118534393.637        1954.671          43.000  
C40  36102477.056   187995015.402         -17.445          34.000  
C45  21955200.212   114326433.034       -1206.935          41.000  
E31  23515818.419   123576459.853        -433.251          32.000  
E33  23915748.153   125678022.276        -536.651          40.000  
G01  20520844.996   107837746.173        1120.556          41.000  
G02  21176518.383   111283341.038       -1588.964          34.000  
G07  21645219.308   113746361.874       -2292.983          39.000  
G08  22083261.957   116048251.629       -2519.363          41.000  
G14  21724616.043   114163617.484        2614.011          33.000  
G17  22680798.991   119188206.734        2179.174          30.000  
G22  23550483.121   123758592.925        2755.683          23.000  
G30  21349343.938   112191519.617        -430.312          41.000  
J02  38791405.850   203850190.293         592.537          35.000  
> 2025 04 08 03 02 31.0004285  0 20                     
C06  37353520.821   194509584.188       -1500.908          27.000  
C07  36035792.665   187647790.371         177.066          39.000  
C09  36804612.522   191651204.087       -1028.727          36.000  
C10  37022717.531   192786780.980         296.191          30.000  
C26  23210626.043   120863758.823        2011.216          38.000  
C29  21814773.472   113595203.400       -1212.423          29.000  
C35  22762895.900   118532362.584        1953.398          43.000  
C40  36102466.508   187994955.723         -15.434          34.000  
C45  21955419.005   114327565.700       -1208.103          41.000  
E31  23515896.908   123576817.231        -433.401          34.000  
E33  23915837.435   125678481.948        -537.064          38.000  
G01  20520617.697   107836549.056        1120.360          40.000  
G02  21176808.226   111284854.981       -1589.839          33.000  
G07  21645643.158   113748581.153       -2293.725          38.000  
G08  22083728.078   116050696.416       -2519.133          40.000  
G14  21724103.341   114160926.129        2612.384          30.000  
G17  22680373.529   119185950.070        2178.932          29.000  
G22  23549945.837   123755759.2841       2754.338          20.000  
G30  21349413.733   112191873.193        -430.823          40.000  
J02  38791279.881   203849522.301         591.494          35.000  
> 2025 04 08 03 02 32.0003675  0 20                     
C06  37353837.345   194511227.553       -1500.962          25.000  
C07  36035787.212   187647756.088         178.501          38.000  
C09  36804837.610   191652374.387       -1027.054          35.000  
C10  37022689.294   192786627.495         296.481          31.000  
C26  23210269.833   120861890.505        2011.447          38.000  
C29  21815034.834   113596557.728       -1213.307          30.000  
C35  22762548.684   118530552.572        1952.628          43.000  
C40  36102497.630   187995112.492         -15.630          34.000  
C45  21955680.667   114328917.929       -1209.328          41.000  
E31  23516004.777   123577394.765        -433.876          34.000  
E33  23915965.990   125679164.060        -537.161          37.000  
G01  20520432.969   107835573.891        1119.436          40.000  
G02  21177139.740   111286588.275       -1591.604          33.000  
G07  21646108.680   113751017.063       -2294.792          38.000  
G08  22084235.870   116053358.523       -2520.652          40.000  
G14  21723631.412   114158458.051        2612.837          27.000  
G17  22679987.640   119183915.478        2178.918          28.000  
G22  23549449.324   123753154.553        2749.534          20.000  
G30  21349524.600   112192449.413        -432.813          40.000  
J02  38791194.983   203849074.280         593.076          35.000  
> 2025 04 08 03 02 33.0003064  0 20                     
C06  37354128.200   194512712.499       -1501.707          26.000  
C07  36035751.293   187647563.456         175.646          38.000  
C09  36805033.730   191653384.956       -1027.258          35.000  
C10  37022629.992   192786314.610         298.748          31.000  
C26  23209881.358   120859863.587        2010.134          38.000  
C29  21815265.431   113597755.430       -1213.290          32.000  
C35  22762172.201   118528584.876        1951.814          42.000  
C40  36102501.283   187995113.731         -17.294          33.000  
C45  21955910.365   114330110.589       -1209.216          41.000  
E31  23516082.480   123577813.157        -434.829          33.000  
E33  23916067.676   125679685.486        -538.301          37.000  
G01  20520218.373   107834439.726        1119.249          41.000  
G02  21177439.289   111288164.395       -1591.396          34.000  
G07  21646542.835   113753296.188       -2294.050          38.000  
G08  22084713.796   116055862.095       -2520.171          40.000  
G14  21723129.915   114155830.038        2612.978          26.000  
G17  22679570.685   119181721.252        2177.956          27.000  
G22  23548927.742   123750389.784        2749.873          20.000  
G30  21349605.900   112192864.562        -432.153          41.000  
J02  38791079.919   203848466.297         592.424          36.000  
> 2025 04 08 03 02 34.0002453  0 20                     
C06  37354411.766   194514199.228       -1500.396          27.000  
C07  36035716.180   187647374.005         177.588          37.000  
C09  36805230.057   191654399.830       -1027.582          35.000  
C10  37022574.493   192786004.312         296.639          30.000  
C26  23209493.390   120857839.553        2012.984          37.000  
C29  21815497.133   113598954.320       -1211.146          32.000  
C35  22761796.823   118526618.818        1953.543          42.000  
C40  36102502.445   187995115.519         -14.941          33.000  
C45  21956141.167   114331304.650       -1208.185          41.000  
E31  23516164.286   123578234.505        -434.512          33.000  
E33  23916166.870   125680209.285        -538.177          37.000  
G01  20520004.584   107833308.012        1118.883          41.000  
G02  21177740.843   111289739.965       -1590.434          35.000  
G07  21646978.396   113755574.968       -2294.096          38.000  
G08  22085191.028   116058367.338       -2519.205          40.000  
G14  21722631.623   114153204.808        2612.748          25.000  
G17  22679154.835   119179531.208        2176.203          27.000  
G22  23548405.166   123747626.411        2751.481          23.000  
G30  21349687.107   112193283.136        -432.389          41.000  
J02  38790967.160   203847861.658         591.172          36.000  
> 2025 04 08 03 02 35.0001842  0 20                     
C06  37354697.562   194515684.802       -1500.243          28.000  
C07  36035681.798   187647182.166         177.125          37.000  
C09  36805425.615   191655411.805       -1029.884          34.000  
C10  37022514.927   192785693.915         293.918          28.000  
C26  23209106.151   120855813.826        2009.324          36.000  
C29  21815729.866   113600151.042       -1214.586          33.000  
C35  22761420.378   118524651.975        1951.693          42.000  
C40  36102501.939   187995117.164         -16.581          33.000  
C45  21956371.502   114332498.264       -1211.785          40.000  
E31  23516251.019   123578653.979        -436.599          32.000  
E33  23916272.790   125680732.974        -539.785          37.000  
G01  20519789.726   107832176.169        1116.442          41.000  
G02  21178043.427   111291317.404       -1593.704          35.000  
G07  21647414.988   113757854.836       -2297.162          39.000  
G08  22085668.091   116060872.642       -2521.256          38.000  
G14  21722130.163   114150577.655        2611.740          24.000  
G17  22678742.714   119177339.791        2175.927          26.000  
G22  23547878.524   123744859.586        2752.047          24.000  
G30  21349768.444   112193700.630        -435.105          41.000  
J02  38790852.733   203847255.777         590.791          35.000  
> 2025 04 08 03 02 36.0001232  0 20                     
C06  37355014.181   194517326.138       -1502.532          26.000  
C07  36035677.039   187647147.153         175.719          36.000  
C09  36805651.097   191656582.837       -1026.966          33.000  
C10  37022482.587   192785541.806         295.265          28.000  
C26  23208745.838   120853946.236        2010.198          37.000  
C29  21815993.121   113601507.390       -1215.779          32.000  
C35  22761074.455   118522842.843        1951.384          41.000  
C40  36102536.453   187995273.691         -16.541          32.000  
C45  21956634.157   114333850.671       -1210.740          40.000  
E31  23516359.882   123579233.716        -436.414          32.000  
E33  23916401.439   125681415.676        -539.864          37.000  
G01  20519605.991   107831202.951        1115.449          40.000  
G02  21178374.735   111293052.099       -1594.393          35.000  
G07  21647880.903   113760293.168       -2296.768          38.000  
G08  22086175.078   116063536.525       -2521.313          38.000  
G14  21721660.126   114148110.201        2610.823          23.000  
G17  22678356.619   119175307.332        2176.940          26.000  
G22  23547383.604   123742251.787        2751.226          24.000  
G30  21349880.304   112194276.667        -435.206          41.000  
J02  38790767.629   203846807.393         592.028          35.000  
> 2025 04 08 03 02 37.0000621  0 20                     
C06  37355298.477   194518814.652       -1502.120          26.000  
C07  36035639.658   187646955.772         177.384          36.000  
C09  36805845.456   191657594.898       -1028.553          34.000  
C10  37022426.320   192785230.437         296.138          30.000  
C26  23208358.600   120851921.322        2009.859          37.000  
C29  21816226.453   113602706.045       -1213.978          31.000  
C35  22760698.309   118520876.415        1951.822          42.000  
C40  36102537.446   187995274.683         -16.837          32.000  
C45  21956864.192   114335045.646       -1211.531          40.000  
E31  23516440.020   123579654.742        -436.071          32.000  
E33  23916502.562   125681941.191        -540.088          37.000  
G01  20519392.033   107830071.805        1116.044          40.000  
G02  21178677.919   111294630.510       -1592.972          34.000  
G07  21648315.995   113762572.982       -2296.269          38.000  
G08  22086653.041   116066039.837       -2519.821          39.000  
G14  21721160.466   114145484.646        2610.194          22.000  
G17  22677942.400   119173390.975        2176.819          28.000  
G22  23546857.262   123739485.132        2751.857          22.000  
G30  21349961.941   112194695.575        -434.794          41.000  
J02  38790653.502   203846199.727         592.968          36.000  
> 2025 04 08 03 02 38.0000010  0 20                     
C06  37355583.374   194520302.430       -1500.954          26.000  
C07  36035606.475   187646766.578         177.251          36.000  
C09  36806042.513   191658610.625       -1028.603          33.000  
C10  37022367.355   192784922.146         298.628          29.000  
C26  23207972.261   120849900.173        2009.543          37.000  
C29  21816460.985   113603906.323       -1211.777          30.000  
C35  22760323.662   118518913.441        1951.041          42.000  
C40  36102540.538   187995280.403         -16.736          31.000  
C45  21957095.725   114336243.254       -1211.762          40.000  
E31  23516523.756   123580077.833        -435.970          32.000  
E33  23916605.485   125682468.964        -541.085          38.000  
G01  20519178.974   107828943.995        1114.857          41.000  
G02  21178979.904   111296210.436       -1593.065          33.000  
G07  21648751.687   113764855.805       -2296.583          38.000  
G08  22087131.303   116068546.696       -2520.495          39.000  
G14  21720662.904   114142862.657        2609.817          21.000  
G17  22677525.482   119171201.823        2177.768          27.000  
G22  23546334.518   123736721.617        2751.432          23.000  
G30  21350044.178   112195117.393        -435.938          41.000  
J02  38790540.274   203845595.238         592.268          36.000  
> 2025 04 08 03 02 38.9999400  0 20                     
C06  37355902.278   194521944.446       -1504.641          26.000  
C07  36035600.704   187646730.137         177.500          36.000  
C09  36806268.182   191659779.100       -1028.763          34.000  
C10  37022341.498   192785047.502         296.761          28.000  
C26  23207616.633   120848032.513        2009.226          37.000  
C29  21816723.528   113605258.220       -1214.355          30.000  
C35  22759977.027   118517104.181        1950.164          42.000  
C40  36102572.540   187995436.422         -16.928          32.000  
C45  21957357.369   114337596.102       -1212.255          40.000  
E31  23516639.101   123580655.675        -436.462          34.000  
E33  23916740.017   125683151.391        -541.337          39.000  
G01  20518995.127   107827971.563        1114.474          41.000  
G02  21179313.797   111297946.618       -1594.784          35.000  
G07  21649216.590   113767295.086       -2297.479          38.000  
G08  22087638.178   116071208.551       -2520.771          39.000  
G14  21720194.553   114140396.299        2609.739          20.000  
G17  22677140.474   119169168.800        2175.669          28.000  
G22  23545840.085   123734113.263        2751.600          26.000  
G30  21350155.926   112195695.390        -436.578          42.000  
J02  38790455.658   203845146.439         591.727          36.000  
> 2025 04 08 03 02 39.9998789  0 20                     
C06  37356189.854   194523432.252       -1502.570          27.000  
C07  36035563.605   187646538.095         177.339          37.000  
C09  36806462.223   191660793.298       -1030.287          34.000  
C10  37022282.513   192784735.000         296.252          28.000  
C26  23207229.076   120846008.431        2008.939          37.000  
C29  21816959.539   113606459.578       -1217.822          28.000  
C35  22759600.862   118515138.753        1950.486          43.000  
C40  36102575.913   187995437.206         -15.914          33.000  
C45  21957587.984   114338793.345       -1213.683          41.000  
E31  23516720.120   123581076.485        -436.273          36.000  
E33  23916841.122   125683677.043        -541.664          40.000  
G01  20518781.150   107826842.425        1113.033          41.000  
G02  21179618.162   111299523.330       -1595.683          34.000  
G07  21649651.364   113769576.896       -2298.879          37.000  
G08  22088115.222   116073713.240       -2521.536          39.000  
G14  21719698.172   114137771.511        2609.703          25.000  
G17  22676725.636   119166977.714        2175.359          26.000  
G22  23545318.521   123731346.864        2751.333          27.000  
G30  21350237.844   112196115.941        -438.053          42.000  
J02  38790342.711   203844538.959         592.116          36.000  
> 2025 04 08 03 02 40.9998178  0 20                     
C06  37356475.912   194524918.828       -1498.898          27.000  
C07  36035528.585   187646348.109         176.799          37.000  
C09  36806662.240   191661808.461       -1029.560          34.000  
C10  37022225.909   192784425.624         297.929          29.000  
C26  23206844.798   120843987.437        2008.140          36.000  
C29  21817197.631   113607664.317       -1218.254          25.000  
C35  22759224.979   118513175.513        1949.692          42.000  
C40  36102578.368   187995441.591         -16.749          32.000  
C45  21957820.680   114339990.306       -1212.898          41.000  
E31  23516802.619   123581497.537        -435.905          36.000  
E33  23916943.707   125684204.500        -541.403          40.000  
G01  20518568.653   107825716.122        1113.776          42.000  
G02  21179921.008   111301105.145       -1595.017          34.000  
G07  21650087.019   113771860.129       -2297.696          37.000  
G08  22088593.148   116076219.540       -2521.242          39.000  
G14  21719202.671   114135148.951        2610.490          25.000  
G17  22676314.677   119164790.935        2174.553          25.000  
G22  23544793.641   123728583.216        2751.565          25.000  
G30  21350320.043   112196540.080        -437.487          41.000  
J02  38790228.546   203843933.684         592.792          36.000  
> 2025 04 08 03 02 41.9997568  0 20                     
C06  37356798.245   194526557.212       -1500.594          27.000  
C07  36035520.547   187646310.091         177.306          37.000  
C09  36806887.441   191662975.846       -1028.315          34.000  
C10  37022196.286   192784267.477         297.083          29.000  
C26  23206486.303   120842118.528        2007.952          36.000  
C29  21817462.104   113609021.288       -1218.325          24.000  
C35  22758878.775   118511364.985        1950.292          42.000  
C40  36102608.403   187995595.053         -17.052          32.000  
C45  21958080.956   114341341.458       -1212.945          41.000  
E31  23516915.097   123582074.176        -436.772          36.000  
E33  23917073.873   125684887.480        -542.295          40.000  
G01  20518384.936   107824743.119        1113.342          42.000  
G02  21180253.235   111302840.938       -1595.691          33.000  
G07  21650552.353   113774299.444       -2298.340          37.000  
G08  22089099.553   116078880.432       -2520.347          39.000  
G14  21718735.951   114132678.979        2610.947          25.000  
G17  22675929.200   119162755.866        2176.493          23.000  
G22  23544295.742   123725972.347        2751.619          26.000  
G30  21350431.023   112197117.940        -437.773          41.000  
J02  38790145.260   203843481.742         592.674          35.000  
> 2025 04 08 03 02 42.9996957  0 20                     
C06  37357085.728   194528047.463       -1501.993          27.000  
C07  36035486.052   187646123.055         174.432          37.000  
C09  36807084.086   191663993.658       -1032.618          34.000  
C10  37022137.508   192783960.247         297.178          29.000  
C26  23206097.753   120840100.516        2006.360          36.000  
C29  21817695.024   113610225.672       -1217.450          27.000  
C35  22758503.116   118509405.270        1946.748          43.000  
C40  36102613.481   187995599.932         -16.520          32.000  
C45  21958314.475   114342545.070       -1215.914          42.000  
E31  23516995.123   123582499.885        -438.053          37.000  
E33  23917178.182   125685419.763        -543.585          40.000  
G01  20518172.665   107823620.448        1109.883          42.000  
G02  21180555.706   111304425.764       -1598.738          33.000  
G07  21650989.432   113776586.170       -2300.246          37.000  
G08  22089578.303   116081390.544       -2522.801          39.000  
G14  21718235.578   114130057.311        2609.106          26.000  
G17  22675517.566   119160568.806        2175.622          22.000  
G22  23543769.288   123723210.437        2750.591          27.000  
G30  21350513.147   112197544.084        -441.281          41.000  
J02  38790031.620   203842878.924         590.456          35.000  
> 2025 04 08 03 02 43.9996346  0 20                     
C06  37357367.964   194529535.684       -1504.990          27.000  
C07  36035451.407   187645934.841         175.942          37.000  
C09  36807282.080   191665013.820       -1032.176          34.000  
C10  37022079.179   192783651.611         294.615          29.000  
C26  23205711.452   120838081.746        2005.118          37.000  
C29  21817922.698   113611429.549       -1217.448          28.000  
C35  22758128.507   118507444.845        1948.322          43.000  
C40  36102612.413   187995603.617         -18.573          32.000  
C45  21958547.845   114343746.740       -1215.482          41.000  
E31  23517081.594   123582925.786        -439.267          36.000  
E33  23917280.842   125685951.312        -545.344          40.000  
G01  20517960.843   107822497.337        1110.203          42.000  
G02  21180858.328   111306010.722       -1599.363          34.000  
G07  21651425.162   113778871.059       -2300.179          37.000  
G08  22090056.303   116083898.808       -2522.982          39.000  
G14  21717737.454   114127435.768        2607.536          26.000  
G17  22675106.981   119158381.004        2174.029          26.000  
G22  23543245.981   123720447.372        2749.473          28.000  
G30  21350595.721   112197970.414        -440.521          42.000  
J02  38789917.530   203842274.844         591.447          36.000  
> 2025 04 08 03 02 44.9995736  0 20                     
C06  37357691.271   194531180.826       -1504.510          28.000  
C07  36035445.243   187645899.868         176.022          37.000  
C09  36807507.355   191666186.122       -1030.836          33.000  
C10  37022052.329   192783497.834         296.155          29.000  
C26  23205354.830   120836217.290        2006.555          37.000  
C29  21818183.049   113612786.281       -1217.694          29.000  
C35  22757782.677   118505637.896        1947.925          43.000  
C40  36102644.022   187995763.146         -18.538          32.000  
C45  21958809.995   114345101.299       -1215.270          41.000  
E31  23517193.248   123583506.432        -438.537          36.000  
E33  23917412.582   125686637.554        -545.234          40.000  
G01  20517779.000   107821529.974        1109.677          42.000  
G02  21181190.629   111307750.664       -1598.885          34.000  
G07  21651890.870   113781314.096       -2301.217          37.000  
G08  22090563.683   116086563.661       -2522.555          39.000  
G14  21717269.909   114124971.021        2607.561          27.000  
G17  22674723.678   119156350.042        2173.722          27.000  
G22  23542750.855   123717840.772        2749.578          29.000  
G30  21350707.675   112198553.072        -441.087          42.000  
J02  38789833.719   203841826.514         590.389          36.000  
> 2025 04 08 03 02 45.9995125  0 20                     
C06  37357978.397   194532670.005       -1503.300          27.000  
C07  36035409.493   187645709.414         176.167          37.000  
C09  36807703.345   191667200.728       -1030.867          34.000  
C10  37021995.293   192783187.743         296.397          29.000  
C26  23204968.322   120834196.637        2005.539          36.000  
C29  21818415.313   113613988.852       -1217.883          29.000  
C35  22757406.962   118503675.969        1947.847          43.000  
C40  36102644.847   187995766.204         -16.536          33.000  
C45  21959041.060   114346303.647       -1215.062          41.000  
E31  23517275.017   123583929.867        -439.019          37.000  
E33  23917515.636   125687166.279        -545.567          40.000  
G01  20517566.971   107820406.235        1110.560          42.000  
G02  21181492.745   111309334.368       -1597.137          33.000  
G07  21652326.094   113783598.764       -2300.549          37.000  
G08  22091041.778   116089068.390       -2520.943          39.000  
G14  21716771.280   114122348.886        2608.175          28.000  
G17  22674310.789   119154162.320        2173.413          25.000  
G22  23542224.944   123715076.928        2749.757          28.000  
G30  21350789.444   112198980.070        -439.960          42.000  
J02  38789718.824   203841221.567         591.756          36.000  
> 2025 04 08 03 02 46.9994514  0 20                     
C06  37358265.205   194534156.990       -1503.508          28.000  
C07  36035373.124   187645518.557         176.935          37.000  
C09  36807898.416   191668215.769       -1031.357          34.000  
C10  37021941.537   192782877.864         295.272          30.000  
C26  23204580.297   120832176.959        2005.271          36.000  
C29  21818648.458   113615191.270       -1218.201          29.000  
C35  22757031.828   118501714.092        1947.193          43.000  
C40  36102647.751   187995765.948         -16.865          33.000  
C45  21959272.706   114347502.686       -1216.680          41.000  
E31  23517360.664   123584352.820        -439.168          36.000  
E33  23917618.371   125687698.452        -545.961          40.000  
G01  20517354.325   107819282.150        1108.833          42.000  
G02  21181793.343   111310916.705       -1598.218          32.000  
G07  21652760.999   113785884.126       -2301.646          37.000  
G08  22091520.153   116091574.704       -2522.492          39.000  
G14  21716274.430   114119726.309        2607.910          27.000  
G17  22673898.181   119151974.477        2173.529          26.000  
G22  23541697.216   123712312.484        2750.117          29.000  
G30  21350871.793   112199405.235        -441.986          41.000  
J02  38789604.210   203840614.518         592.806          35.000  
> 2025 04 08 03 02 48.0003903  0 20                     
C06  37358569.906   194535744.465       -1503.900          28.000  
C07  36035357.048   187645423.772         176.317          37.000  
C09  36808116.777   191669328.118       -1030.417          35.000  
C10  37021902.077   192782664.804         294.943          30.000  
C26  23204211.065   120830252.589        2004.718          36.000  
C29  21818899.796   113616492.201       -1218.536          28.000  
C35  22756673.989   118499847.265        1947.291          43.000  
C40  36102667.050   187995865.008         -17.324          32.000  
C45  21959524.044   114348802.497       -1217.412          41.000  
E31  23517458.808   123584875.883        -439.955          36.000  
E33  23917738.700   125688326.658        -546.489          40.000  
G01  20517160.172   107818256.124        1107.638          43.000  
G02  21182113.634   111312598.859       -1601.063          32.000  
G07  21653215.597   113788270.811       -2302.784          37.000  
G08  22092017.621   116094182.178       -2522.772          39.000  
G14  21715796.673   114117198.901        2607.561          28.000  
G17  22673504.666   119149881.548        2173.384          25.000  
G22  23541189.480   123709642.642        2750.075          29.000  
G30  21350972.635   112199930.452        -443.753          42.000  
J02  38789507.789   203840105.203         590.645          35.000  
> 2025 04 08 03 02 49.0003292  0 20                     
C06  37358858.644   194537231.996       -1503.435          28.000  
C07  36035321.710   187645232.997         177.142          37.000  
C09  36808311.380   191670345.131       -1031.120          34.000  
C10  37021840.957   192782354.524         297.485          29.000  
C26  23203822.871   120828233.648        2004.405          35.000  
C29  21819131.573   113617696.963       -1218.418          28.000  
C35  22756298.386   118497885.910        1947.578          43.000  
C40  36102669.186   187995867.280         -17.058          31.000  
C45  21959755.222   114350005.038       -1216.897          42.000  
E31  23517536.792   123585300.054        -438.651          37.000  
E33  23917839.468   125688857.231        -546.533          40.000  
G01  20516947.357   107817134.217        1108.595          42.000  
G02  21182414.363   111314184.926       -1600.385          32.000  
G07  21653651.533   113790557.741       -2301.751          37.000  
G08  22092495.827   116096689.299       -2521.934          38.000  
G14  21715302.053   114114577.238        2608.112          28.000  
G17  22673094.587   119147694.528        2173.227          26.000  
G22  23540664.281   123706878.719        2750.407          27.000  
G30  21351055.416   112200358.678        -442.943          41.000  
J02  38789394.505   203839499.829         592.666          35.000  
> 2025 04 08 03 02 50.0002682  0 20                     
C06  37359175.600   194538877.839       -1503.593          28.000  
C07  36035316.988   187645198.864         176.679          37.000  
C09  36808538.398   191671518.560       -1031.431          35.000  
C10  37021813.451   192782200.177         297.130          30.000  
C26  23203467.992   120826372.039        2005.836          35.000  
C29  21819391.268   113619055.730       -1218.771          28.000  
C35  22755952.501   118496082.152        1946.845          43.000  
C40  36102701.339   187996025.336         -16.869          30.000  
C45  21960017.615   114351362.631       -1217.944          42.000  
E31  23517650.788   123585880.903        -439.922          36.000  
E33  23917971.751   125689546.925        -546.701          40.000  
G01  20516764.858   107816171.005        1107.248          42.000  
G02  21182745.109   111315927.403       -1601.194          34.000  
G07  21654117.785   113793003.680       -2303.070          37.000  
G08  22093004.350   116099356.838       -2522.948          39.000  
G14  21714838.949   114112113.289        2607.479          28.000  
G17  22672712.427   119145665.453        2171.673          28.000  
G22  23540169.698   123704272.838        2749.401          28.000  
G30  21351168.213   112200945.345        -443.949          41.000  
J02  38789310.338   203839051.423         591.786          35.000  
> 2025 04 08 03 02 51.0002071  0 20                     
C06  37359461.339   194540363.875       -1503.325          29.000  
C07  36035278.652   187645006.300         178.425          37.000  
C09  36808737.198   191672531.185       -1029.826          34.000  
C10  37021755.928   192781887.338         298.367          29.000  
C26  23203081.597   120824351.301        2005.391          34.000  
C29  21819623.046   113620258.469       -1218.515          28.000  
C35  22755576.898   118494119.663        1947.085          44.000  
C40  36102699.278   187996026.232         -16.410          31.000  
C45  21960249.692   114352564.705       -1217.265          42.000  
E31  23517734.168   123586306.299        -439.604          36.000  
E33  23918074.618   125690077.470        -546.878          40.000  
G01  20516552.642   107815048.246        1107.494          42.000  
G02  21183048.237   111317512.314       -1599.449          35.000  
G07  21654554.020   113795289.109       -2300.943          37.000  
G08  22093483.756   116101860.400       -2521.469          40.000  
G14  21714344.928   114109489.995        2608.592          32.000  
G17  22672298.151   119143477.125        2173.640          26.000  
G22  23539643.001   123701507.288        2751.276          30.000  
G30  21351250.393   112201372.803        -443.804          43.000  
J02  38789196.454   203838443.554         593.225          36.000  
> 2025 04 08 03 02 52.0001460  0 20                     
C06  37359747.229   194541854.398       -1502.200          28.000  
C07  36035243.764   187644816.398         178.766          37.000  
C09  36808933.749   191673549.788       -1031.082          33.000  
C10  37021696.457   192781579.099         296.675          29.000  
C26  23202697.451   120822335.093        2004.838          34.000  
C29  21819855.272   113621465.242       -1218.599          26.000  
C35  22755201.745   118492161.145        1947.536          43.000  
C40  36102700.364   187996030.044         -15.484          30.000  
C45  21960481.918   114353768.724       -1216.863          41.000  
E31  23517817.098   123586731.016        -438.497          35.000  
E33  23918177.634   125690612.004        -546.834          40.000  
G01  20516340.277   107813929.428        1107.657          42.000  
G02  21183352.714   111319099.958       -1600.390          35.000  
G07  21654991.605   113797578.953       -2302.136          36.000  
G08  22093963.011   116104370.096       -2520.695          39.000  
G14  21713848.959   114106870.632        2607.999          31.000  
G17  22671884.625   119141557.260        2176.561          24.000  
G22  23539116.752   123698744.010        2751.588          31.000  
G30  21351333.923   112201804.291        -443.331          43.000  
J02  38789082.121   203837838.660         593.899          35.000  
> 2025 04 08 03 02 53.0000849  0 20                     
C06  37360035.086   194543341.771       -1502.728          28.000  
C07  36035206.046   187644623.509         178.099          37.000  
C09  36809131.968   191674564.362       -1030.998          32.000  
C10  37021637.754   192781266.608         296.850          29.000  
C26  23202307.477   120820315.331        2003.925          33.000  
C29  21820087.368   113622668.310       -1218.405          24.000  
C35  22754825.562   118490198.866        1946.909          42.000  
C40  36102700.121   187996026.894         -15.064          28.000  
C45  21960713.414   114354970.441       -1218.569          41.000  
E31  23517899.597   123587154.697        -439.749          34.000  
E33  23918278.720   125691142.354        -546.909          40.000  
G01  20516127.480   107812807.492        1105.778          41.000  
G02  21183657.359   111320684.504       -1600.061          34.000  
G07  21655427.859   113799865.521       -2303.765          36.000  
G08  22094441.237   116106874.398       -2522.168          39.000  
G14  21713353.458   114104247.620        2608.287          31.000  
G17  22671469.768   119139364.474        2178.469          21.000  
G22  23538590.973   123695978.154        2750.426          31.000  
G30  21351416.722   112202231.409        -445.369          42.000  
J02  38788967.656   203837230.102         593.208          35.000  
> 2025 04 08 03 02 54.0000239  0 20                     
C06  37360353.334   194544984.939       -1502.984          29.000  
C07  36035202.317   187644588.866         177.718          37.000  
C09  36809357.581   191675738.734       -1032.287          32.000  
C10  37021611.540   192781112.339         298.287          26.000  
C26  23201951.192   120818454.222        2005.303          33.000  
C29  21820347.157   113624027.803       -1218.506          24.000  
C35  22754480.969   118488395.395        1946.757          43.000  
C40  36102733.267   187996185.320         -16.553          31.000  
C45  21960975.602   114356332.056       -1217.930          41.000  
E31  23518011.288   123587738.403        -439.623          35.000  
E33  23918413.196   125692110.055        -547.720          40.000  
G01  20515944.476   107811846.023        1105.285          41.000  
G02  21183991.796   111322428.459       -1602.296          34.000  
G07  21655894.805   113802311.753       -2303.735          36.000  
G08  22094950.453   116109539.665       -2521.720          39.000  
G14  21712887.450   114101784.333        2607.548          30.000  
G17  22671085.303   119137330.166        2178.977          22.000  
G22  23538096.484   123693372.268        2751.321          30.000  
G30  21351529.912   112202821.356        -445.355          42.000  
J02  38788883.284   203836781.597         592.701          35.000  
> 2025 04 08 03 02 54.9999628  0 20                     
C06  37360643.140   194546475.661       -1503.319          28.000  
C07  36035166.548   187644398.468         176.782          37.000  
C09  36809554.151   191676756.858       -1031.492          33.000  
C10  37021552.388   192780801.962         297.130          27.000  
C26  23201561.368   120816436.963        2003.422          33.000  
C29  21820579.402   113625233.200       -1218.843          22.000  
C35  22754106.135   118486436.697        1945.335          43.000  
C40  36102734.672   187996188.228         -16.856          30.000  
C45  21961208.447   114357535.305       -1219.346          40.000  
E31  23518090.939   123588164.026        -440.176          35.000  
E33  23918517.130   125692644.766        -548.822          39.000  
G01  20515732.729   107810728.041        1103.572          41.000  
G02  21184293.294   111324015.939       -1602.473          33.000  
G07  21656331.209   113804601.309       -2304.451          35.000  
G08  22095430.027   116112049.122       -2522.075          39.000  
G14  21712392.099   114099163.714        2606.467          30.000  
G17  22670671.795   119135138.874        2177.903          21.000  
G22  23537574.151   123690609.001        2749.993          30.000  
G30  21351613.461   112203253.087        -446.994          42.000  
J02  38788768.669   203836175.282         593.154          34.000  
> 2025 04 08 03 02 55.9999017  0 20                     
C06  37360929.067   194547960.910       -1503.738          28.000  
C07  36035132.897   187644205.138         178.579          36.000  
C09  36809748.341   191677770.320       -1030.947          32.000  
C10  37021493.254   192780489.899         296.244          28.000  
C26  23201174.861   120814418.810        2001.934          31.000  
C29  21820813.165   113626700.056       -1219.135          21.000  
C35  22753730.420   118484476.099        1945.021          43.000  
C40  36102737.595   187996186.906         -14.565          30.000  
C45  21961439.212   114358739.826       -1219.782          40.000  
E31  23518174.806   123588587.786        -440.635          34.000  
E33  23918617.186   125693178.133        -549.171          39.000  
G01  20515520.401   107809608.459        1105.123          41.000  
G02  21184596.009   111325603.581       -1602.525          32.000  
G07  21656768.231   113806888.918       -2304.146          35.000  
G08  22095909.920   116114554.794       -2523.197          39.000  
G14  21711894.069   114096541.936        2606.652          31.000  
G17  22670258.307   119132944.910        2177.255          20.000  
G22  23537052.138   123687842.444        2751.236          30.000  
G30  21351696.728   112203683.905        -446.340          42.000  
J02  38788653.474   203835567.736         592.748          33.000  
> 2025 04 08 03 02 56.9998407  0 20                     
C02  38568860.521   200838177.5901         12.635          33.000  
C07  36035126.189   187644171.832         175.757          38.000  
C09  36809978.470   191679217.077       -1034.682          33.000  
C10  37021464.661   192780337.299         295.185          28.000  
C26  23200818.595   120812561.194        2000.480          32.000  
C29  21821078.969   113628060.3751      -1220.238          20.000  
C35  22753384.947   118482675.847        1942.511          44.000  
C40  36102766.262   187996346.342         -16.936          29.000  
C45  21961702.617   114360102.353       -1222.652          41.000  
E31  23518285.917   123589172.750        -442.409          35.000  
E33  23918750.481   125693872.110        -551.164          39.000  
G01  20515338.614   107808650.203        1101.552          42.000  
G02  21184928.667   111327350.875       -1605.364          33.000  
G07  21657236.695   113809339.441       -2308.678          36.000  
G08  22096418.855   116117221.864       -2524.708          39.000  
G14  21711427.779   114094081.293        2604.584          30.000  
G17  22669871.162   119130913.1441       2175.816          17.000  
G22  23536558.267   123685237.261        2749.134          30.000  
G30  21351810.537   112204276.398        -450.384          42.000  
J02  38788568.820   203835119.958         591.820          34.000  
> 2025 04 08 03 02 57.9997796  0 20                     
C02  38568855.762   200838149.221          15.475          33.000  
C07  36035089.951   187643982.050         177.241          38.000  
C09  36810174.272   191680234.614       -1032.841          33.000  
C10  37021408.038   192780028.236         295.086          29.000  
C26  23200431.900   120810546.847        2001.040          32.000  
C29  21821312.545   113629266.8561      -1221.107          19.000  
C35  22753010.843   118480718.996        1943.559          44.000  
C40  36102766.000   187996348.820         -16.025          30.000  
C45  21961935.893   114361311.272       -1221.865          41.000  
E31  23518369.297   123589864.567        -441.628          35.000  
E33  23918855.746   125694407.753        -551.147          39.000  
G01  20515127.897   107807534.594        1101.605          42.000  
G02  21185230.595   111328941.708       -1605.999          32.000  
G07  21657672.930   113811632.701       -2307.016          36.000  
G08  22096898.261   116119730.971       -2524.110          39.000  
G14  21710932.259   114091463.446        2604.378          30.000  
G17  22669455.987   119128724.3381       2174.536          16.000  
G22  23536032.169   123682474.279        2749.658          30.000  
G30  21351894.216   112204711.256        -450.089          42.000  
J02  38788454.936   203834513.585         592.371          35.000  
> 2025 04 08 03 02 58.9997185  0 20                     
C02  38568850.984   200838118.841          17.826          33.000  
C07  36035054.595   187643790.906         178.802          38.000  
C09  36810370.055   191681253.386       -1031.103          33.000  
C10  37021348.997   192779719.984         296.864          29.000  
C26  23200047.585   120808532.477        2003.195          31.000  
C29  21821546.701   113630474.1411      -1221.317          18.000  
C35  22752636.721   118478761.751        1945.349          44.000  
C40  36102768.417   187996350.306         -13.917          30.000  
C45  21962168.551   114362519.088       -1220.301          41.000  
E31  23518454.457   123590291.962        -441.108          35.000  
E33  23918956.795   125694944.960        -549.504          39.000  
G01  20514917.762   107806419.881        1102.998          42.000  
G02  21185532.205   111330532.495       -1602.235          33.000  
G07  21658109.447   113813925.195       -2305.799          36.000  
G08  22097377.048   116122239.257       -2521.318          39.000  
G14  21710436.122   114089111.461        2606.856          30.000  
G17  22669039.894   119126538.4321       2173.003          16.000  
G22  23535506.951   123679710.165        2753.387          30.000  
G30  21351978.177   112205147.046        -447.598          42.000  
J02  38788339.535   203833908.649         593.606          35.000  
> 2025 04 08 03 02 59.9996575  0 20                     
C02  38568876.466   200838243.291          15.791          33.000  
C07  36035050.697   187643754.807         177.994          38.000  
C09  36810598.197   191682424.305       -1029.643          33.000  
C10  37021320.217   192779564.414         298.390          29.000  
C26  23199689.633   120806671.357        2003.826          32.000  
C29  21821810.519   113631837.8201      -1221.383          17.000  
C35  22752291.060   118476958.865        1945.177          44.000  
C40  36102802.893   187996768.552         -13.481          30.000  
C45  21962432.068   114364146.536       -1220.284          41.000  
E31  23518563.581   123590874.092        -440.039          35.000  
E33  23919089.603   125695637.352        -549.679          39.000  
G01  20514736.087   107805460.296        1102.426          42.000  
G02  21185864.975   111332277.682       -1604.522          34.000  
G07  21658576.823   113816373.522       -2305.854          35.000  
G08  22097884.896   116125168.415       -2522.271          39.000  
G14  21709969.645   114086647.384        2608.329          29.000  
G17  22668655.560   119124509.6381       2172.011          16.000  
G22  23535011.694   123677101.848        2750.851          29.000  
G30  21352091.798   112205737.091        -448.477          43.000  
J02  38788252.595   203833457.399         594.597          35.000  
> 2025 04 08 03 03 00.9995964  0 20                     
C02  38568871.913   200838210.410          16.843          33.000  
C07  36035013.767   187643560.969         179.097          38.000  
C09  36810794.205   191683438.659       -1031.650          33.000  
C10  37021259.903   192779250.093         298.619          30.000  
C26  23199301.345   120804652.282        2003.371          32.000  
C29  21822043.101   113633041.3181      -1221.677          16.000  
C35  22751916.264   118474998.449        1944.649          44.000  
C40  36102804.936   187996764.964         -14.916          29.000  
C45  21962664.951   114365350.546       -1221.438          41.000  
E31  23518644.469   123591298.106        -441.115          35.000  
E33  23919191.476   125696170.382        -549.977          40.000  
G01  20514524.078   107804342.700        1101.556          42.000  
G02  21186169.508   111333865.229       -1605.360          35.000  
G07  21659013.564   113818663.855       -2307.245          35.000  
G08  22098363.309   116127673.057       -2521.909          39.000  
G14  21709471.633   114084024.575        2606.265          30.000  
G17  22668241.490   119122322.0531       2172.131          17.000  
G22  23534485.802   123674335.046        2751.607          29.000  
G30  21352174.784   112206435.516        -449.740          42.000  
J02  38788138.318   203832847.579         594.128          35.000  
> 2025 04 08 03 03 01.9995353  0 20                     
C02  38568866.217   200838177.982          19.698          33.000  
C07  36034978.691   187643368.473         178.230          38.000  
C09  36810988.470   191684456.154       -1031.456          33.000  
C10  37021200.843   192778937.767         298.413          30.000  
C26  23198914.313   120802635.678        2002.109          31.000  
C29  21822277.239   113634248.3891      -1221.949          12.000  
C35  22751541.823   118473040.298        1944.017          43.000  
C40  36102806.435   187996767.291         -17.748          28.000  
C45  21962896.990   114366557.944       -1221.867          41.000  
E31  23518728.111   123591723.796        -441.129          35.000  
E33  23919297.902   125696704.404        -550.638          40.000  
G01  20514312.125   107803226.877        1102.179          42.000  
G02  21186475.895   111335455.271       -1604.964          34.000  
G07  21659451.261   113820954.113       -2307.371          36.000  
G08  22098842.077   116130179.938       -2522.591          39.000  
G14  21708972.778   114081403.423        2606.755          30.000  
G17  22667829.276   119120135.2821       2172.906          17.000  
G22  23533960.266   123671569.824        2751.133          29.000  
G30  21352258.127   112206870.651        -450.134          42.000  
J02  38788022.898   203832238.817         594.989          35.000  
> 2025 04 08 03 03 02.9994743  0 20                     
C02  38568890.388   200838300.543          20.183          33.000  
C07  36034971.683   187643332.741         179.492          38.000  
C09  36811215.601   191685628.957       -1030.970          32.000  
C10  37021171.052   192778782.364         298.358          30.000  
C26  23198558.047   120800776.972        2002.050          30.000  
C29  21822540.644   113635612.4961      -1221.463          15.000  
C35  22751196.350   118471238.877        1944.432          43.000  
C40  36102833.603   187996926.638         -15.514          28.000  
C45  21963160.695   114367920.540       -1221.587          41.000  
E31  23518839.821   123592308.536        -440.805          34.000  
E33  23919427.900   125697398.991        -550.539          40.000  
G01  20514130.938   107802269.887        1100.321          42.000  
G02  21186809.152   111337203.447       -1606.382          35.000  
G07  21659917.926   113823403.153       -2306.376          36.000  
G08  22099351.013   116132845.102       -2522.618          40.000  
G14  21708504.390   114078941.403        2607.309          30.000  
G17  22667451.125   119118107.0091       2172.809          18.000  
G22  23533462.498   123668963.494        2750.708          29.000  
G30  21352371.936   112207463.847        -450.552          43.000  
J02  38787937.944   203831788.903         594.292          34.000  
> 2025 04 08 03 03 04.0004131  0 20                     
C02  38568871.688   200838206.244          19.595          34.000  
C07  36034924.803   187643079.519         178.207          38.000  
C09  36811400.160   191686586.591       -1034.430          32.000  
C10  37021101.088   192778409.079         299.307          30.000  
C26  23198161.909   120798699.723        2000.442          30.000  
C29  21822760.580   113636761.1551      -1220.644          17.000  
C35  22750809.805   118469218.809        1943.929          43.000  
C40  36102824.497   187996863.888         -12.915          28.000  
C45  21963382.729   114369070.014       -1222.540          41.000  
E31  23518910.460   123592672.986        -441.182          35.000  
E33  23919520.423   125697875.356        -551.518          40.000  
G01  20513908.679   107801094.277        1099.606          42.000  
G02  21187103.436   111338735.740       -1606.301          36.000  
G07  21660344.418   113825636.486       -2307.071          36.000  
G08  22099819.176   116135294.683       -2522.563          40.000  
G14  21707995.530   114076257.808        2607.692          30.000  
G17  22667025.907   119115857.5881       2172.685          19.000  
G22  23532921.260   123666134.930        2751.091          29.000  
G30  21352445.272   112207840.504        -451.152          43.000  
J02  38787810.420   203831119.454         594.319          35.000  
> 2025 04 08 03 03 05.0003521  0 20                     
C02  38568897.508   200838329.813          13.899          33.000  
C07  36034920.943   187643044.578         175.694          38.000  
C09  36811627.740   191687761.676       -1035.558          32.000  
C10  37021070.846   192778252.146         295.939          29.000  
C26  23197812.089   120796841.471        1997.734          29.000  
C29  21823024.435   113638121.8421      -1220.895          17.000  
C35  22750465.081   118467417.931        1942.062          44.000  
C40  36102854.514   187997020.408         -17.692          30.000  
C45  21963646.584   114370433.031       -1225.078          41.000  
E31  23519025.617   123593258.580        -443.427          35.000  
E33  23919653.868   125698570.298        -553.780          40.000  
G01  20513728.541   107800138.074        1097.712          42.000  
G02  21187438.042   111340484.617       -1609.181          36.000  
G07  21660811.532   113828087.546       -2310.404          35.000  
G08  22100327.062   116137959.427       -2524.687          40.000  
G14  21707527.591   114073794.283        2604.142          31.000  
G17  22666641.611   119113828.1711       2171.113          18.000  
G22  23532425.741   123663528.288        2748.152          30.000  
G30  21352559.231   112208434.512        -453.970          42.000  
J02  38787727.715   203830668.552         592.796          34.000  
> 2025 04 08 03 03 06.0002910  0 20                     
C02  38568892.599   200838303.612          15.663          33.000  
C07  36034884.856   187642853.449         180.624          38.000  
C09  36811820.095   191688780.062       -1030.941          32.000  
C10  37021012.574   192777943.631         296.401          29.000  
C26  23197424.944   120794829.653        2000.230          28.000  
C29  21823256.661   113639327.2161      -1220.061          16.000  
C35  22750090.827   118465462.195        1943.489          43.000  
C40  36102858.599   187997023.386         -14.607          29.000  
C45  21963879.710   114371644.775       -1223.559          41.000  
E31  23519109.747   123593687.706        -441.906          35.000  
E33  23919757.184   125699109.426        -552.345          40.000  
G01  20513518.574   107799027.048        1098.732          42.000  
G02  21187744.018   111342345.458       -1606.993          36.000  
G07  21661249.117   113830383.927       -2308.436          36.000  
G08  22100806.018   116140469.639       -2523.157          40.000  
G14  21707029.524   114071176.938        2604.683          32.000  
G17  22666226.885   119111644.291        2171.168          20.000  
G22  23531899.792   123660765.963        2752.167          30.000  
G30  21352643.960   112208872.748        -452.616          43.000  
J02  38787613.082   203830062.346         594.841          35.000  
> 2025 04 08 03 03 07.0002299  0 20                     
C02  38568888.196   200838274.407          20.248          34.000  
C07  36034849.274   187642662.279         177.897          38.000  
C09  36812019.550   191689797.944       -1031.732          32.000  
C10  37020951.210   192777634.532         297.691          29.000  
C26  23197041.004   120793079.337        2001.688          26.000  
C29  21823483.398   113640534.0261      -1220.072          17.000  
C35  22749716.480   118463507.465        1941.627          43.000  
C40  36102858.392   187997022.852         -14.676          30.000  
C45  21964113.342   114372853.925       -1224.474          41.000  
E31  23519189.585   123594114.893        -442.072          35.000  
E33  23919860.706   125699649.530        -553.146          39.000  
G01  20513308.813   107797916.392        1097.964          43.000  
G02  21188048.700   111343939.374       -1607.205          36.000  
G07  21661686.907   113832678.632       -2308.950          36.000  
G08  22101284.580   116142978.086       -2523.575          40.000  
G14  21706533.461   114068558.896        2606.444          30.000  
G17  22665809.668   119109461.595        2170.764          20.000  
G22  23531375.249   123658002.425        2750.496          29.000  
G30  21352728.895   112209312.929        -453.014          42.000  
J02  38787499.254   203829454.722         595.565          35.000  
> 2025 04 08 03 03 08.0001689  0 20                     
C02  38568912.947   200838395.902          20.645          34.000  
C07  36034843.447   187642885.792         178.882          38.000  
C09  36812246.662   191690971.609       -1034.184          32.000  
C10  37020924.997   192777478.423         297.433          27.000  
C26  23196676.625   120791219.671        2001.318          25.000  
C29  21823744.686   113641894.6421      -1219.582          16.000  
C35  22749371.588   118461706.371        1942.944          43.000  
C40  36102891.838   187997178.082         -15.480          30.000  
C45  21964376.129   114374218.448       -1224.118          41.000  
E31  23519303.975   123594699.134        -441.416          35.000  
E33  23919995.482   125700344.111        -552.810          40.000  
G01  20513128.806   107796961.017        1097.344          43.000  
G02  21188383.138   111345688.554       -1607.344          36.000  
G07  21662153.553   113835129.246       -2310.397          36.000  
G08  22101793.497   116145642.554       -2523.569          39.000  
G14  21706064.754   114066095.132        2607.344          30.000  
G17  22665421.006   119107433.384        2171.422          20.000  
G22  23530881.959   123655395.147        2750.917          29.000  
G30  21352843.884   112209909.287        -454.054          43.000  
J02  38787414.582   203829002.241         594.610          36.000  
> 2025 04 08 03 03 09.0001078  0 20                     
C02  38568906.595   200838359.998          21.163          34.000  
C07  36034808.015   187642692.361         178.893          38.000  
C09  36812442.370   191691989.045       -1031.995          32.000  
C10  37020865.282   192777165.856         299.259          27.000  
C26  23196284.440   120789204.602        1996.206          25.000  
C29  21823982.965   113643099.2201      -1243.033          16.000  
C35  22748997.091   118459749.183        1942.479          43.000  
C40  36102890.882   187997177.665         -14.744          29.000  
C45  21964610.510   114375428.450       -1225.023          41.000  
E31  23519385.162   123595125.470        -442.226          35.000  
E33  23920100.653   125700881.399        -553.359          40.000  
G01  20512918.895   107796115.802        1097.339          43.000  
G02  21188688.870   111347280.618       -1608.020          36.000  
G07  21662591.494   113837686.516       -2309.623          36.000  
G08  22102270.111   116148150.633       -2522.466          39.000  
G14  21705567.642   114063473.776        2606.448          30.000  
G17  22665004.538   119105247.507        2171.763          21.000  
G22  23530357.566   123652629.254        2751.422          29.000  
G30  21352929.268   112210347.592        -453.963          43.000  
J02  38787301.204   203828393.302         594.351          36.000  
> 2025 04 08 03 03 10.0000467  0 19                     
C02  38568901.405   200838326.692          19.968          34.000  
C07  36034770.148   187642499.835         177.108          38.000  
C09  36812642.538   191693007.067       -1033.310          32.000  
C10  37020803.131   192776851.568         300.631          27.000  
C26  23195891.618   120787194.048        1996.720          23.000  
C35  22748622.257   118457793.589        1940.796          43.000  
C40  36102893.487   187997179.573         -15.752          31.000  
C45  21964844.854   114376638.778       -1226.504          41.000  
E31  23519464.813   123595552.637        -442.762          34.000  
E33  23920203.388   125701420.791        -554.346          39.000  
G01  20512709.547   107795005.148        1095.387          42.000  
G02  21188994.564   111348874.132       -1608.504          35.000  
G07  21663030.296   113839982.169       -2312.078          35.000  
G08  22102748.486   116150657.593       -2523.479          39.000  
G14  21705070.792   114060854.652        2604.270          30.000  
G17  22664587.433   119103061.888        2170.932          22.000  
G22  23529831.637   123649864.627        2748.976          30.000  
G30  21353014.915   112210786.664        -455.718          42.000  
J02  38787187.489   203827784.462         594.566          35.000  
> 2025 04 08 03 03 10.9999857  0 19                     
C02  38568926.719   200838446.748          23.293          34.000  
C07  36034765.182   187642461.991         179.252          37.000  
C09  36812868.113   191694179.695       -1034.385          32.000  
C10  37020777.181   192776693.531         298.929          28.000  
C26  23195533.797   120785338.066        1998.435          23.000  
C35  22748275.528   118455993.290        1942.199          42.000  
C40  36102923.298   187997333.563         -13.475          30.000  
C45  21965107.304   114378005.285       -1225.581          41.000  
E31  23519576.767   123596137.608        -442.442          34.000  
E33  23920338.426   125702115.863        -554.379          39.000  
G01  20512529.203   107794051.686        1096.083          42.000  
G02  21189328.065   111350624.747       -1609.320          35.000  
G07  21663498.403   113842435.006       -2310.303          35.000  
G08  22103256.165   116153322.181       -2523.291          38.000  
G14  21704602.947   114058392.530        2605.299          29.000  
G17  22664202.031   119101033.459        2171.155          23.000  
G22  23529339.508   123647257.788        2750.572          30.000  
G30  21353130.167   112211382.791        -455.036          41.000  
J02  38787103.978   203827606.731         594.368          34.000  
> 2025 04 08 03 03 11.9999246  0 19                     
C02  38568920.405   200838412.449          19.839          33.000  
C07  36034728.889   187642271.304         177.861          38.000  
C09  36813060.261   191695200.145       -1033.605          32.000  
C10  37020723.199   192776382.554         298.832          29.000  
C26  23195153.042   120783327.050        1998.774          23.000  
C35  22747901.668   118454039.845        1940.032          42.000  
C40  36102923.579   187997333.757         -14.929          29.000  
C45  21965341.123   114379217.384       -1226.726          41.000  
E31  23519660.990   123596566.296        -443.684          34.000  
E33  23920440.636   125702658.802        -555.499          39.000  
G01  20512319.629   107792944.351        1094.385          42.000  
G02  21189633.235   111352220.903       -1611.542          35.000  
G07  21663938.480   113844732.015       -2312.386          36.000  
G08  22103734.316   116155832.296       -2525.354          38.000  
G14  21704104.973   114055774.269        2604.702          29.000  
G17  22663784.101   119098850.490        2170.031          23.000  
G22  23528815.153   123644757.646        2750.049          30.000  
G30  21353215.889   112211826.568        -457.290          41.000  
J02  38786989.738   203826999.527         594.665          35.000  
> 2025 04 08 03 03 12.9998635  0 19                     
C02  38568915.702   200838380.370          18.526          34.000  
C07  36034693.007   187642081.066         179.008          38.000  
C09  36813259.417   191696222.667       -1034.880          32.000  
C10  37020659.437   192776072.846         298.299          29.000  
C26  23194762.207   120781316.746        1998.079          21.000  
C35  22747527.321   118452087.697        1940.770          42.000  
C40  36102922.173   187997336.708         -16.943          28.000  
C45  21965574.455   114380431.295       -1227.148          41.000  
E31  23519746.824   123596998.462        -444.412          35.000  
E33  23920543.559   125703201.636        -555.720          39.000  
G01  20512109.868   107791837.991        1094.288          42.000  
G02  21189939.117   111353818.411       -1611.477          35.000  
G07  21664376.570   113847031.143       -2311.877          36.000  
G08  22104213.777   116158343.164       -2523.548          38.000  
G14  21703608.311   114053157.345        2604.775          30.000  
G17  22663367.184   119096669.060        2169.160          22.000  
G22  23528288.811   123641995.868        2749.797          30.000  
G30  21353301.123   112212270.464        -457.120          41.000  
J02  38786875.611   203826392.781         593.991          35.000  
> 2025 04 08 03 03 13.9998024  0 19                     
C02  38568910.380   200838345.471          18.869          34.000  
C07  36034655.308   187641886.830         178.749          38.000  
C09  36813458.254   191697240.316       -1032.967          32.000  
C10  37020598.654   192775759.411         298.895          29.000  
C26  23194378.247   120779304.074        1997.978          24.000  
C35  22747152.355   118450131.466        1940.440          42.000  
C40  36102924.946   187997336.635         -15.844          28.000  
C45  21965808.369   114381642.090       -1227.622          40.000  
E31  23519830.242   123597426.192        -443.867          35.000  
E33  23920648.861   125703739.617        -555.869          38.000  
G01  20511900.088   107790728.910        1093.104          42.000  
G02  21190245.579   111355414.731       -1611.163          34.000  
G07  21664815.841   113849326.956       -2311.712          35.000  
G08  22104691.122   116160851.216       -2524.545          38.000  
G14  21703109.531   114050537.221        2603.732          30.000  
G17  22662950.547   119094485.0271       2168.644          19.000  
G22  23527763.649   123639230.904        2751.140          29.000  
G30  21353386.939   112212710.660        -458.296          41.000  
J02  38786761.165   203825783.255         595.125          35.000  
> 2025 04 08 03 03 14.9997414  0 19                     
C02  38568935.338   200838467.616          17.691          33.000  
C07  36034649.687   187641849.810         178.028          37.000  
C09  36813685.272   191698413.719       -1035.008          33.000  
C10  37020568.750   192775601.863         298.342          29.000  
C26  23194019.171   120777447.221        1997.498          24.000  
C35  22746807.069   118448592.821        1939.316          42.000  
C40  36102954.701   187997493.870         -16.166          28.000  
C45  21966072.261   114383009.726       -1228.600          40.000  
E31  23519942.139   123598012.621        -444.498          35.000  
E33  23920782.943   125704439.538        -557.210          38.000  
G01  20511720.288   107789778.916        1092.413          42.000  
G02  21190580.822   111357166.230       -1611.799          32.000  
G07  21665285.391   113851779.655       -2313.431          35.000  
G08  22105199.945   116163515.874       -2524.990          37.000  
G14  21702643.429   114048075.880        2603.664          31.000  
G17  22662569.286   119092459.1391       2168.262          17.000  
G22  23527272.065   123636622.507        2749.907          31.000  
G30  21353503.034   112213310.697        -459.430          41.000  
J02  38786675.500   203825330.901         595.130          34.000  
> 2025 04 08 03 03 15.9996803  0 20                     
C02  38568931.235   200838437.804          20.433          33.000  
C07  36034614.705   187641660.520         176.012          37.000  
C09  36813882.629   191699436.199       -1034.819          33.000  
C10  37020512.782   192775292.427         297.102          30.000  
C26  23193638.828   120775439.060        1995.830          22.000  
C29  21825679.247   113652038.7071      -1226.406          18.000  
C35  22746433.322   118446641.709        1939.133          42.000  
C40  36102952.696   187997496.655         -15.781          27.000  
C45  21966305.893   114384225.807       -1229.716          40.000  
E31  23520023.477   123598442.914        -444.795          35.000  
E33  23920890.362   125704982.650        -557.443          38.000  
G01  20511511.726   107788675.382        1090.339          42.000  
G02  21190886.704   111358766.636       -1612.340          31.000  
G07  21665725.580   113854080.543       -2314.387          35.000  
G08  22105679.407   116166029.238       -2525.797          37.000  
G14  21702147.366   114045461.177        2602.631          31.000  
G17  22662158.064   119090279.1221       2168.169          19.000  
G22  23526749.320   123633861.577        2749.311          31.000  
G30  21353590.067   112213758.235        -460.396          41.000  
J02  38786562.871   203824724.320         593.368          34.000  
> 2025 04 08 03 03 16.9996192  0 20                     
C02  38568925.257   200838400.228          25.388          33.000  
C07  36034578.749   187641467.588         178.469          38.000  
C09  36814078.113   191700454.664       -1036.153          33.000  
C10  37020457.639   192774979.589         297.513          30.000  
C26  23193251.515   120773428.163        1995.721          20.000  
C29  21825908.007   113653250.9601      -1226.286          18.000  
C35  22746058.900   118444687.556        1938.582          42.000  
C40  36102955.413   187997495.307         -14.830          27.000  
C45  21966540.949   114385439.768       -1229.343          40.000  
E31  23520107.737   123598870.953        -445.083          35.000  
E33  23920991.711   125705525.872        -558.033          38.000  
G01  20511302.190   107787568.351        1091.504          42.000  
G02  21191189.813   111360361.807       -1612.493          32.000  
G07  21666165.095   113856377.651       -2314.002          35.000  
G08  22106157.594   116168535.895       -2525.442          37.000  
G14  21701649.429   114042842.431        2603.094          31.000  
G17  22661744.370   119088095.4771       2168.333          20.000  
G22  23526225.002   123631095.922        2750.085          31.000  
G30  21353676.126   112214201.503        -459.661          41.000  
J02  38786448.069   203824115.162         594.482          35.000  
> 2025 04 08 03 03 17.9995582  0 20                     
C02  38568948.810   200838518.399          22.255          33.000  
C07  36034573.222   187641430.135         178.295          38.000  
C09  36814304.025   191701628.716       -1033.262          32.000  
C10  37020425.130   192774823.495         297.639          30.000  
C26  23192899.128   120771574.1731       1995.411          18.000  
C29  21826176.790   113654618.0661      -1226.172          17.000  
C35  22745714.307   118442890.495        1938.835          42.000  
C40  36102986.460   187997650.667         -15.143          27.000  
C45  21966804.335   114386810.345       -1229.394          40.000  
E31  23520216.730   123599457.575        -445.119          35.000  
E33  23921124.388   125706225.104        -558.498          38.000  
G01  20511122.783   107786619.864        1091.056          42.000  
G02  21191524.251   111362116.094       -1614.362          32.000  
G07  21666635.038   113858834.910       -2314.459          36.000  
G08  22106666.811   116171203.944       -2525.648          38.000  
G14  21701182.521   114040382.932        2602.244          31.000  
G17  22661359.005   119086069.648        2169.120          21.000  
G22  23525730.213   123628489.375        2748.631          32.000  
G30  21353792.015   112214804.532        -461.023          41.000  
J02  38786363.996   203823663.287         594.631          35.000  
> 2025 04 08 03 03 18.9994971  0 20                     
C02  38568943.489   200838485.085          22.184          33.000  
C07  36034538.221   187641240.629         178.282          38.000  
C09  36814502.863   191702649.476       -1034.911          32.000  
C10  37020368.844   192774774.467         298.188          30.000  
C26  23192510.671   120769567.4421       1994.540          18.000  
C29  21826411.302   113655831.9611      -1225.536          16.000  
C35  22745341.140   118440940.613        1938.026          42.000  
C40  36102983.537   187997652.778         -15.937          26.000  
C45  21967039.747   114388026.489       -1230.784          40.000  
E31  23520298.649   123599890.987        -445.130          35.000  
E33  23921229.390   125706770.377        -559.139          38.000  
G01  20510914.202   107785518.351        1089.480          42.000  
G02  21191830.114   111363718.145       -1614.389          32.000  
G07  21667074.909   113861135.963       -2315.812          36.000  
G08  22107146.254   116173715.485       -2525.208          38.000  
G14  21700687.039   114037768.622        2602.654          31.000  
G17  22660944.467   119083889.074        2168.175          20.000  
G22  23525207.750   123625728.343        2749.965          32.000  
G30  21353877.830   112215251.505        -461.404          41.000  
J02  38786249.251   203823057.292         593.806          35.000  
> 2025 04 08 03 03 20.0004360  0 20                     
C02  38568956.867   200838544.581          18.949          33.000  
C07  36034521.320   187641142.760         179.553          38.000  
C09  36814716.202   191703766.272       -1034.419          33.000  
C10  37020325.562   192774557.048         298.996          31.000  
C26  23192148.410   120767651.970        1994.506          20.000  
C29  21826658.219   113657139.5851      -1225.615          17.000  
C35  22744984.575   118439081.477        1938.942          41.000  
C40  36102999.613   187997749.449         -15.899          29.000  
C45  21967291.461   114389339.501       -1230.077          40.000  
E31  23520401.665   123600416.963        -445.710          35.000  
E33  23921351.893   125707412.483        -559.499          38.000  
G01  20510723.422   107784509.523        1090.335          42.000  
G02  21192151.379   111365415.946       -1614.791          32.000  
G07  21667533.179   113863536.121       -2315.384          36.000  
G08  22107644.996   116176324.140       -2524.146          38.000  
G14  21700208.158   114035245.141        2603.342          30.000  
G17  22660548.629   119081800.5391       2167.761          20.000  
G22  23524700.389   123623057.279        2750.862          31.000  
G30  21353982.346   112215795.121        -461.036          41.000  
J02  38786152.605   203822544.235         595.363          35.000  
> 2025 04 08 03 03 21.0003749  0 20                     
C06  37368352.097   194586815.3211      -1506.092          29.000  
C07  36034484.914   187640949.088         177.725          38.000  
C09  36814916.632   191704785.861       -1036.263          33.000  
C10  37020263.973   192774242.793         298.420          31.000  
C26  23191781.333   120765643.333        1993.627          22.000  
C29  21826891.027   113658350.294       -1227.447          21.000  
C35  22744609.703   118437128.307        1937.271          41.000  
C40  36103005.778   187997746.994         -13.755          30.000  
C45  21967525.767   114390555.104       -1232.258          40.000  
E31  23520484.876   123600847.445        -445.767          36.000  
E33  23921454.291   125707954.995        -559.712          38.000  
G01  20510514.335   107783405.160        1087.635          43.000  
G02  21192455.837   111367013.682       -1615.220          32.000  
G07  21667973.143   113865834.547       -2316.626          38.000  
G08  22108123.933   116178833.738       -2525.507          39.000  
G14  21699711.571   114032627.042        2602.606          29.000  
G17  22660129.388   119079618.352        2167.532          24.000  
G22  23524174.122   123620292.059        2749.581          29.000  
G30  21354068.255   112216241.257        -464.442          41.000  
J02  38786036.754   203821933.473         594.892          35.000  
> 2025 04 08 03 03 22.0003138  0 20                     
C06  37368644.076   194588310.322       -1508.192          28.000  
C07  36034449.220   187640760.463         177.647          37.000  
C09  36815116.275   191705810.197       -1035.286          34.000  
C10  37020206.694   192773933.991         297.353          31.000  
C26  23191403.276   120763638.897        1993.429          23.000  
C29  21827122.448   113659567.380       -1228.453          24.000  
C35  22744235.543   118435180.529        1936.978          41.000  
C40  36103010.256   187997750.253         -16.760          33.000  
C45  21967763.184   114391773.425       -1232.011          40.000  
E31  23520570.598   123601282.471        -446.394          36.000  
E33  23921561.897   125708504.587        -560.067          38.000  
G01  20510306.260   107782306.802        1087.605          42.000  
G02  21192758.609   111368617.520       -1615.961          32.000  
G07  21668414.119   113868141.126       -2317.604          38.000  
G08  22108601.484   116181345.933       -2525.705          38.000  
G14  21699213.597   114030013.971        2602.492          32.000  
G17  22659713.857   119077440.053        2167.332          25.000  
G22  23523649.466   123617531.809        2749.391          30.000  
G30  21354154.576   112216693.072        -463.718          40.000  
J02  38785924.313   203821328.223         592.981          36.000  
> 2025 04 08 03 03 23.0002528  0 20                     
C06  37368963.318   194589958.853       -1507.742          27.000  
C07  36034443.786   187640724.309         179.772          38.000  
C09  36815341.082   191706985.911       -1034.293          34.000  
C10  37020176.078   192773778.418         297.117          30.000  
C26  23191052.181   120761787.395        1993.616          21.000  
C29  21827383.529   113660938.977       -1227.935          28.000  
C35  22743893.443   118433385.324        1938.597          41.000  
C40  36103041.997   187997907.551         -14.236          33.000  
C45  21968028.163   114393146.127       -1231.492          40.000  
E31  23520683.882   123601870.296        -445.765          37.000  
E33  23921694.068   125709205.969        -560.629          38.000  
G01  20510127.547   107781362.199        1088.077          42.000  
G02  21193094.339   111370375.985       -1614.751          33.000  
G07  21668884.456   113870598.644       -2316.386          38.000  
G08  22109111.693   116184014.718       -2524.407          39.000  
G14  21698743.485   114027554.725        2603.071          33.000  
G17  22659328.286   119075417.089        2165.549          26.000  
G22  23523154.172   123614925.626        2750.269          32.000  
G30  21354271.458   112217297.939        -462.709          39.000  
J02  38785839.734   203820877.676         595.500          36.000  
> 2025 04 08 03 03 24.0001917  0 20                     
C06  37369252.374   194591451.133       -1507.111          28.000  
C07  36034406.968   187640530.586         178.703          37.000  
C09  36815538.702   191708004.473       -1035.692          34.000  
C10  37020120.673   192773466.293         297.222          29.000  
C26  23190667.604   120759779.056        1992.741          24.000  
C29  21827621.921   113662150.894       -1228.459          31.000  
C35  22743520.857   118431433.158        1937.212          42.000  
C40  36103048.049   187997904.771         -14.102          34.000  
C45  21968265.655   114394363.475       -1232.855          40.000  
E31  23520763.083   123602299.446        -447.139          36.000  
E33  23921806.846   125709752.185        -561.313          39.000  
G01  20509918.648   107780259.716        1086.111          42.000  
G02  21193400.483   111371975.793       -1616.647          34.000  
G07  21669324.308   113872898.931       -2317.714          39.000  
G08  22109591.417   116186522.869       -2526.206          41.000  
G14  21698244.986   114024937.670        2601.259          33.000  
G17  22658913.130   119073236.387        2165.939          30.000  
G22  23522628.992   123612160.123        2751.415          33.000  
G30  21354358.154   112217745.783        -464.057          41.000  
J02  38785722.572   203820266.902         595.102          34.000  
> 2025 04 08 03 03 25.0001306  0 20                     
C06  37369539.519   194592942.612       -1506.663          31.000  
C07  36034371.536   187640336.972         179.395          35.000  
C09  36815738.307   191709024.502       -1036.014          34.000  
C10  37020066.953   192773154.323         297.670          30.000  
C26  23190285.912   120757772.550        1991.455          28.000  
C29  21827860.799   113663367.211       -1229.147          32.000  
C35  22743151.756   118429481.794        1937.589          42.000  
C40  36103058.185   187997904.275         -15.432          33.000  
C45  21968502.435   114395582.113       -1234.822          39.000  
E31  23520854.764   123602733.715        -448.137          34.000  
E33  23921912.317   125710299.221        -563.306          39.000  
G01  20509710.835   107779160.665        1084.628          40.000  
G02  21193709.513   111373578.274       -1618.128          35.000  
G07  21669763.148   113875203.026       -2318.425          39.000  
G08  22110071.329   116189034.326       -2527.786          40.000  
G14  21697746.075   114022321.180        2603.414          32.000  
G17  22658492.465   119071055.952        2167.849          33.000  
G22  23522102.500   123609394.812        2752.633          29.000  
G30  21354445.038   112218194.510        -463.315          43.000  
J02  38785606.496   203819658.882         592.802          35.000  
> 2025 04 08 03 03 26.0000696  0 20                     
C06  37369856.568   194594591.544       -1507.967          33.000  
C07  36034365.709   187640300.373         180.521          36.000  
C09  36815962.721   191710202.712       -1036.319          35.000  
C10  37020038.342   192772999.275         299.886          29.000  
C26  23189934.124   120755925.049        1989.856          29.000  
C29  21828122.686   113664738.797       -1229.678          32.000  
C35  22742806.564   118427687.575        1936.495          44.000  
C40  36103094.329   187998061.772         -14.077          34.000  
C45  21968768.819   114396959.110       -1235.870          40.000  
E31  23520964.356   123603326.042        -448.791          36.000  
E33  23922050.091   125711005.354        -563.173          39.000  
G01  20509532.927   107778220.947        1083.374          39.000  
G02  21194046.948   111375339.183       -1619.399          34.000  
G07  21670232.791   113877665.141       -2320.527          39.000  
G08  22110578.147   116191704.410       -2527.317          39.000  
G14  21697275.870   114019861.128        2603.079          33.000  
G17  22658107.700   119069032.213        2166.378          29.000  
G22  23521607.111   123606788.589        2749.812          30.000  
G30  21354561.526   112218801.720        -464.638          42.000  
J02  38785522.423   203819210.756         592.886          33.000  
> 2025 04 08 03 03 27.0000085  0 20                     
C06  37370145.661   194596082.958       -1509.146          32.000  
C07  36034328.029   187640104.154         179.337          35.000  
C09  36816161.577   191711224.263       -1037.239          38.000  
C10  37019976.379   192772683.915         300.871          28.000  
C26  23189550.783   120753920.413        1989.523          30.000  
C29  21828358.417   113665954.132       -1229.175          31.000  
C35  22742433.116   118425735.444        1936.082          45.000  
C40  36103090.825   187998058.319         -12.749          31.000  
C45  21969004.550   114398177.902       -1236.245          41.000  
E31  23521049.291   123603757.370        -448.467          37.000  
E33  23922156.311   125711553.428        -563.584          39.000  
G01  20509324.965   107777122.454        1081.873          42.000  
G02  21194354.029   111376943.379       -1619.199          32.000  
G07  21670672.381   113879968.802       -2320.742          39.000  
G08  22111057.309   116194215.297       -2527.056          39.000  
G14  21696780.406   114017245.536        2598.727          31.000  
G17  22657690.182   119066849.212        2169.509          31.000  
G22  23521083.468   123604024.775        2747.825          28.000  
G30  21354648.260   112219249.086        -464.811          42.000  
J02  38785407.696   203818602.063         592.487          36.000  
> 2025 04 08 03 03 27.9999474  0 20                     
C06  37370434.062   194597578.341       -1511.326          31.000  
C07  36034292.054   187639911.810         178.154          35.000  
C09  36816359.440   191712246.349       -1039.808          41.000  
C10  37019920.317   192772369.157         299.068          29.000  
C26  23189169.147   120751918.025        1988.960          29.000  
C29  21828591.955   113667168.596       -1229.400          32.000  
C35  22742060.174   118423787.567        1932.894          44.000  
C40  36103092.924   187998055.846         -12.673          29.000  
C45  21969240.786   114399401.076       -1238.389          42.000  
E31  23521134.432   123604193.687        -449.982          37.000  
E33  23922261.538   125712101.767        -563.956          35.000  
G01  20509117.808   107776027.371        1080.461          43.000  
G02  21194662.515   111378546.571       -1619.883          34.000  
G07  21671112.476   113882276.615       -2325.482          38.000  
G08  22111536.976   116196728.605       -2526.622          40.000  
G14  21696283.650   114014632.964        2597.734          29.000  
G17  22657274.071   119064668.175        2163.190          31.000  
G22  23520561.529   123601265.509        2742.861          29.000  
G30  21354735.799   112219701.401        -467.565          43.000  
J02  38785293.475   203817996.677         591.132          39.000  
> 2025 04 08 03 03 28.9998863  0 20                     
C06  37370723.905   194599076.288       -1513.514          32.000  
C07  36034255.423   187639718.124         180.677          32.000  
C09  36816555.448   191713273.774       -1041.473          38.000  
C10  37019859.403   192772056.270         297.740          28.000  
C26  23188786.556   120749915.458        1988.099          29.000  
C29  21828824.838   113668383.237       -1228.038          34.000  
C35  22741687.776   118421841.410        1931.173          42.000  
C40  36103094.367   187998053.019         -12.966          34.000  
C45  21969477.266   114400623.421       -1238.440          43.000  
E31  23521218.618   123604626.887        -448.812          36.000  
E33  23922370.306   125712652.141        -564.562          31.000  
G01  20508910.595   107774932.672        1080.760          43.000  
G02  21194971.245   111380150.165       -1617.472          32.000  
G07  21671552.815   113884588.553       -2327.092          40.000  
G08  22112015.989   116199236.865       -2522.256          36.000  
G14  21695788.037   114012021.339        2596.344          27.000  
G17  22656861.200   119062492.082        2160.449          28.000  
G22  23520040.134   123598509.647        2741.387          29.000  
G30  21354823.282   112220154.941        -469.936          42.000  
J02  38785179.797   203817389.249         594.673          38.000  
> 2025 04 08 03 03 29.9998253  0 19                     
C06  37371044.252   194600731.715       -1514.250          33.000  
C07  36034249.296   187639679.448         179.890          30.000  
C09  36816784.658   191714458.572       -1044.602          38.000  
C10  37019830.192   192771902.736         295.699          34.000  
C26  23188432.370   120748069.724        1989.875          31.000  
C29  21829087.325   113669753.013       -1226.646          32.000  
C35  22741345.881   118420055.519        1927.152          42.000  
C40  36103125.414   187998209.742         -13.610          36.000  
C45  21969743.650   114402005.626       -1239.948          44.000  
E31  23521333.607   123605215.622        -447.354          30.000  
E33  23922502.983   125713355.508        -560.381          33.000  
G01  20508734.186   107773996.077        1082.399          41.000  
G02  21195306.282   111381909.878       -1614.415          35.000  
G07  21672025.157   113887059.764       -2328.835          37.000  
G08  22112524.905   116201899.613       -2518.378          32.000  
G17  22656478.234   119060475.432        2162.128          29.000  
G22  23519546.244   123595911.688        2744.084          27.000  
G30  21354941.569   112220771.444        -474.614          43.000  
J02  38785096.624   203816938.610         596.026          35.000  
> 2025 04 08 03 03 30.9997642  0 20                     
C06  37371333.964   194602229.881       -1516.188          31.000  
C07  36034213.133   187639487.115         175.206          33.000  
C09  36816983.233   191715487.467       -1046.232          34.000  
C10  37019771.246   192771592.557         294.493          37.000  
C26  23188040.653   120746065.150        1988.082          33.000  
C29  21829321.575   113670964.049       -1226.624          37.000  
C35  22740974.851   118418115.169        1924.486          39.000  
C40  36103126.725   187998206.442         -12.823          34.000  
C45  21969979.400   114403228.535       -1239.843          42.000  
E31  23521418.561   123605646.446        -447.503          29.000  
E33  23922608.323   125713897.508        -558.262          33.000  
G01  20508526.543   107772898.154        1082.509          37.000  
G02  21195612.183   111383506.021       -1613.547          33.000  
G07  21672466.863   113889372.248       -2330.011          36.000  
G08  22113002.887   116204402.273       -2517.353          31.000  
G14  21694817.291   114006951.9821       2599.792          35.000  
G17  22656066.731   119058299.954        2158.681          27.000  
G22  23519022.320   123593149.563        2748.816          26.000  
G30  21355031.020   112221230.898        -477.762          43.000  
J02  38784981.016   203816326.777         597.528          36.000  
> 2025 04 08 03 03 31.9997031  0 20                     
C06  37371621.727   194603732.695       -1515.343          28.000  
C07  36034178.020   187639299.189         175.143          36.000  
C09  36817186.155   191716519.982       -1044.719          34.000  
C10  37019713.348   192771285.803         295.029          36.000  
C26  23187652.685   120744064.546        1987.238          34.000  
C29  21829555.676   113672177.161       -1226.037          37.000  
C35  22740603.670   118416177.582        1925.597          39.000  
C40  36103126.988   187998206.746         -14.037          32.000  
C45  21970216.198   114404455.014       -1239.782          39.000  
E31  23521502.765   123606079.831        -447.409          26.000  
E33  23922713.213   125714706.714        -558.493          28.000  
G01  20508320.248   107771803.456        1081.572          33.000  
G02  21195919.733   111385108.562       -1618.312          29.000  
G07  21672909.020   113891690.321       -2330.577          36.000  
G08  22113482.217   116206905.386       -2516.684          32.000  
G14  21694321.396   114004340.423        2597.463          35.000  
G17  22655657.477   119056128.567        2159.092          25.000  
G22  23518496.746   123590387.542        2748.101          27.000  
G30  21355120.320   112221695.023        -477.962          40.000  
J02  38784866.158   203815717.142         597.324          38.000  
> 2025 04 08 03 03 32.9996421  0 19                     
C06  37371946.590   194605390.031       -1514.551          26.000  
C07  36034172.511   187639265.734         178.068          38.000  
C09  36817415.683   191717704.459       -1042.863          31.000  
C10  37019682.957   192771133.250         295.370          36.000  
C26  23187291.922   120742220.222        1988.025          38.000  
C29  21829821.479   113673548.550       -1226.271          37.000  
C35  22740263.293   118414395.159        1925.776          40.000  
C40  36103158.054   187998362.420         -14.453          29.000  
C45  21970482.302   114405835.441       -1239.532          39.000  
E31  23521618.073   123606937.469        -446.653          26.000  
E33  23922847.707   125715409.197        -559.918          25.000  
G01  20508144.157   107770866.938        1081.249          33.000  
G02  21196256.587   111386868.686       -1617.377          28.000  
G07  21673381.380   113894162.825       -2326.472          31.000  
G08  22113989.354   116209564.590       -2515.449          34.000  
G14  21693852.708   114001886.796        2599.906          35.000  
G17  22655275.129   119054113.744        2159.605          27.000  
G30  21355238.926   112222316.645        -477.249          35.000  
J02  38784781.205   203815263.653         599.174          38.000  
> 2025 04 08 03 03 33.9995810  0 20                     
C06  37372239.806   194606887.642       -1512.647          24.000  
C07  36034136.255   187639074.299         177.344          39.000  
C09  36817615.064   191718734.892       -1046.281          31.000  
C10  37019626.615   192770825.014         293.188          36.000  
C26  23186912.703   120740217.951        1988.324          39.000  
C29  21830053.237   113674758.887       -1225.724          35.000  
C35  22739892.469   118412457.487        1922.270          40.000  
C40  36103160.171   187998628.436         -12.955          28.000  
C45  21970718.557   114407061.959       -1241.899          38.000  
E31  23521704.432   123607367.864        -446.510          24.000  
E33  23922948.756   125715952.909        -558.617          26.000  
G01  20507936.120   107769771.859        1079.956          34.000  
G02  21196563.893   111388471.187       -1614.610          26.000  
G07  21673823.293   113896471.385       -2323.159          28.000  
G08  22114465.743   116212064.345       -2514.197          33.000  
G14  21693358.069   113999273.216        2598.382          37.000  
G17  22654862.034   119051940.331        2159.018          25.000  
G22  23517479.157   123585022.2671       2748.423          30.000  
G30  21355329.182   112222778.928        -479.831          34.000  
J02  38784665.803   203814650.957         598.595          39.000  
> 2025 04 08 03 03 34.9995199  0 20                     
C06  37372530.979   194608385.116       -1510.442          20.000  
C07  36034101.554   187638882.311         178.023          37.000  
C09  36817813.002   191719767.774       -1049.595          34.000  
C10  37019568.830   192770517.061         294.687          37.000  
C26  23186524.247   120738215.755        1989.321          37.000  
C29  21830287.450   113675970.577       -1223.060          33.000  
C35  22739521.700   118410521.757        1921.479          41.000  
C40  36103164.143   187998626.339         -10.182          30.000  
C45  21970955.468   114408288.729       -1242.962          38.000  
E31  23521791.147   123607800.932        -445.043          21.000  
E33  23923059.454   125716496.172        -557.555          28.000  
G01  20507729.338   107768678.314        1080.440          33.000  
G02  21196869.157   111390070.500       -1613.451          24.000  
G07  21674264.363   113898786.909       -2337.167          36.000  
G08  22114942.488   116214561.483       -2511.224          30.000  
G14  21692858.091   113996660.505        2600.137          35.000  
G17  22654449.894   119049773.048        2153.181          25.000  
G22  23516954.295   123582260.878        2749.130          30.000  
G30  21355418.295   112223245.345        -481.140          39.000  
J02  38784549.259   203814037.967         600.264          38.000  
> 2025 04 08 03 03 35.9994588  0 20                     
C06  37372816.831   194609880.760       -1524.687          25.000  
C07  36034066.329   187638688.272         179.397          35.000  
C09  36818013.114   191720801.940       -1050.424          35.000  
C10  37019509.321   192770207.610         294.562          38.000  
C26  23186138.264   120736210.541        1989.608          36.000  
C29  21830519.639   113677178.047       -1220.874          34.000  
C35  22739151.007   118408586.552        1920.233          40.000  
C40  36103160.995   187998618.805          -9.971          30.000  
C45  21971193.353   114409516.468       -1243.625          39.000  
E31  23521869.542   123608228.008        -442.777          27.000  
E33  23923159.435   125717036.126        -554.727          27.000  
G01  20507522.931   107767583.079        1080.003          32.000  
G02  21197171.197   111391666.529       -1610.953          25.000  
G07  21674708.205   113901108.497       -2338.596          40.000  
G08  22115418.708   116217055.397       -2509.536          30.000  
G14  21692358.786   113994044.939        2600.581          37.000  
G17  22654039.329   119047605.331        2152.760          26.000  
G22  23516428.609   123579498.369        2746.548          29.000  
G30  21355507.783   112223711.394        -483.246          41.000  
J02  38784433.089   203813422.095         601.922          39.000  
> 2025 04 08 03 03 37.0003977  0 19                     
C06  37373126.385   194611490.827       -1525.822          26.000  
C07  36034048.210   187638593.399         178.267          34.000  
C09  36818232.431   191722198.051       -1050.674          35.000  
C10  37019470.217   192769996.050         295.055          38.000  
C26  23185773.885   120734303.260        1989.006          37.000  
C29  21830772.233   113678481.831       -1220.204          34.000  
C35  22738799.519   118406749.144        1917.405          38.000  
C40  36103180.051   187998712.233          -8.524          31.000  
C45  21971451.643   114411113.624       -1244.912          39.000  
E31  23521962.647   123608754.018        -442.817          26.000  
E33  23923281.319   125717674.924        -553.409          26.000  
G01  20507336.629   107766587.370        1078.906          29.000  
G02  21197494.542   111393360.091       -1609.276          24.000  
G07  21675171.553   113903534.225       -2341.069          39.000  
G08  22115914.733   116219915.457       -2506.064          30.000  
G14  21691879.887   113991524.670        2602.208          38.000  
G22  23515920.030   123576834.037        2746.085          26.000  
G30  21355616.777   112224278.440        -484.647          42.000  
J02  38784335.226   203812903.686         602.274          39.000  
> 2025 04 08 03 03 38.0003367  0 20                     
C06  37373445.365   194613155.863       -1526.445          28.000  
C07  36034041.914   187638555.870         178.688          34.000  
C09  36818461.472   191723388.966       -1053.391          35.000  
C10  37019441.137   192769842.480         294.182          37.000  
C26  23185419.830   120732455.077        1989.736          37.000  
C29  21831035.451   113679843.963       -1219.037          36.000  
C35  22738460.454   118404974.039        1915.330          37.000  
C40  36103208.531   187998859.367          -8.286          30.000  
C45  21971719.058   114412499.182       -1245.588          40.000  
E31  23522078.666   123609338.042        -441.954          23.000  
E33  23923416.826   125718370.210        -551.846          28.000  
G01  20507159.451   107765651.415        1080.121          28.000  
G02  21197829.411   111395108.7521      -1606.860          18.000  
G07  21675646.425   113906290.658       -2343.996          39.000  
G08  22116419.884   116222561.843       -2504.965          29.000  
G14  21691412.510   113989065.522        2600.609          36.000  
G17  22653261.236   119043529.1251       2147.301          30.000  
G22  23515424.473   123574228.942        2747.766          23.000  
G30  21355738.193   112224906.764        -486.461          43.000  
J02  38784249.785   203812444.434         601.709          38.000  
> 2025 04 08 03 03 39.0002756  0 20                     
C06  37373740.398   194614667.203       -1528.524          28.000  
C07  36034006.277   187638362.163         179.208          35.000  
C09  36818664.469   191724426.805       -1054.323          35.000  
C10  37019382.715   192769533.963         293.727          37.000  
C26  23185035.534   120730450.850        1989.265          38.000  
C29  21831265.130   113681047.628       -1218.527          36.000  
C35  22738089.049   118403043.686        1916.144          37.000  
C40  36103208.269   187998851.825          -7.421          31.000  
C45  21971955.931   114413728.682       -1245.367          40.000  
E31  23522157.249   123609761.977        -440.829          23.000  
E33  23923518.493   125718905.276        -552.067          28.000  
G01  20506951.433   107764556.181        1080.026          27.000  
G02  21198134.037   111396700.121       -1605.231          22.000  
G07  21676090.455   113908619.020       -2343.939          40.000  
G08  22116896.291   116225050.763       -2504.553          27.000  
G14  21690914.293   113986449.984        2600.131          36.000  
G17  22652851.157   119041367.697        2145.145          29.000  
G22  23514898.674   123571460.314        2753.206          23.000  
G30  21355829.367   112225378.603        -487.616          43.000  
J02  38784134.103   203811826.664         603.258          38.000  
> 2025 04 08 03 03 40.0002145  0 20                     
C06  37374030.634   194616181.354       -1528.113          29.000  
C07  36033969.739   187638171.388         178.684          35.000  
C09  36818867.466   191725468.363       -1056.106          36.000  
C10  37019325.492   192769228.531         293.405          38.000  
C26  23184652.137   120728449.786        1988.859          36.000  
C29  21831497.806   113682254.331       -1219.291          35.000  
C35  22737721.540   118401116.179        1913.380          38.000  
C40  36103207.407   187998846.331          -8.684          31.000  
C45  21972194.304   114414961.142       -1246.343          40.000  
E31  23522247.225   123610190.917        -441.119          26.000  
E33  23923627.355   125719443.430        -551.859          28.000  
G01  20506746.412   107763464.352        1079.211          27.000  
G02  21198437.465   111398292.452       -1605.997          25.000  
G07  21676535.384   113910951.761       -2346.066          40.000  
G08  22117373.598   116227540.834       -2504.147          24.000  
G14  21690417.874   113983837.119        2601.381          36.000  
G17  22652441.079   119039210.482        2145.189          30.000  
G22  23514374.375   123568695.522        2751.563          22.000  
G30  21355921.141   112226122.160        -489.420          42.000  
J02  38784018.720   203811211.658         602.768          39.000  
> 2025 04 08 03 03 41.0001534  0 20                     
C06  37374321.995   194617695.188       -1529.489          29.000  
C07  36033934.326   187637978.869         178.082          35.000  
C09  36819066.790   191726509.400       -1055.203          35.000  
C10  37019269.993   192768921.007         293.679          38.000  
C26  23184269.864   120726447.533        1986.830          39.000  
C29  21831730.707   113683460.189       -1220.509          35.000  
C35  22737351.559   118399189.501        1911.442          36.000  
C40  36103208.269   187998838.682          -7.210          29.000  
C45  21972432.302   114416195.640       -1250.491          41.000  
E31  23522327.831   123610616.427        -440.504          24.000  
E33  23923732.545   125719978.974        -550.750          26.000  
G01  20506540.118   107762370.861        1078.437          27.000  
G02  21198742.916   111400145.710       -1606.732          25.000  
G07  21676980.239   113913283.019       -2348.517          38.000  
G08  22117847.233   116230029.749       -2503.510          20.000  
G14  21689921.680   113981222.724        2597.800          39.000  
G17  22652028.827   119037051.022        2144.149          31.000  
G22  23513847.302   123565934.425        2747.575          26.000  
G30  21356013.440   112226596.506        -492.814          41.000  
J02  38783901.764   203810593.959         601.893          36.000  
> 2025 04 08 03 03 42.0000924  0 19                     
C06  37374639.101   194619365.107       -1528.250          30.000  
C07  36033929.455   187637942.592         179.677          35.000  
C09  36819298.755   191727706.269       -1055.621          35.000  
C10  37019242.337   192768769.225         293.435          37.000  
C26  23183916.933   120724602.075        1988.120          37.000  
C29  21831995.949   113684819.561       -1217.450          36.000  
C35  22737011.819   118397419.058        1913.622          36.000  
C40  36103240.572   187998985.326          -4.835          27.000  
C45  21972699.342   114417582.604       -1247.549          41.000  
E31  23522441.677   123611198.016        -440.425          23.000  
E33  23923867.676   125720674.660        -552.345          26.000  
G01  20506362.266   107761435.733        1078.328          26.000  
G07  21677455.935   113915773.190       -2348.170          39.000  
G08  22118349.910   116232674.7081      -2502.554          19.000  
G14  21689455.727   113978765.983        2602.231          37.000  
G17  22651648.615   119035051.257        2143.006          30.000  
G22  23513347.773   123563329.206        2748.991          26.000  
G30  21356135.080   112227229.751        -490.653          41.000  
J02  38783816.248   203810136.056         602.335          33.000  
> 2025 04 08 03 03 43.0000313  0 20                     
C06  37374935.764   194620881.278       -1529.792          30.000  
C07  36033892.449   187637751.964         178.846          34.000  
C09  36819499.185   191728750.290       -1057.585          36.000  
C10  37019182.847   192768464.231         294.072          37.000  
C26  23183535.466   120722602.922        1987.312          36.000  
C29  21832228.756   113686025.874       -1218.950          36.000  
C35  22736644.143   118395494.650        1911.610          36.000  
C40  36103238.942   187998978.548          -6.838          29.000  
C45  21972937.246   114418820.644       -1251.240          40.000  
E31  23522521.591   123611627.346        -442.379          26.000  
E33  23923965.277   125721215.044        -553.039          26.000  
G01  20506157.676   107760346.038        1077.261          25.000  
G02  21199378.569   111403487.0261      -1605.696          25.000  
G07  21677901.295   113918108.438       -2349.042          37.000  
G08  22118823.751   116235160.214       -2498.933          24.000  
G14  21688959.440   113976152.291        2601.133          36.000  
G17  22651239.267   119032896.568        2143.695          28.000  
G22  23512819.707   123560568.277        2750.540          28.000  
G30  21356226.985   112227707.426        -491.730          42.000  
J02  38783698.898   203809519.664         604.601          33.000  
> 2025 04 08 03 03 43.9999702  0 20                     
C06  37375228.305   194622396.465       -1529.020          32.000  
C07  36033857.317   187637557.337         181.845          35.000  
C09  36819699.390   191729791.157       -1054.668          37.000  
C10  37019124.931   192768155.013         296.968          35.000  
C26  23183150.476   120720599.198        1991.369          37.000  
C29  21832460.739   113687231.011       -1218.422          35.000  
C35  22736274.742   118393567.934        1914.110          35.000  
C40  36103239.185   187998967.814          -4.633          31.000  
C45  21973176.124   114420053.930       -1247.669          40.000  
E31  23522604.277   123612055.467        -441.165          29.000  
E33  23924069.249   125721753.432        -553.999          26.000  
G01  20505951.063   107759257.442        1075.624          28.000  
G02  21199682.203   111405077.875       -1606.300          26.000  
G07  21678347.630   113920442.377       -2348.324          35.000  
G08  22119298.566   116237644.331       -2501.529          29.000  
G14  21688462.327   113973535.830        2604.436          37.000  
G17  22650829.095   119030737.028        2147.777          29.000  
G22  23512291.417   123557801.909        2753.198          30.000  
G30  21356318.666   112228181.671        -488.786          42.000  
J02  38783584.321   203808900.339         604.973          30.000  
> 2025 04 08 03 03 44.9999092  0 20                     
C06  37375548.521   194624068.102       -1530.944          30.000  
C07  36033851.958   187637517.938         180.788          36.000  
C09  36819929.968   191730987.081       -1056.634          37.000  
C10  37019096.488   192767999.222         298.093          33.000  
C26  23182795.859   120718750.419        1989.698          39.000  
C29  21832722.496   113688590.448       -1220.857          37.000  
C35  22735935.414   118391795.297        1914.404          36.000  
C40  36103266.803   187999115.688          -6.251          33.000  
C45  21973445.076   114421444.728       -1250.390          39.000  
E31  23522715.538   123612638.307        -442.849          30.000  
E33  23924203.593   125722449.882        -555.409          31.000  
G01  20505775.722   107758326.081        1074.132          27.000  
G02  21200017.109   111406826.746       -1609.070          26.000  
G07  21678823.138   113922931.670       -2346.996          35.000  
G08  22119802.255   116240290.145       -2503.718          26.000  
G14  21687994.689   113971075.223        2602.654          39.000  
G17  22650447.496   119028729.699        2150.574          29.000  
G22  23511791.401   123555191.969        2753.425          29.000  
G30  21356441.019   112228814.968        -490.739          43.000  
J02  38783497.418   203808440.339         602.309          32.000  
> 2025 04 08 03 03 45.9998481  0 20                     
C06  37375842.262   194625580.072       -1530.445          27.000  
C07  36033815.028   187637322.222         178.869          36.000  
C09  36820130.173   191732027.668       -1056.476          36.000  
C10  37019037.073   192767686.934         294.685          35.000  
C26  23182410.570   120716745.980        1987.411          38.000  
C29  21832953.580   113689796.679       -1223.087          38.000  
C35  22735566.014   118389866.088        1912.853          37.000  
C40  36103266.447   187999105.274          -6.987          34.000  
C45  21973682.755   114422679.493       -1253.948          38.000  
E31  23522798.524   123613065.352        -445.422          29.000  
E33  23924304.867   125722989.624        -558.500          32.000  
G01  20505568.209   107757237.875        1069.776          31.000  
G02  21200321.941   111408421.060       -1612.596          28.000  
G07  21679267.374   113925262.655       -2348.829          33.000  
G08  22120277.669   116242778.025       -2506.851          29.000  
G14  21687497.277   113968456.771        2602.288          38.000  
G17  22650036.425   119026563.302        2149.919          26.000  
G22  23511266.108   123552422.894        2753.656          27.000  
G30  21356532.399   112229288.722        -492.309          43.000  
J02  38783381.043   203807824.517         597.968          35.000  
> 2025 04 08 03 03 46.9997870  0 20                     
C06  37376135.571   194627097.242       -1529.580          27.000  
C07  36033779.165   187637129.509         180.174          37.000  
C09  36820333.845   191733069.395       -1054.567          36.000  
C10  37018978.126   192767379.070         295.556          34.000  
C26  23182026.948   120714744.194        1990.144          35.000  
C29  21833185.431   113691006.276       -1220.989          38.000  
C35  22735197.981   118387938.878        1916.125          37.000  
C40  36103265.361   187999097.529          -6.506          33.000  
C45  21973921.202   114423917.138       -1248.351          39.000  
E31  23522885.277   123613498.218        -447.173          27.000  
E33  23924407.808   125723535.259        -559.053          28.000  
G01  20505362.064   107756155.143        1069.608          31.000  
G02  21200627.542   111410020.704       -1615.185          26.000  
G07  21679712.978   113927596.086       -2346.220          32.000  
G08  22120749.955   116245270.900       -2505.919          32.000  
G14  21687001.233   113965841.807        2603.123          35.000  
G17  22649627.321   119024400.260        2149.679          23.000  
G22  23510739.185   123549655.736        2754.037          28.000  
G30  21356624.548   112229766.250        -490.345          42.000  
J02  38783265.735   203807211.774         600.784          37.000  
> 2025 04 08 03 03 47.9997260  0 20                     
C06  37376458.110   194628767.959       -1526.815          30.000  
C07  36033773.132   187637092.395         180.306          37.000  
C09  36820565.247   191734264.004       -1052.979          37.000  
C10  37018950.208   192767226.359         296.143          34.000  
C26  23181674.055   120712898.504        1988.448          33.000  
C29  21833449.511   113692372.331       -1221.370          36.000  
C35  22734861.577   118386166.760        1915.801          35.000  
C40  36103296.502   187999247.283          -6.569          31.000  
C45  21974190.079   114425308.448       -1249.914          41.000  
E31  23523001.559   123614087.716        -445.268          28.000  
E33  23924541.778   125724238.060        -558.603          29.000  
G01  20505187.248   107755229.974        1070.551          28.000  
G02  21200965.071   111411780.458       -1616.628          24.000  
G07  21680189.011   113930085.878       -2345.835          34.000  
G08  22121255.667   116247919.023       -2505.511          29.000  
G14  21686534.119   113963383.989        2601.349          36.000  
G17  22649248.046   119022395.884        2149.147          22.000  
G22  23510243.891   123547048.040        2751.912          30.000  
G30  21356746.526   112230399.596        -490.680          42.000  
J02  38783179.357   203806754.059         603.370          37.000  
> 2025 04 08 03 03 48.9996649  0 20                     
C06  37376747.878   194630278.639       -1524.323          31.000  
C07  36033736.426   187636897.765         179.538          37.000  
C09  36820765.077   191735301.383       -1052.473          37.000  
C10  37018890.718   192766915.179         296.456          36.000  
C26  23181292.887   120710896.575        1985.488          35.000  
C29  21833683.518   113693578.892       -1224.579          35.000  
C35  22734490.003   118384236.135        1916.479          36.000  
C40  36103293.672   187999238.587          -5.414          27.000  
C45  21974429.182   114426541.182       -1248.567          41.000  
E31  23523076.376   123614516.986        -444.759          30.000  
E33  23924647.773   125724779.620        -558.056          28.000  
G01  20504982.359   107754409.461        1071.036          25.000  
G02  21201271.628   111413380.308       -1616.317          25.000  
G07  21680633.472   113932416.408       -2345.831          36.000  
G08  22121732.206   116250409.300       -2506.552          30.000  
G14  21686039.030   113960768.767        2600.121          37.000  
G17  22648837.199   119020232.014        2149.612          23.000  
G22  23509718.523   123544283.002        2749.787          31.000  
G30  21356838.131   112230874.891        -491.084          42.000  
J02  38783062.007   203806135.647         603.427          37.000  
> 2025 04 08 03 03 49.9996038  0 20                     
C06  37377039.951   194632054.559       -1522.478          31.000  
C07  36033702.324   187636704.293         180.115          36.000  
C09  36820965.114   191736339.336       -1050.333          36.000  
C10  37018833.233   192766605.264         296.298          36.000  
C26  23180911.327   120708897.474        1985.824          35.000  
C29  21833917.431   113694790.183       -1224.527          34.000  
C35  22734121.033   118382304.873        1917.963          38.000  
C40  36103297.045   187999227.625          -5.670          27.000  
C45  21974667.592   114427777.158       -1248.481          40.000  
E31  23523158.294   123614946.582        -444.400          30.000  
E33  23924752.476   125725324.192        -558.777          26.000  
G01  20504778.275   107753323.838        1077.273          23.000  
G02  21201578.690   111414982.414       -1623.252          23.000  
G07  21681078.439   113934745.131       -2342.514          38.000  
G08  22122208.052   116252903.190       -2510.590          29.000  
G14  21685542.349   113958156.583        2599.875          38.000  
G17  22648426.258   119018068.656        2151.998          29.000  
G22  23509197.259   123541519.971        2752.571          30.000  
G30  21356930.542   112231352.061        -490.905          41.000  
J02  38782944.264   203805520.469         602.802          37.000  
> 2025 04 08 03 03 50.9995428  0 20                     
C06  37377360.523   194633716.074       -1520.744          29.000  
C07  36033694.923   187636666.776         179.398          36.000  
C09  36821194.549   191737530.788       -1050.624          36.000  
C10  37018806.345   192766452.251         294.647          36.000  
C26  23180556.466   120707055.595        1982.704          34.000  
C29  21834181.042   113696159.509       -1227.818          33.000  
C35  22733781.462   118380530.327        1915.719          38.000  
C40  36103330.416   187999375.343          -8.035          27.000  
C45  21974936.599   114429166.061       -1250.789          40.000  
E31  23523272.309   123615534.698        -447.510          29.000  
E33  23924892.573   125726026.855        -564.068          28.000  
G01  20504606.887   107752391.405        1075.765          25.000  
G02  21201915.151   111416747.396       -1621.645          26.000  
G07  21681552.205   113937231.018       -2344.429          39.000  
G08  22122715.694   116255558.949       -2515.289          26.000  
G14  21685077.165   113955701.521        2597.707          37.000  
G17  22648043.817   119016058.823        2155.175          30.000  
G22  23508703.594   123538911.444        2748.532          29.000  
G30  21357052.352   112231986.526        -491.562          40.000  
J02  38782857.418   203805062.263         600.523          37.000  
> 2025 04 08 03 03 51.9994817  0 20                     
C06  37377651.996   194635223.010       -1519.726          27.000  
C07  36033658.723   187636474.822         177.077          35.000  
C09  36821396.384   191738566.270       -1049.117          35.000  
C10  37018747.361   192766143.509         295.819          37.000  
C26  23180177.603   120705060.428        1981.965          35.000  
C29  21834416.754   113697373.981       -1230.606          35.000  
C35  22733411.893   118378600.441        1918.996          38.000  
C40  36103331.390   187999371.993         -12.054          28.000  
C45  21975174.709   114430403.907       -1249.996          40.000  
E31  23523360.822   123615971.615        -450.758          27.000  
E33  23924999.374   125726577.987        -569.757          31.000  
G01  20504404.303   107751303.167        1073.995          23.000  
G02  21202224.012   111418354.691       -1622.074          25.000  
G07  21681996.273   113939559.032       -2340.126          39.000  
G08  22123193.038   116258061.211       -2517.164          28.000  
G14  21684581.683   113953092.423        2595.161          37.000  
G17  22647633.176   119013890.462        2155.542          30.000  
G22  23508177.534   123536150.274        2746.746          30.000  
G30  21357145.062   112232461.808        -489.670          40.000  
J02  38782742.672   203804449.267         598.511          37.000  
> 2025 04 08 03 03 53.0004206  0 20                     
C06  37377960.820   194636823.202       -1517.150          27.000  
C07  36033642.872   187636379.550         176.090          36.000  
C09  36821614.371   191739695.456       -1047.598          35.000  
C10  37018706.327   192765928.416         295.547          37.000  
C26  23179812.194   120703158.960        1981.576          35.000  
C29  21834669.517   113698690.034       -1233.101          36.000  
C35  22733059.674   118376759.720        1921.317          38.000  
C40  36103349.715   187999465.546         -13.410          30.000  
C45  21975431.069   114431735.636       -1248.919          40.000  
E31  23523466.687   123616503.263        -451.236          27.000  
E33  23925122.026   125727230.491        -570.412          30.000  
G01  20504216.670   107750311.982        1070.847          26.000  
G02  21202552.322   111420059.637       -1623.158          23.000  
G07  21682458.590   113941981.385       -2337.321          40.000  
G08  22123689.232   116260664.067       -2522.681          26.000  
G14  21684103.551   113950577.210        2595.637          35.000  
G17  22647239.886   119011814.548        2157.888          30.000  
G22  23507671.222   123533484.734        2744.945          30.000  
G30  21357254.224   112233033.719        -488.401          41.000  
J02  38782645.277   203803932.616         598.097          37.000  
> 2025 04 08 03 03 54.0003595  0 20                     
C06  37378251.469   194638321.974       -1513.373          26.000  
C07  36033604.349   187636186.120         181.603          37.000  
C09  36821813.882   191740723.031       -1042.161          36.000  
C10  37018650.415   192765616.328         299.236          36.000  
C26  23179427.410   120701161.209        1984.957          36.000  
C29  21834905.004   113699906.516       -1232.253          37.000  
C35  22732688.381   118374821.448        1925.578          38.000  
C40  36103348.666   187999462.781         -12.122          30.000  
C45  21975669.554   114432966.122       -1246.032          39.000  
E31  23523549.279   123616938.164        -451.131          27.000  
E33  23925232.800   125727784.632        -569.315          30.000  
G01  20504011.462   107749228.202        1067.562          26.000  
G02  21202859.160   111421668.373       -1624.087          28.000  
G07  21682901.234   113944301.324       -2333.954          39.000  
G08  22124170.549   116263172.607       -2524.131          26.000  
G14  21683607.545   113947964.965        2599.512          38.000  
G17  22646826.622   119009641.801        2158.893          32.000  
G22  23507146.735   123530722.332        2750.586          29.000  
G30  21357345.511   112233504.764        -485.828          41.000  
J02  38782530.007   203803318.345         601.015          36.000  
> 2025 04 08 03 03 55.0002985  0 20                     
C06  37378568.949   194639977.196       -1509.108          26.000  
C07  36033599.252   187636148.214         180.399          37.000  
C09  36822042.624   191741909.320       -1043.947          37.000  
C10  37018620.736   192765460.378         299.753          35.000  
C26  23179078.152   120699320.327        1983.491          37.000  
C29  21835171.819   113701283.761       -1232.055          36.000  
C35  22732348.416   118373303.086        1922.175          39.000  
C40  36103378.345   187999616.363         -10.239          31.000  
C45  21975937.269   114434356.520       -1248.429          39.000  
E31  23523664.700   123617533.216        -451.139          26.000  
E33  23925367.107   125728495.989        -569.216          27.000  
G01  20503835.784   107748305.185        1067.851          28.000  
G02  21203195.827   111423436.941       -1626.000          27.000  
G07  21683374.606   113946778.848       -2337.453          39.000  
G08  22124683.794   116265841.110       -2524.848          27.000  
G14  21683141.667   113945510.861        2596.992          38.000  
G17  22646444.686   119007626.863        2161.920          29.000  
G22  23506651.178   123528116.450        2749.002          29.000  
G30  21357466.627   112234134.145        -488.105          40.000  
J02  38782444.866   203802862.506         600.927          32.000  
> 2025 04 08 03 03 56.0002374  0 20                     
C06  37378859.279   194641466.569       -1503.241          24.000  
C07  36033562.209   187635953.952         180.105          34.000  
C09  36822243.017   191742939.246       -1047.394          36.000  
C10  37018562.707   192765147.383         297.258          35.000  
C26  23178696.347   120697323.047        1981.742          35.000  
C29  21835411.184   113702498.996       -1230.185          30.000  
C35  22731978.903   118371367.475        1921.205          37.000  
C40  36103377.877   187999608.762          -8.997          27.000  
C45  21976176.335   114435589.181       -1248.035          38.000  
E31  23523746.674   123617968.381        -450.371          25.000  
E33  23925476.362   125729048.789        -569.052          23.000  
G01  20503628.758   107747221.576        1070.229          28.000  
G02  21203506.543   111425045.751       -1623.404          28.000  
G07  21683818.130   113949103.076       -2339.101          38.000  
G08  22125162.394   116268347.117       -2520.764          27.000  
G14  21682646.541   113942899.470        2596.228          33.000  
G17  22646032.903   119005453.164        2155.529          28.000  
G22  23506124.274   123525352.633        2749.197          28.000  
G30  21357558.195   112234608.221        -489.285          38.000  
J02  38782329.577   203802516.531         602.113          27.000  
> 2025 04 08 03 03 57.0001763  0 19                     
C06  37379149.591   194642966.143       -1513.733          24.000  
C07  36033530.843   187636050.857         180.936          28.000  
C09  36822442.191   191743972.803       -1049.582          34.000  
C10  37018507.658   192764837.076         295.850          30.000  
C26  23178317.822   120695327.543        1983.242          30.000  
C29  21835647.533   113703714.648       -1227.685          30.000  
C35  22731610.571   118369433.504        1919.076          36.000  
C40  36103381.287   187999602.321          -7.716          25.000  
C45  21976418.380   114436823.153       -1248.805          34.000  
E31  23523832.527   123618404.175        -449.130          21.000  
E33  23925584.400   125729601.198        -566.186          24.000  
G01  20503427.110   107746136.977        1071.941          26.000  
G02  21203815.142   111426652.997       -1620.824          29.000  
G07  21684262.835   113951428.159       -2341.464          36.000  
G14  21682153.195   113940290.411        2596.240          28.000  
G17  22645623.798   119003555.568        2152.299          29.000  
G22  23505603.047   123522589.047        2750.239          27.000  
G30  21357650.644   112235083.215        -491.694          35.000  
J02  38782215.768   203801900.403         602.993          23.000  
> 2025 04 08 03 03 58.0001152  0 20                     
C06  37379442.657   194644466.511       -1514.920          24.000  
C07  36033495.037   187635856.185         180.450          33.000  
C09  36822645.319   191745007.379       -1047.859          29.000  
C10  37018450.566   192764529.342         293.784          26.000  
C26  23177934.856   120693331.186        1982.159          33.000  
C29  21835879.441   113704930.194       -1233.581          36.000  
C35  22731244.393   118367504.041        1913.954          35.000  
C40  36103381.156   187999597.514          -9.997          27.000  
C45  21976660.481   114438057.917       -1249.439          29.000  
E31  23523914.239   123618836.817        -447.377          25.000  
E33  23925688.297   125730152.138        -565.037          27.000  
G01  20503222.820   107745051.602        1071.152          24.000  
G02  21204121.998   111428261.932       -1627.052          31.000  
G07  21684708.795   113953752.543       -2336.681          31.000  
G08  22126111.818   116273355.6191      -2517.842          32.000  
G14  21681659.306   113937679.882        2597.446          32.000  
G17  22645215.350   119001389.540        2154.153          26.000  
G22  23505080.977   123519827.171        2747.478          27.000  
G30  21357744.647   112235562.070        -492.566          30.000  
J02  38782100.817   203801283.694         603.538          35.000  
> 2025 04 08 03 03 59.0000542  0 20                     
C06  37379763.865   194646126.625       -1519.236          22.000  
C07  36033485.874   187635818.342         179.412          39.000  
C09  36822875.991   191746195.668       -1047.423          28.000  
C10  37018415.322   192764375.316         296.292          38.000  
C26  23177575.536   120691493.275        1978.541          39.000  
C29  21836139.193   113706304.114       -1229.476          35.000  
C35  22730903.361   118365731.076        1917.096          33.000  
C40  36103413.664   187999754.091         -13.595          29.000  
C45  21976925.928   114439447.893       -1250.486          37.000  
E31  23524023.195   123619424.594        -447.962          23.000  
E33  23925819.437   125730858.385        -565.073          26.000  
G01  20503051.171   107744124.929        1068.978          24.000  
G02  21204457.897   111430036.221       -1634.937          30.000  
G07  21685182.598   113956229.305       -2332.147          27.000  
G08  22126617.399   116276015.224       -2517.002          32.000  
G14  21681190.562   113935226.697        2593.860          36.000  
G17  22644836.244   118999375.585        2158.536          25.000  
G22  23504585.252   123517223.694        2745.490          27.000  
G30  21357867.693   112236195.523        -491.686          34.000  
J02  38782011.909   203800821.799         605.379          36.000  
> 2025 04 08 03 03 59.9999931  0 19                     
C06  37380056.594   194647630.4401      -1516.161          19.000  
C07  36033449.731   187635625.061         179.118          39.000  
C09  36823071.887   191747226.277       -1043.255          31.000  
C10  37018357.293   192764065.543         296.141          40.000  
C26  23177197.029   120689501.349        1977.163          40.000  
C29  21836371.064   113707519.627       -1230.239          34.000  
C35  22730531.449   118363797.394        1922.680          34.000  
C40  36103412.896   187999750.555          -9.632          31.000  
C45  21977161.397   114440681.349       -1246.543          38.000  
E31  23524105.469   123619858.339        -447.825          23.000  
E33  23925924.796   125731410.287        -566.344          26.000  
G01  20502841.147   107743041.801        1070.006          36.000  
G02  21204764.716   111431653.868       -1619.654          33.000  
G07  21685626.422   113958544.708       -2329.142          27.000  
G08  22127090.003   116278515.551       -2515.070          33.000  
G14  21680695.136   113932620.168        2592.640          39.000  
G17  22644425.059   118997200.463        2163.586          25.000  
G22  23504064.344   123514464.101        2746.858          25.000  
J02  38781894.822   203800202.492         607.109          33.000  
> 2025 04 08 03 04 00.9999320  0 20                     
C06  37380345.500   194649126.0741      -1509.000          18.000  
C07  36033413.962   187635431.916         178.213          39.000  
C09  36823269.056   191748251.598       -1039.385          29.000  
C10  37018299.939   192763754.927         296.892          39.000  
C26  23176815.000   120687511.207        1974.072          41.000  
C29  21836606.307   113708737.547       -1232.211          37.000  
C35  22730159.613   118361860.247        1921.914          36.000  
C40  36103411.004   187999743.661          -8.761          34.000  
C45  21977401.437   114441909.786       -1242.777          33.000  
E31  23524189.318   123620290.301        -448.069          30.000  
E33  23926031.428   125731962.388        -568.226          29.000  
G01  20502628.800   107741954.732        1072.699          37.000  
G02  21205068.611   111433259.349       -1621.746          31.000  
G07  21686069.422   113960857.712       -2329.712          24.000  
G08  22127567.479   116281016.016       -2516.038          33.000  
G14  21680200.385   113930013.661        2591.739          41.000  
G17  22644014.250   118995025.432        2158.529          26.000  
G22  23503542.011   123511703.641        2745.370          23.000  
G30  21358050.904   112237149.2001       -489.941          34.000  
J02  38781778.408   203799579.514         609.874          28.000  
> 2025 04 08 03 04 01.9998710  0 20                     
C06  37380663.899   194650773.693       -1505.773          20.000  
C07  36033407.685   187635394.756         178.449          40.000  
C09  36823500.515   191749430.702       -1037.258          27.000  
C10  37018269.079   192763600.789         294.320          38.000  
C26  23176466.060   120685940.602        1972.633          38.000  
C29  21836872.841   113710112.862       -1232.939          32.000  
C35  22729818.468   118360078.541        1923.034          34.000  
C40  36103441.301   187999896.197         -11.703          40.000  
C45  21977667.371   114443293.908       -1243.723          34.000  
E31  23524299.360   123620879.766        -446.973          32.000  
E33  23926172.050   125732673.216        -566.765          28.000  
G01  20502454.340   107741025.674        1072.892          34.000  
G02  21205404.398   111435024.223       -1625.116          34.000  
G07  21686541.613   113963330.625       -2329.746          22.000  
G08  22128075.346   116283677.125       -2519.318          34.000  
G14  21679736.325   113927567.865        2587.009          39.000  
G17  22643633.233   118993018.125        2148.507          33.000  
G22  23503045.874   123509107.412        2738.885          25.000  
G30  21358173.538   112237782.365        -493.887          37.000  
J02  38781691.787   203799115.002         607.202          30.000  
> 2025 04 08 03 04 02.9998099  0 19                     
C06  37380947.015   194652267.457       -1509.655          30.000  
C07  36033371.522   187635205.539         177.337          40.000  
C09  36823695.792   191750454.952       -1036.195          24.000  
C10  37018213.430   192763296.306         290.663          38.000  
C26  23176086.336   120683957.884        1968.570          34.000  
C29  21837110.090   113711331.997       -1231.107          31.000  
C35  22729449.836   118358146.116        1920.090          32.000  
C40  36103441.414   187999896.024         -13.479          41.000  
C45  21977905.519   114444524.335       -1242.265          35.000  
E31  23524388.211   123621312.675        -444.804          30.000  
E33  23926274.991   125733224.746        -564.082          30.000  
G01  20502250.594   107739940.486        1074.374          29.000  
G02  21205711.797   111436637.923       -1625.796          31.000  
G08  22128549.730   116286179.055       -2509.860          33.000  
G14  21679244.178   113924970.018        2583.524          35.000  
G17  22643222.929   118990853.888        2156.063          30.000  
G22  23502522.249   123506357.872        2736.863          23.000  
G30  21358265.387   112238265.721        -498.184          37.000  
J02  38781575.280   203798493.941         611.155          30.000  
> 2025 04 08 03 04 03.9997489  0 20                     
C06  37381260.504   194653914.885       -1505.183          31.000  
C07  36033366.932   187635171.177         174.450          40.000  
C09  36823925.939   191751633.970       -1043.655          26.000  
C10  37018183.957   192763147.991         288.820          37.000  
C26  23175734.885   120682133.598        1963.189          32.000  
C29  21837375.012   113712703.272       -1229.854          35.000  
C35  22729109.178   118356369.200        1916.824          34.000  
C40  36103471.299   188000050.872         -14.514          42.000  
C45  21978171.641   114445905.638       -1239.991          33.000  
E31  23524497.842   123621900.472        -443.511          34.000  
E33  23926409.804   125733931.167        -562.696          31.000  
G01  20502074.821   107739006.429        1079.077          28.000  
G02  21206049.870   111438402.199       -1621.885          29.000  
G07  21687455.400   113968122.6921      -2332.326          39.000  
G08  22129052.688   116288829.178       -2506.365          35.000  
G14  21678781.804   113922531.410        2580.962          33.000  
G17  22642840.900   118988843.551        2141.277          31.000  
G22  23502032.294   123503769.925        2729.836          26.000  
G30  21358388.808   112238907.497        -501.088          38.000  
J02  38781487.048   203798022.431         616.119          32.000  
> 2025 04 08 03 04 04.9996878  0 20                     
C06  37381549.130   194655399.514       -1499.630          27.000  
C07  36033331.181   187634981.681         172.767          40.000  
C09  36824124.327   191752658.242       -1042.074          26.000  
C10  37018126.921   192762843.546         288.435          37.000  
C26  23175358.271   120680157.665        1957.573          39.000  
C29  21837608.176   113713918.385       -1233.015          37.000  
C35  22728738.559   118354437.697        1917.548          33.000  
C40  36103471.824   188000048.692         -15.871          42.000  
C45  21978411.400   114447128.708       -1239.319          28.000  
E31  23524578.111   123622325.628        -443.120          35.000  
E33  23926520.352   125734476.137        -560.021          26.000  
G01  20501866.391   107737911.054        1079.514          35.000  
G02  21206356.183   111440006.677       -1618.116          27.000  
G07  21687896.919   113970436.232       -2329.977          35.000  
G08  22129525.985   116291318.489       -2509.344          36.000  
G14  21678288.870   113919937.377        2572.538          39.000  
G17  22642432.208   118986689.544        2137.662          31.000  
G22  23501511.480   123501026.868        2724.212          25.000  
G30  21358482.568   112239392.138        -500.865          35.000  
J02  38781368.855   203797389.201         616.843          28.000  
> 2025 04 08 03 04 05.9996267  0 19                     
C06  37381836.837   194656882.262       -1495.447          22.000  
C07  36033297.211   187634796.813         170.776          39.000  
C09  36824326.593   191753686.825       -1040.542          24.000  
C10  37018070.467   192762806.204         287.217          34.000  
C26  23174981.038   120678190.890        1951.885          40.000  
C29  21837841.920   113715140.458       -1235.088          39.000  
C35  22728370.021   118352502.045        1926.857          28.000  
C40  36103474.129   188000052.196         -19.565          41.000  
C45  21978647.243   114448356.079       -1240.666          29.000  
E31  23524663.458   123622754.509        -442.823          36.000  
E33  23926619.790   125735022.099        -563.493          23.000  
G01  20501659.140   107736818.719        1082.174          37.000  
G02  21206660.978   111441611.677       -1618.415          31.000  
G07  21688340.518   113972752.642       -2328.085          32.000  
G08  22130002.262   116293817.149       -2513.147          34.000  
G14  21677798.016   113917355.350        2568.025          40.000  
G17  22642024.996   118984537.462        2143.198          29.000  
G30  21358576.609   112239880.068        -501.725          33.000  
J02  38781250.643   203796760.058         616.361          27.000  
> 2025 04 08 03 04 06.9995657  0 20                     
C06  37382153.249   194658516.905       -1491.333          22.000  
C07  36033291.946   187634766.151         172.420          39.000  
C09  36824553.067   191754865.897       -1037.264          26.000  
C10  37018046.015   192762661.588         285.554          35.000  
C26  23174635.509   120676378.659        1952.672          37.000  
C29  21838106.169   113716516.354       -1235.439          38.000  
C35  22728031.686   118350713.476        1917.445          28.000  
C40  36103507.237   188000212.828         -19.684          41.000  
C45  21978913.890   114449734.942       -1238.696          29.000  
E31  23524775.712   123623337.876        -441.809          34.000  
E33  23926751.230   125735726.271        -562.740          27.000  
G01  20501480.595   107735879.803        1081.419          35.000  
G02  21206995.078   111443372.270       -1624.025          34.000  
G07  21688812.523   113975218.536       -2324.310          30.000  
G08  22130508.443   116296471.100       -2514.094          34.000  
G14  21677337.367   113914929.874        2567.947          38.000  
G17  22641645.590   118982531.223        2151.116          25.000  
G22  23500502.416   123495724.4011       2714.837          32.000  
G30  21358700.854   112240521.439        -500.926          33.000  
J02  38781159.337   203796285.259         617.942          31.000  
> 2025 04 08 03 04 07.9995046  0 20                     
C06  37382440.019   194659994.484       -1488.415          23.000  
C07  36033257.339   187634583.865         168.266          39.000  
C09  36824754.097   191756157.884       -1035.488          24.000  
C10  37017990.422   192762366.082         281.464          34.000  
C26  23174257.939   120674416.693        1947.500          35.000  
C29  21838343.473   113717741.282       -1237.480          36.000  
C35  22727664.609   118348782.707        1920.252          27.000  
C40  36103509.804   188000221.351         -22.357          41.000  
C45  21979151.494   114450962.598       -1240.576          31.000  
E31  23524857.124   123623767.474        -443.078          33.000  
E33  23926858.424   125736276.506        -565.683          27.000  
G01  20501274.207   107734787.050        1081.034          35.000  
G02  21207304.033   111444986.983       -1628.294          34.000  
G07  21689254.585   113977801.768       -2324.843          29.000  
G08  22130984.982   116298972.888       -2513.481          35.000  
G14  21676849.473   113912353.618        2563.362          36.000  
G17  22641236.842   118980369.630        2149.374          23.000  
G22  23499983.943   123492999.408        2710.966          30.000  
G30  21358796.357   112241011.403        -502.653          31.000  
J02  38781039.289   203795654.815         619.173          32.000  
> 2025 04 08 03 04 08.9994435  0 20                     
C06  37382731.043   194661466.308       -1489.096          22.000  
C07  36033223.987   187634401.256         168.470          39.000  
C09  36824950.986   191757178.528       -1042.072          27.000  
C10  37017933.087   192762070.626         280.742          35.000  
C26  23173883.723   120672457.074        1942.677          36.000  
C29  21838578.136   113718965.235       -1238.021          37.000  
C35  22727294.890   118346848.615        1917.643          31.000  
C40  36103511.828   188000228.072         -21.643          41.000  
C45  21979385.257   114452183.488       -1234.940          30.000  
E31  23524939.792   123624196.242        -442.626          32.000  
E33  23926964.176   125736825.500        -564.901          26.000  
G01  20501065.177   107733690.092        1083.292          35.000  
G02  21207611.845   111446597.046       -1623.618          33.000  
G07  21689696.704   113980113.647       -2327.307          26.000  
G08  22131463.975   116301469.327       -2510.717          34.000  
G14  21676359.837   113909779.148        2558.436          36.000  
G17  22640826.950   118978206.1721       2149.128          20.000  
G22  23499467.626   123490276.229        2705.297          29.000  
G30  21358892.215   112241499.903        -506.687          31.000  
J02  38780919.597   203795020.493         620.862          32.000  
> 2025 04 08 03 04 10.0003824  0 20                     
C06  37383037.749   194663038.680       -1491.051          22.000  
C07  36033209.016   187634314.696         167.504          39.000  
C09  36825168.054   191758301.211       -1028.138          24.000  
C10  37017897.730   192761871.440         279.576          34.000  
C26  23173526.389   120670594.478        1941.833          35.000  
C29  21838831.479   113720283.758       -1237.522          35.000  
C35  22726948.648   118345010.453        1930.216          27.000  
C40  36103533.431   188000331.308         -23.346          41.000  
C45  21979638.600   114453500.296       -1234.046          27.000  
E31  23525041.740   123624718.572        -442.017          31.000  
E33  23927082.013   125737473.005        -564.549          27.000  
G01  20500874.827   107732688.877        1081.716          34.000  
G02  21207938.937   111448304.702       -1625.838          34.000  
G07  21690160.202   113982523.119       -2327.463          22.000  
G08  22131959.251   116304064.399       -2512.707          35.000  
G14  21675890.081   113907570.536        2557.101          36.000  
G17  22640435.440   118976137.0031       2148.781          20.000  
G22  23498970.888   123487925.263        2704.484          29.000  
G30  21359007.055   112242090.464        -512.457          33.000  
J02  38780817.386   203794480.389         622.358          32.000  
> 2025 04 08 03 04 11.0003213  0 20                     
C06  37383328.473   194664801.437       -1493.031          22.000  
C07  36033175.964   187634130.622         168.020          37.000  
C09  36825362.844   191759312.279       -1028.121          22.000  
C10  37017840.994   192761575.346         280.049          31.000  
C26  23173151.274   120668636.106        1942.470          34.000  
C29  21839068.240   113721505.574       -1237.989          36.000  
C35  22726577.430   118343065.187        1928.833          26.000  
C40  36103536.055   188000336.564         -23.927          41.000  
C45  21979875.961   114454981.842       -1238.509          29.000  
E31  23525122.309   123625145.147        -441.916          31.000  
E33  23927199.457   125738281.374        -564.421          28.000  
G01  20500668.195   107731590.144        1084.041          35.000  
G02  21208245.250   111449914.651       -1628.347          35.000  
G07  21690603.520   113984833.0251      -2326.625          19.000  
G08  22132435.246   116306557.689       -2511.190          35.000  
G14  21675401.644   113904998.890        2555.723          35.000  
G17  22640027.348   118973972.9811       2147.444          18.000  
G22  23498453.971   123485201.149        2720.572          26.000  
G30  21359103.213   112242584.706        -509.797          31.000  
J02  38780696.795   203793841.445         622.293          34.000  
> 2025 04 08 03 04 12.0002603  0 20                     
C06  37383642.280   194666434.259       -1494.750          21.000  
C07  36033171.992   187634104.654         167.586          39.000  
C09  36825590.612   191760480.219       -1029.817          23.000  
C10  37017814.838   192761436.316         281.489          31.000  
C26  23172808.236   120666836.528        1939.562          34.000  
C29  21839335.280   113723149.483       -1240.054          37.000  
C35  22726238.890   118341280.473        1914.301          24.000  
C40  36103568.657   188000501.551         -23.638          42.000  
C45  21980142.701   114456362.928       -1242.143          29.000  
E31  23525239.453   123625728.447        -443.065          31.000  
E33  23927331.890   125738988.903        -564.234          29.000  
G01  20500490.343   107730648.397        1082.865          34.000  
G02  21208583.041   111451684.331       -1628.050          36.000  
G07  21691076.518   113987296.5051      -2320.092          17.000  
G08  22132941.821   116309211.113       -2512.347          35.000  
G14  21674944.686   113902585.455        2555.048          36.000  
G17  22639652.232   118971968.5831       2153.843          18.000  
G22  23497967.033   123482621.430        2723.008          23.000  
G30  21359228.751   112243504.075        -509.648          30.000  
J02  38780605.883   203793360.662         623.823          35.000  
> 2025 04 08 03 04 13.0001992  0 20                     
C06  37383920.001   194667918.774       -1497.267          26.000  
C07  36033138.227   187633929.673         162.107          38.000  
C09  36825790.686   191761499.772       -1043.657          23.000  
C10  37017761.887   192761147.640         274.360          33.000  
C26  23172436.006   120664889.205        1934.940          36.000  
C29  21839572.229   113724379.526       -1243.715          36.000  
C35  22725871.457   118339356.600        1910.309          25.000  
C40  36103572.667   188000776.321         -27.876          42.000  
C45  21980378.451   114457592.329       -1243.704          28.000  
E31  23525317.212   123626161.465        -445.744          32.000  
E33  23927434.832   125739540.400        -566.828          30.000  
G01  20500285.098   107729559.048        1076.526          33.000  
G02  21208891.640   111453302.200       -1629.249          36.000  
G07  21691520.623   113989603.5731      -2320.437          20.000  
G08  22133417.404   116311712.722       -2513.372          38.000  
G14  21674458.235   113900023.042        2547.736          37.000  
G17  22639247.925   118969802.8061       2153.681          16.000  
G22  23497451.803   123479887.1421       2722.634          18.000  
G30  21359326.896   112244005.507        -518.431          31.000  
J02  38780486.978   203792728.667         618.741          36.000  
> 2025 04 08 03 04 14.0001381  0 20                     
C06  37384204.635   194669401.747       -1496.882          23.000  
C07  36033105.381   187633753.672         166.044          39.000  
C09  36825987.481   191762529.571       -1042.746          26.000  
C10  37017706.556   192760859.438         277.470          35.000  
C26  23172063.495   120662942.458        1936.053          36.000  
C29  21839807.697   113725610.352       -1239.218          35.000  
C35  22725501.044   118337434.875        1910.200          27.000  
C40  36103577.595   188000791.455         -24.735          42.000  
C45  21980619.015   114458820.927       -1237.550          31.000  
E31  23525403.683   123626594.949        -444.818          33.000  
E33  23927545.886   125740096.137        -566.420          31.000  
G01  20500077.773   107728467.995        1083.079          35.000  
G02  21209199.058   111454915.404       -1626.600          37.000  
G07  21691962.048   113991920.209       -2330.013          23.000  
G08  22133893.306   116314208.135       -2509.706          38.000  
G14  21673972.402   113897460.145        2553.943          38.000  
G17  22638839.139   118967902.0221       2160.312          16.000  
G22  23496939.289   123477178.567        2696.011          23.000  
G30  21359423.560   112244510.593        -516.402          33.000  
J02  38780367.491   203792094.855         625.119          35.000  
> 2025 04 08 03 04 15.0000771  0 20                     
C06  37384520.804   194671038.077       -1496.505          21.000  
C07  36033101.672   187633727.581         166.181          39.000  
C09  36826218.508   191763712.198       -1041.338          25.000  
C10  37017682.161   192760722.691         276.455          35.000  
C26  23171719.521   120661147.491        1935.785          36.000  
C29  21840076.199   113726988.943       -1239.757          36.000  
C35  22725157.969   118335665.134        1910.507          26.000  
C40  36103610.459   188000953.990         -23.527          42.000  
C45  21980883.020   114460196.183       -1233.785          29.000  
E31  23525515.693   123627176.159        -440.888          32.000  
E33  23927677.382   125740800.920        -564.558          31.000  
G01  20499898.384   107727526.368        1081.145          36.000  
G02  21209535.913   111456684.516       -1627.263          37.000  
G07  21692436.807   113994389.5641      -2327.888          19.000  
G08  22134397.444   116316858.251       -2509.529          36.000  
G14  21673513.907   113895049.621        2550.299          37.000  
G17  22638460.089   118965883.1171       2160.687          14.000  
G22  23496453.512   123474623.251        2695.167          25.000  
G30  21359549.061   112245165.780        -514.176          33.000  
J02  38780276.842   203791610.563         625.146          35.000  
> 2025 04 08 03 04 16.0000160  0 20                     
C06  37384810.572   194672517.0991      -1494.304          19.000  
C07  36033068.263   187633546.796         165.749          39.000  
C09  36826414.741   191764735.591       -1037.813          23.000  
C10  37017627.767   192760431.405         278.244          33.000  
C26  23171345.849   120659197.700        1935.615          34.000  
C29  21840312.604   113728212.820       -1241.689          35.000  
C35  22724792.691   118333738.905        1912.077          24.000  
C40  36103613.626   188000963.655         -24.749          41.000  
C45  21981120.624   114461415.071       -1239.077          29.000  
E31  23525599.804   123627601.040        -442.470          32.000  
E33  23927790.273   125741350.095        -565.166          31.000  
G01  20499691.097   107726430.216        1081.528          35.000  
G02  21209843.668   111458294.236       -1626.524          36.000  
G07  21692877.371   113996695.4611      -2321.072          17.000  
G08  22134872.184   116319350.406       -2509.115          35.000  
G14  21673027.513   113892484.564        2550.932          36.000  
G17  22638050.142   118963707.5481       2161.063          17.000  
G22  23495940.137   123471914.225        2693.930          28.000  
G30  21359646.062   112245663.882        -514.001          32.000  
J02  38780157.093   203790970.630         624.806          34.000  
> 2025 04 08 03 04 16.9999549  0 20                     
C06  37385099.815   194673999.1181      -1493.189          19.000  
C07  36033033.431   187633369.394         166.741          37.000  
C09  36826612.548   191765759.831       -1036.980          22.000  
C10  37017573.149   192760140.227         282.070          33.000  
C26  23170972.851   120657250.016        1937.869          35.000  
C29  21840548.484   113729442.860       -1239.940          35.000  
C35  22724426.288   118331815.955        1911.854          24.000  
C40  36103617.167   188000975.301         -23.175          41.000  
C45  21981358.004   114462643.479       -1244.515          28.000  
E31  23525685.188   123628309.992        -442.175          32.000  
E33  23927892.446   125741903.938        -565.789          30.000  
G01  20499484.184   107725338.371        1079.811          35.000  
G02  21210152.998   111459907.454       -1626.741          36.000  
G07  21693317.710   113999002.8951      -2319.690          19.000  
G08  22135349.698   116321849.821       -2511.609          36.000  
G14  21672541.493   113889921.578        2553.221          37.000  
G17  22637645.965   118961535.9311       2159.988          15.000  
G22  23495427.735   123469208.314        2695.843          26.000  
G30  21359742.839   112246165.351        -512.918          31.000  
J02  38780037.420   203790334.340         625.268          34.000  
> 2025 04 08 03 04 17.9998939  0 20                     
C06  37385414.166   194675629.3671      -1491.777          19.000  
C07  36033031.202   187633342.366         165.886          38.000  
C09  36826837.561   191766935.448       -1036.976          21.000  
C10  37017547.835   192759999.371         278.395          33.000  
C26  23170629.457   120655449.434        1940.507          33.000  
C29  21840816.967   113730820.270       -1239.012          35.000  
C35  22724090.689   118330044.605        1910.614          23.000  
C40  36103649.114   188001138.029         -23.811          42.000  
C45  21981625.587   114464027.293       -1244.350          26.000  
E31  23525796.580   123628891.687        -442.278          32.000  
E33  23928035.616   125742607.783        -565.406          30.000  
G01  20499306.875   107724400.574        1078.229          34.000  
G02  21210492.831   111461677.307       -1629.561          35.000  
G07  21693788.852   114001463.6961      -2318.888          18.000  
G08  22135855.316   116324500.044       -2511.192          36.000  
G14  21672083.579   113887509.908        2551.833          35.000  
G17  22637266.297   118959518.1921       2146.805          16.000  
G22  23494944.039   123466653.207        2696.309          26.000  
G30  21359869.520   112246818.045        -512.701          29.000  
J02  38779945.253   203789850.449         623.181          34.000  
> 2025 04 08 03 04 18.9998328  0 20                     
C06  37385703.972   194677104.7271      -1490.973          19.000  
C07  36032999.330   187633163.151         165.577          38.000  
C09  36827031.133   191767958.093       -1038.381          21.000  
C10  37017494.378   192759706.758         278.027          31.000  
C26  23170257.321   120653499.169        1932.579          33.000  
C29  21841055.508   113732048.487       -1242.381          36.000  
C35  22723725.448   118328401.027        1909.607          22.000  
C40  36103651.718   188001147.238         -25.231          41.000  
C45  21981865.328   114465255.407       -1241.562          26.000  
E31  23525874.732   123629320.086        -443.638          33.000  
E33  23928135.653   125743159.057        -567.737          30.000  
G01  20499100.224   107723306.420        1081.751          34.000  
G02  21210801.524   111463292.680       -1630.604          35.000  
G07  21694229.754   114003771.5811      -2323.856          17.000  
G08  22136331.293   116326997.167       -2512.290          34.000  
G14  21671597.222   113884945.745        2549.779          36.000  
G17  22636860.584   118957357.3391       2146.113          16.000  
G22  23494430.700   123463942.893        2695.447          23.000  
G30  21359967.159   112247317.225        -525.362          30.000  
J02  38779824.942   203789212.713         624.257          35.000  
> 2025 04 08 03 04 19.9997717  0 20                     
C06  37385976.015   194678584.7141      -1490.660          19.000  
C07  36032966.484   187632984.755         167.294          39.000  
C09  36827229.427   191768984.871       -1038.323          24.000  
C10  37017438.448   192759417.544         278.755          33.000  
C26  23169885.410   120651554.617        1935.426          34.000  
C29  21841290.077   113733278.456       -1241.019          35.000  
C35  22723353.837   118326479.932        1909.563          24.000  
C40  36103655.447   188001158.139         -23.571          41.000  
C45  21982099.597   114466482.143       -1239.812          28.000  
E31  23525958.805   123629751.708        -443.213          32.000  
E33  23928243.109   125743713.973        -568.173          30.000  
G01  20498893.799   107722215.300        1077.900          36.000  
G02  21211110.441   111464908.107       -1629.039          35.000  
G07  21694667.282   114006082.514       -2324.639          24.000  
G08  22136808.094   116329494.522       -2510.493          36.000  
G14  21671111.089   113882383.262        2549.958          35.000  
G17  22636454.196   118955199.803        2145.866          22.000  
G22  23493912.490   123461234.505        2709.673          25.000  
G30  21360067.121   112247826.496        -518.576          32.000  
J02  38779704.557   203788576.978         625.574          34.000  
> 2025 04 08 03 04 20.9997107  0 19                     
C06  37386294.226   194680214.1411      -1490.841          19.000  
C07  36032961.519   187632960.633         163.083          39.000  
C09  36827457.101   191770162.595       -1038.476          23.000  
C10  37017412.497   192759281.593         275.346          34.000  
C26  23169542.278   120649761.266        1931.985          36.000  
C29  21841555.824   113734660.143       -1244.492          36.000  
C35  22723014.303   118324711.485        1909.280          23.000  
C40  36103688.855   188001324.852         -27.925          41.000  
C45  21982363.545   114467862.634       -1239.774          26.000  
E31  23526074.956   123630336.840        -445.458          33.000  
E33  23928378.147   125744425.935        -570.511          31.000  
G01  20498717.952   107721281.462        1073.783          34.000  
G02  21211447.539   111466680.735       -1633.104          37.000  
G07  21695139.586   114008550.613       -2325.615          24.000  
G08  22137314.875   116332148.943       -2516.044          37.000  
G14  21670654.937   113879976.425        2547.948          36.000  
G17  22636079.887   118953196.907        2145.248          24.000  
G22  23493426.358   123458666.228        2712.022          26.000  
J02  38779614.450   203788096.300         620.742          34.000  
> 2025 04 08 03 04 21.9996496  0 20                     
C06  37386573.632   194681690.2051      -1490.881          19.000  
C07  36032927.642   187632782.380         165.817          38.000  
C09  36827654.064   191771187.962       -1040.073          22.000  
C10  37017359.134   192758991.981         276.674          32.000  
C26  23169168.137   120647815.874        1932.503          34.000  
C29  21841794.459   113735890.383       -1242.511          38.000  
C35  22722647.058   118322788.649        1909.287          22.000  
C40  36103692.153   188001335.669         -24.301          41.000  
C45  21982600.981   114469087.752       -1239.988          26.000  
E31  23526158.598   123630769.170        -444.814          34.000  
E33  23928486.972   125744981.212        -570.967          28.000  
G01  20498511.994   107720193.584        1074.180          33.000  
G02  21211757.225   111468298.955       -1632.364          36.000  
G07  21695583.279   114010859.753       -2326.152          24.000  
G08  22137791.545   116334649.416       -2511.724          36.000  
G14  21670168.373   113877413.294        2549.108          35.000  
G17  22635679.664   118951037.292        2149.955          24.000  
G22  23492911.914   123455942.648        2697.332          28.000  
G30  21360288.199   112248986.7691       -516.528          29.000  
J02  38779495.133   203787459.857         622.733          35.000  
> 2025 04 08 03 04 22.9995885  0 20                     
C06  37386859.634   194683167.7271      -1491.609          19.000  
C07  36032893.765   187632602.306         167.407          38.000  
C09  36827848.929   191772212.058       -1041.209          21.000  
C10  37017304.572   192758700.284         279.974          33.000  
C26  23168794.296   120645866.478        1937.812          33.000  
C29  21842031.295   113737118.699       -1241.396          38.000  
C35  22722278.313   118320865.445        1909.556          22.000  
C40  36103695.450   188001344.738         -23.007          40.000  
C45  21982835.418   114470312.080       -1240.611          24.000  
E31  23526239.842   123631197.242        -444.494          33.000  
E33  23928596.696   125745537.026        -568.278          28.000  
G01  20498306.037   107719106.944        1071.941          32.000  
G02  21212065.112   111469913.170       -1630.865          36.000  
G07  21696027.272   114013173.025       -2339.897          24.000  
G08  22138267.315   116337143.146       -2509.780          37.000  
G14  21669680.611   113874847.911        2553.265          35.000  
G17  22635274.344   118949168.630        2149.273          24.000  
G22  23492400.768   123453232.046        2697.968          30.000  
G30  21360385.332   112249489.945        -518.833          30.000  
J02  38779373.417   203786822.320         623.124          34.000  
> 2025 04 08 03 04 23.9995275  0 20                     
C06  37387177.208   194684801.5271      -1490.919          18.000  
C07  36032890.861   187632577.415         168.213          37.000  
C09  36828080.163   191773397.812       -1040.951          20.000  
C10  37017279.183   192758562.981         281.870          30.000  
C26  23168449.329   120644071.251        1941.999          31.000  
C29  21842297.605   113738502.691       -1240.369          36.000  
C35  22721942.939   118319100.042        1909.739          21.000  
C40  36103728.521   188001509.553         -21.938          40.000  
C45  21983104.726   114471697.752       -1242.471          25.000  
E31  23526355.955   123631788.574        -447.259          32.000  
E33  23928729.897   125746252.193        -569.764          30.000  
G01  20498131.052   107718179.802        1072.632          33.000  
G02  21212403.971   111471690.090       -1632.498          37.000  
G07  21696501.637   114015656.640       -2322.593          25.000  
G08  22138773.159   116339798.608       -2513.349          37.000  
G14  21669222.922   113872437.243        2557.866          33.000  
G17  22634896.700   118947165.287        2143.941          24.000  
G22  23491915.498   123450676.412        2704.575          30.000  
G30  21360511.338   112250156.850        -522.298          29.000  
J02  38779283.873   203786344.595         622.270          33.000  
> 2025 04 08 03 04 24.9994664  0 20                     
C06  37387461.992   194686278.9051      -1492.337          18.000  
C07  36032856.966   187632395.245         167.791          39.000  
C09  36828279.806   191774423.511       -1040.433          22.000  
C10  37017221.904   192758265.816         283.871          32.000  
C26  23168076.368   120642112.608        1946.336          31.000  
C29  21842537.120   113739729.971       -1243.033          37.000  
C35  22721572.976   118317176.296        1910.177          23.000  
C40  36103730.002   188001516.510         -21.582          40.000  
C45  21983341.843   114472926.725       -1245.304          28.000  
E31  23526434.182   123632223.007        -447.608          32.000  
E33  23928836.305   125746809.122        -572.613          32.000  
G01  20497924.776   107717094.375        1068.894          36.000  
G02  21212712.139   111473308.635       -1634.834          38.000  
G07  21696932.120   114017968.886       -2334.108          34.000  
G08  22139250.110   116342297.348       -2514.203          35.000  
G14  21668733.342   113869863.526        2561.276          33.000  
G17  22634494.359   118945007.132        2144.389          24.000  
G22  23491400.436   123447950.211        2718.774          27.000  
G30  21360609.052   112250662.344        -519.851          28.000  
J02  38779165.136   203785710.533         618.051          32.000  
> 2025 04 08 03 04 26.0004053  0 20                     
C06  37387763.452   194687858.8401      -1497.890          19.000  
C07  36032842.745   187632308.382         171.317          39.000  
C09  36828494.926   191775545.722       -1039.331          25.000  
C10  37017185.498   192758065.054         283.970          36.000  
C26  23167721.583   120640248.409        1942.980          32.000  
C29  21842792.112   113741058.961       -1242.686          37.000  
C35  22721219.090   118315346.714        1910.960          25.000  
C40  36103750.856   188001618.187         -19.373          41.000  
C45  21983598.334   114474255.546       -1247.286          29.000  
E31  23526541.077   123632752.057        -447.644          33.000  
E33  23928960.288   125747464.286        -575.070          29.000  
G01  20497737.574   107716107.856        1068.291          36.000  
G02  21213039.981   111475027.584       -1634.971          36.000  
G07  21697391.271   114020387.957       -2334.059          34.000  
G08  22139746.435   116344896.184       -2515.609          36.000  
G14  21668261.637   113867384.918        2559.562          37.000  
G17  22634107.196   118942942.047        2148.301          24.000  
G22  23490902.649   123445307.680        2729.750          24.000  
G30  21360725.840   112251261.993        -516.501          33.000  
J02  38779064.875   203785173.114         620.749          33.000  
> 2025 04 08 03 04 27.0003442  0 20                     
C06  37388045.389   194689337.5561      -1498.290          19.000  
C07  36032807.200   187632120.762         171.544          40.000  
C09  36828695.019   191776567.217       -1038.060          24.000  
C10  37017127.470   192757763.892         284.439          35.000  
C26  23167345.174   120638290.280        1942.612          34.000  
C29  21843028.180   113742284.027       -1242.585          36.000  
C35  22720852.275   118313418.744        1912.283          23.000  
C40  36103753.086   188001621.164         -19.705          41.000  
C45  21983835.301   114475484.877       -1247.662          30.000  
E31  23526625.150   123633182.543        -448.094          34.000  
E33  23929072.841   125748022.076        -574.660          30.000  
G01  20497532.048   107715022.021        1069.376          36.000  
G02  21213349.797   111476644.023       -1633.367          37.000  
G07  21697832.997   114022704.793       -2333.293          32.000  
G08  22140222.337   116347393.632       -2513.854          38.000  
G14  21667774.006   113864808.125        2560.441          37.000  
G17  22633702.008   118940775.709        2150.881          25.000  
G22  23490383.540   123442560.352        2710.711          27.000  
G30  21360822.204   112251759.568        -512.421          32.000  
J02  38778943.590   203784535.509         620.052          35.000  
> 2025 04 08 03 04 28.0002832  0 20                     
C06  37388369.726   194690977.7661      -1498.223          19.000  
C07  36032802.366   187632091.745         170.574          40.000  
C09  36828925.222   191777745.932       -1038.329          23.000  
C10  37017102.250   192757620.978         285.053          35.000  
C26  23167003.074   120636489.329        1940.958          34.000  
C29  21843295.258   113743668.774       -1243.160          36.000  
C35  22720514.371   118311643.656        1917.845          22.000  
C40  36103786.325   188001782.126         -19.457          41.000  
C45  21984101.779   114476873.776       -1248.346          31.000  
E31  23526735.136   123633772.894        -447.762          34.000  
E33  23929208.010   125748738.304        -574.143          32.000  
G01  20497357.231   107714097.503        1067.541          34.000  
G02  21213689.425   111478690.059       -1635.684          36.000  
G07  21698304.832   114025179.140       -2333.382          31.000  
G08  22140730.148   116350321.638       -2513.730          36.000  
G14  21667314.986   113862390.426        2560.605          37.000  
G17  22633327.829   118938767.313        2139.341          25.000  
G22  23489899.337   123439994.020        2707.203          29.000  
G30  21360948.679   112252413.474        -513.637          31.000  
J02  38778854.814   203784059.059         620.021          35.000  
> 2025 04 08 03 04 29.0002221  0 20                     
C06  37388655.597   194692456.3411      -1493.593          19.000  
C07  36032769.857   187631908.385         171.242          40.000  
C09  36829121.455   191778769.346       -1038.699          22.000  
C10  37017048.456   192757323.363         284.182          34.000  
C26  23166628.202   120634536.011        1940.495          34.000  
C29  21843531.363   113744899.522       -1244.816          36.000  
C35  22720145.196   118309713.747        1915.858          20.000  
C40  36103788.592   188001787.255         -20.802          41.000  
C45  21984341.182   114478109.016       -1248.262          30.000  
E31  23526819.547   123634207.342        -449.650          33.000  
E33  23929317.903   125749297.447        -575.376          31.000  
G01  20497152.042   107713016.984        1068.800          35.000  
G02  21213998.679   111480311.803       -1635.457          37.000  
G07  21698748.094   114027498.338       -2332.609          31.000  
G08  22141208.485   116352823.799       -2515.258          38.000  
G14  21666826.793   113859817.451        2559.740          37.000  
G17  22632922.978   118936613.749        2141.994          26.000  
G22  23489381.764   123437272.654        2709.339          30.000  
G30  21361046.580   112252913.389        -512.278          29.000  
J02  38778733.866   203783425.494         619.943          35.000  
> 2025 04 08 03 04 30.0001610  0 20                     
C06  37388937.833   194693935.3651      -1496.535          20.000  
C07  36032733.714   187631721.495         172.914          40.000  
C09  36829314.652   191779794.002       -1039.741          24.000  
C10  37016989.827   192757023.408         287.170          35.000  
C26  23166253.293   120632578.140        1945.810          34.000  
C29  21843768.330   113746128.311       -1243.401          35.000  
C35  22719777.781   118307784.0871       1914.045          19.000  
C40  36103790.522   188001791.877         -17.599          41.000  
C45  21984581.447   114479340.385       -1248.708          30.000  
E31  23526903.920   123634641.204        -449.561          32.000  
E33  23929414.267   125749857.738        -576.745          30.000  
G01  20496947.115   107711935.574        1064.808          36.000  
G02  21214309.096   111481933.010       -1637.637          37.000  
G07  21699189.520   114029815.659       -2335.913          35.000  
G08  22141683.488   116355322.212       -2516.293          39.000  
G14  21666337.063   113857241.823        2562.842          35.000  
G17  22632518.690   118934456.569        2143.036          24.000  
G22  23488865.953   123434822.805        2713.897          31.000  
G30  21361145.643   112253411.318        -517.303          31.000  
J02  38778615.280   203782791.399         618.139          34.000  
> 2025 04 08 03 04 31.0001000  0 20                     
C06  37389246.301   194695577.150       -1500.535          20.000  
C07  36032729.498   187631692.729         171.679          40.000  
C09  36829545.474   191780977.477       -1042.135          26.000  
C10  37016961.928   192756878.942         288.466          35.000  
C26  23165908.513   120630774.544        1948.163          35.000  
C29  21844035.127   113747516.928       -1246.840          35.000  
C35  22719440.496   118306018.915        1908.319          21.000  
C40  36103822.581   188001952.047         -20.131          41.000  
C45  21984847.344   114480733.029       -1251.505          29.000  
E31  23527016.623   123635237.326        -452.505          33.000  
E33  23929558.149   125750580.780        -580.943          32.000  
G01  20496773.816   107711018.384        1059.255          35.000  
G02  21214650.241   111483715.060       -1642.779          38.000  
G07  21699661.375   114032298.104       -2338.228          34.000  
G08  22142191.317   116357986.380       -2522.107          40.000  
G14  21665878.962   113854821.808        2567.076          34.000  
G17  22632143.331   118932458.681        2142.159          24.000  
G22  23488377.272   123432251.483        2719.326          29.000  
G30  21361270.338   112254074.260        -518.286          33.000  
J02  38778527.721   203782320.566         612.673          34.000  
> 2025 04 08 03 04 32.0000389  0 20                     
C06  37389534.814   194697064.731       -1503.487          21.000  
C07  36032695.134   187631505.784         173.722          39.000  
C09  36829747.946   191782004.188       -1043.831          25.000  
C10  37016905.679   192756575.648         290.118          34.000  
C26  23165531.786   120628810.195        1952.638          34.000  
C29  21844275.373   113748750.036       -1247.641          38.000  
C35  22719071.564   118304095.501        1909.287          23.000  
C40  36103824.193   188001956.459         -17.486          41.000  
C45  21985086.092   114481971.649       -1254.754          28.000  
E31  23527102.476   123635676.937        -456.240          31.000  
E33  23929669.185   125751144.922        -583.500          30.000  
G01  20496570.669   107709948.209        1053.426          32.000  
G02  21214960.938   111485344.741       -1644.646          38.000  
G07  21700104.580   114034622.594       -2341.411          31.000  
G08  22142669.899   116360492.713       -2523.696          40.000  
G14  21665388.314   113852238.743        2572.077          33.000  
G17  22631739.323   118930592.748        2140.176          22.000  
G22  23487858.744   123429514.618        2726.175          29.000  
G30  21361367.583   112254573.860        -513.940          32.000  
J02  38778409.416   203781695.491         609.438          34.000  
> 2025 04 08 03 04 32.9999778  0 20                     
C06  37389825.406   194698555.454       -1504.565          23.000  
C07  36032660.452   187631317.045         179.019          38.000  
C09  36829948.001   191783035.700       -1042.680          23.000  
C10  37016849.112   192756270.226         296.593          33.000  
C26  23165155.940   120626841.642        1961.032          34.000  
C29  21844515.300   113749985.545       -1246.322          38.000  
C35  22718706.511   118302172.722        1913.136          23.000  
C40  36103825.785   188001957.001         -12.322          39.000  
C45  21985324.221   114483214.479       -1253.142          27.000  
E31  23527189.809   123636122.344        -455.994          32.000  
E33  23929783.200   125751715.775        -585.379          29.000  
G01  20496369.303   107709147.019        1052.869          32.000  
G02  21215272.816   111486972.789       -1641.696          38.000  
G07  21700549.266   114036951.312       -2342.392          29.000  
G08  22143147.861   116363002.695       -2522.601          40.000  
G14  21664896.148   113849651.162        2579.895          33.000  
G17  22631332.598   118928441.684        2139.602          21.000  
G22  23487336.299   123426772.120        2735.088          30.000  
G30  21361465.409   112255071.441        -506.496          30.000  
J02  38778292.291   203781073.704         610.063          34.000  
> 2025 04 08 03 04 33.9999168  0 20                     
C06  37390147.833   194700202.483       -1504.933          25.000  
C07  36032654.606   187631282.071         175.888          36.000  
C09  36830183.188   191784219.176       -1042.030          23.000  
C10  37016818.983   192756116.141         296.568          31.000  
C26  23164809.230   120625022.800        1962.526          33.000  
C29  21844781.366   113751372.757       -1244.845          38.000  
C35  22718370.593   118300401.183        1915.856          27.000  
C40  36103857.413   188002113.179         -14.697          38.000  
C45  21985596.582   114484612.323       -1257.816          30.000  
E31  23527304.780   123636720.004        -455.706          32.000  
E33  23929922.453   125752444.466        -584.571          29.000  
G01  20496198.271   107708237.992        1054.158          33.000  
G02  21215612.931   111488759.594       -1642.952          38.000  
G07  21701025.486   114039436.386       -2343.322          27.000  
G08  22143656.459   116365669.196       -2523.876          36.000  
G14  21664433.419   113847215.896        2577.321          36.000  
G17  22630954.110   118926441.099        2144.574          24.000  
G22  23486843.590   123424179.201        2738.636          31.000  
G30  21361592.671   112255719.893        -507.886          29.000  
J02  38778203.702   203780607.882         609.832          34.000  
> 2025 04 08 03 04 34.9998557  0 20                     
C06  37390436.908   194701690.768       -1505.819          23.000  
C07  36032618.406   187631090.528         176.445          37.000  
C09  36830379.627   191785245.231       -1040.235          27.000  
C10  37016762.397   192755805.389         294.537          29.000  
C26  23164434.864   120623048.377        1956.478          32.000  
C29  21845018.277   113752602.582       -1244.912          39.000  
C35  22718000.424   118298469.313        1917.830          28.000  
C40  36103858.987   188002112.135         -14.960          40.000  
C45  21985840.088   114485854.614       -1260.412          30.000  
E31  23527386.698   123637160.327        -454.342          34.000  
E33  23930024.757   125753011.343        -583.955          30.000  
G01  20495995.686   107707167.266        1057.397          37.000  
G02  21215924.490   111490386.305       -1642.197          36.000  
G07  21701470.154   114041765.074       -2345.828          27.000  
G08  22144135.303   116368176.947       -2521.865          34.000  
G14  21663942.134   113844624.020        2573.681          35.000  
G17  22630545.268   118924287.633        2138.133          23.000  
G22  23486323.825   123421426.598        2725.112          29.000  
G30  21361690.778   112256214.032        -510.957          28.000  
J02  38778084.459   203779982.964         611.738          33.000  
> 2025 04 08 03 04 35.9997946  0 20                     
C06  37390728.344   194703182.234       -1504.918          24.000  
C07  36032583.368   187630903.239         173.626          39.000  
C09  36830573.631   191786270.315       -1040.021          29.000  
C10  37016704.875   192755500.521         290.215          34.000  
C26  23164060.461   120621082.947        1949.495          32.000  
C29  21845257.249   113753836.971       -1245.533          36.000  
C35  22717624.522   118296540.660        1914.663          29.000  
C40  36103861.423   188002114.708         -16.770          41.000  
C45  21986078.761   114487100.621       -1257.180          30.000  
E31  23527476.373   123637599.480        -453.096          33.000  
E33  23930139.615   125753580.262        -581.918          29.000  
G01  20495792.464   107706096.751        1059.684          36.000  
G02  21216236.012   111492013.229       -1641.214          34.000  
G07  21701915.982   114044097.093       -2341.809          29.000  
G08  22144613.809   116370681.941       -2517.246          35.000  
G14  21663453.210   113842040.085        2571.004          34.000  
G17  22630062.640   118921781.330        2137.784          24.000  
G22  23485805.521   123418688.456        2726.562          29.000  
G30  21361787.648   112256715.538        -519.346          33.000  
J02  38777966.379   203779357.244         615.783          33.000  
> 2025 04 08 03 04 36.9997336  0 20                     
C06  37391043.369   194704828.547       -1503.719          24.000  
C07  36032578.215   187630872.438         171.347          39.000  
C09  36830799.318   191787452.712       -1041.433          29.000  
C10  37016680.535   192755354.940         285.502          35.000  
C26  23163712.645   120619279.780        1941.776          35.000  
C29  21845524.308   113755223.047       -1244.776          34.000  
C35  22717287.199   118294769.982        1911.139          28.000  
C40  36103893.145   188002273.130         -19.750          40.000  
C45  21986344.620   114488495.903       -1253.902          31.000  
E31  23527585.442   123638193.533        -452.314          32.000  
E33  23930281.961   125754305.994        -580.405          29.000  
G01  20495619.128   107705179.032        1060.294          36.000  
G02  21216577.719   111493796.694       -1641.094          35.000  
G07  21702389.898   114046578.451       -2338.798          30.000  
G08  22145120.102   116373340.699       -2517.894          38.000  
G14  21662991.473   113839616.390        2562.768          36.000  
G17  22629688.443   118919787.9101       2136.088          18.000  
G22  23485315.904   123416105.628        2725.058          28.000  
G30  21361913.805   112257378.919        -521.614          35.000  
J02  38777876.685   203778883.269         617.615          31.000  
> 2025 04 08 03 04 37.9996725  0 20                     
C06  37391328.884   194706315.451       -1501.981          23.000  
C07  36032542.652   187630686.461         173.619          39.000  
C09  36831000.591   191788479.075       -1041.778          30.000  
C10  37016623.687   192755054.921         288.191          35.000  
C26  23163336.818   120617324.110        1943.409          35.000  
C29  21845764.255   113756457.379       -1246.718          37.000  
C35  22716920.666   118292846.700        1911.126          27.000  
C40  36103895.356   188002277.822         -18.260          40.000  
C45  21986585.166   114489734.818       -1251.036          30.000  
E31  23527673.993   123638630.638        -451.762          33.000  
E33  23930385.202   125754872.451        -579.959          33.000  
G01  20495415.981   107704106.366        1058.904          36.000  
G02  21216887.817   111495422.691       -1641.248          38.000  
G07  21702832.204   114048902.970       -2338.737          28.000  
G08  22145597.484   116375844.947       -2517.888          36.000  
G14  21662502.024   113837040.664        2562.932          37.000  
G17  22629288.632   118917639.1101       2135.034          17.000  
G22  23484798.275   123413367.772        2723.637          25.000  
G30  21362010.750   112257886.070        -521.002          34.000  
J02  38777756.280   203778251.625         618.236          33.000  
> 2025 04 08 03 04 38.9996114  0 20                     
C06  37391619.046   194707802.851       -1510.650          22.000  
C07  36032509.937   187630497.862         173.463          39.000  
C09  36831199.016   191789505.147       -1040.719          29.000  
C10  37016567.289   192754751.356         290.091          35.000  
C26  23162961.440   120615365.415        1945.614          35.000  
C29  21845998.955   113757687.693       -1245.672          38.000  
C35  22716550.984   118290920.445        1914.516          28.000  
C40  36103896.817   188002279.574         -17.517          40.000  
C45  21986824.663   114490970.796       -1251.526          28.000  
E31  23527758.197   123639069.000        -452.036          33.000  
E33  23930499.985   125755436.223        -581.025          33.000  
G01  20495213.884   107703032.886        1058.617          34.000  
G02  21217198.064   111497050.052       -1642.092          39.000  
G07  21703278.258   114051496.310       -2335.774          26.000  
G08  22146077.115   116378349.189       -2518.174          35.000  
G14  21662013.625   113834460.269        2568.166          37.000  
G17  22628890.170   118915490.676        2133.495          20.000  
G22  23484278.098   123410631.865        2719.690          25.000  
G30  21362107.546   112258389.620        -516.789          33.000  
J02  38777638.125   203777618.915         617.691          32.000  
> 2025 04 08 03 04 39.9995504  0 20                     
C06  37391939.430   194709452.961       -1510.717          23.000  
C07  36032503.548   187630465.037         173.604          38.000  
C09  36831430.063   191790684.543       -1042.049          27.000  
C10  37016539.914   192754601.234         291.444          32.000  
C26  23162616.885   120613824.245        1947.304          35.000  
C29  21846267.175   113759075.374       -1247.688          38.000  
C35  22716212.425   118289146.538        1914.703          27.000  
C40  36103928.502   188002436.319         -17.818          40.000  
C45  21987092.584   114492364.149       -1256.071          29.000  
E31  23527870.825   123639661.810        -453.787          32.000  
E33  23930638.095   125756160.457        -582.092          31.000  
G01  20495042.309   107702120.430        1050.030          32.000  
G02  21217539.135   111498833.255       -1643.952          38.000  
G07  21703751.837   114053971.100       -2336.039          24.000  
G08  22146583.970   116381008.245       -2520.253          35.000  
G14  21661553.650   113832035.452        2564.557          38.000  
G17  22628519.533   118913499.0881       2132.668          19.000  
G22  23483789.342   123408057.379        2715.913          25.000  
G30  21362235.463   112259044.073        -513.421          31.000  
J02  38777549.292   203777144.194         615.595          32.000  
> 2025 04 08 03 04 40.9994893  0 20                     
C06  37392225.638   194710947.203       -1510.042          21.000  
C07  36032468.978   187630276.076         173.160          37.000  
C09  36831623.935   191791712.458       -1042.516          27.000  
C10  37016481.660   192754295.458         290.931          31.000  
C26  23162242.051   120611861.617        1946.915          34.000  
C29  21846503.918   113760307.342       -1247.846          37.000  
C35  22715843.286   118287215.954        1917.203          27.000  
C40  36103929.907   188002438.321         -17.262          40.000  
C45  21987332.624   114493606.095       -1261.306          28.000  
E31  23527958.871   123640101.452        -453.235          32.000  
E33  23930742.629   125756726.006        -583.075          31.000  
G01  20494841.654   107701056.963        1049.220          31.000  
G02  21217849.626   111500460.026       -1643.703          38.000  
G07  21704195.436   114056292.952       -2337.205          21.000  
G08  22147061.446   116383510.848       -2517.637          36.000  
G14  21661064.595   113829455.670        2565.081          37.000  
G17  22628119.217   118911346.1631       2137.708          20.000  
G22  23483271.507   123405326.328        2716.811          28.000  
G30  21362334.001   112259822.683        -518.365          31.000  
J02  38777431.081   203776514.139         615.608          33.000  
> 2025 04 08 03 04 42.0004282  0 20                     
C06  37392533.731   194712540.494       -1509.819          23.000  
C07  36032452.996   187630186.354         170.839          36.000  
C09  36831844.488   191792837.111       -1044.440          27.000  
C10  37016444.093   192754089.607         284.786          31.000  
C26  23161886.104   120609997.509        1940.293          33.000  
C29  21846761.346   113761639.135       -1246.573          37.000  
C35  22715491.836   118285380.669        1913.319          27.000  
C40  36103950.499   188002538.604         -19.112          41.000  
C45  21987591.851   114494952.763       -1263.063          28.000  
E31  23528055.910   123640637.679        -452.734          32.000  
E33  23930874.744   125757390.961        -581.221          33.000  
G01  20494657.488   107700086.955        1058.472          32.000  
G02  21218179.903   111502187.117       -1641.471          37.000  
G07  21704661.219   114058721.299       -2344.663          21.000  
G08  22147557.809   116386112.675       -2514.224          39.000  
G14  21660594.126   113826974.362        2558.170          36.000  
G17  22627737.187   118909560.5221       2135.856          20.000  
G22  23482771.659   123402691.597        2714.237          25.000  
G30  21362449.028   112260425.823        -523.868          31.000  
J02  38777330.556   203776247.331         619.055          33.000  
> 2025 04 08 03 04 43.0003671  0 20                     
C06  37392818.309   194714035.378       -1511.191          23.000  
C07  36032418.295   187630002.198         167.342          38.000  
C09  36832041.527   191793865.240       -1042.157          27.000  
C10  37016387.207   192753792.637         281.804          30.000  
C26  23161512.038   120608048.401        1931.299          32.000  
C29  21846998.556   113762872.670       -1246.996          36.000  
C35  22715124.066   118283458.703        1904.253          27.000  
C40  36103951.773   188002543.806         -21.545          41.000  
C45  21987833.259   114496201.820       -1265.978          26.000  
E31  23528143.824   123641070.478        -448.109          34.000  
E33  23930979.446   125757956.280        -578.233          34.000  
G01  20494451.605   107699010.230        1064.080          35.000  
G02  21218489.364   111503813.490       -1640.378          38.000  
G07  21705107.685   114061050.9041      -2346.049          17.000  
G08  22148032.455   116388610.203       -2512.427          38.000  
G14  21660106.739   113824405.182        2551.058          35.000  
G17  22627331.943   118907412.3551       2133.321          18.000  
G22  23482253.393   123399965.794        2710.170          20.000  
G30  21362549.533   112260939.257        -532.081          32.000  
J02  38777209.815   203775609.956         625.104          33.000  
> 2025 04 08 03 04 44.0003061  0 20                     
C06  37393142.422   194715688.669       -1512.460          22.000  
C07  36032414.435   187629977.331         166.616          38.000  
C09  36832269.107   191795047.760       -1039.755          26.000  
C10  37016360.263   192753655.551         278.941          33.000  
C26  23161172.110   120606262.625        1925.088          33.000  
C29  21847267.508   113764261.002       -1249.417          36.000  
C35  22714784.738   118281700.435        1897.545          26.000  
C40  36103985.087   188002707.963         -23.241          41.000  
C45  21988100.411   114497606.643       -1252.033          26.000  
E31  23528253.585   123641662.536        -449.286          34.000  
E33  23931117.388   125758679.520        -579.853          34.000  
G01  20494276.564   107698089.644        1064.120          34.000  
G02  21218831.165   111505595.124       -1641.258          39.000  
G07  21705581.695   114063527.6401      -2334.543          16.000  
G08  22148539.741   116391264.261       -2514.675          39.000  
G14  21659650.792   113822001.039        2546.332          35.000  
G17  22626956.041   118905427.9801       2127.490          17.000  
G22  23481770.165   123397405.2791       2701.789          18.000  
G30  21362678.182   112261614.880        -533.815          32.000  
J02  38777118.116   203775127.591         625.656          34.000  
> 2025 04 08 03 04 45.0002450  0 20                     
C06  37393436.500   194717185.3881      -1511.113          17.000  
C07  36032382.038   187630068.587         167.405          39.000  
C09  36832464.553   191796073.395       -1041.814          24.000  
C10  37016306.582   192753363.953         279.199          31.000  
C26  23160799.150   120604324.901        1924.002          33.000  
C29  21847504.025   113765496.405       -1246.556          38.000  
C35  22714416.874   118279791.502        1894.229          25.000  
C40  36103987.167   188002715.366         -22.527          41.000  
C45  21988341.425   114498843.764       -1250.771          26.000  
E31  23528340.506   123642095.385        -449.342          33.000  
E33  23931226.194   125759242.596        -578.688          33.000  
G01  20494072.986   107697011.781        1063.792          35.000  
G02  21219141.432   111507222.705       -1640.094          37.000  
G07  21706025.369   114065847.4361      -2335.442          16.000  
G08  22149016.093   116393762.361       -2512.389          40.000  
G14  21659164.210   113819439.979        2549.495          35.000  
G17  22626557.598   118903298.0801       2115.391          16.000  
G22  23481258.101   123394694.481        2694.864          24.000  
G30  21362776.795   112262133.575        -534.025          31.000  
J02  38776997.880   203774486.828         626.304          34.000  
> 2025 04 08 03 04 46.0001839  0 20                     
C06  37393728.835   194718957.9391      -1509.516          16.000  
C07  36032347.300   187629888.829         169.017          39.000  
C09  36832669.049   191797372.357       -1041.990          23.000  
C10  37016252.357   192753339.378         280.858          32.000  
C26  23160428.644   120602385.946        1929.868          33.000  
C29  21847744.496   113766730.883       -1248.199          38.000  
C35  22714053.263   118277882.998        1908.813          24.000  
C40  36103991.102   188002725.442         -22.744          41.000  
C45  21988579.498   114500081.516       -1251.212          25.000  
E31  23528422.087   123642532.377        -449.624          33.000  
E33  23931336.555   125759809.463        -580.091          32.000  
G01  20493869.165   107695937.332        1060.652          35.000  
G02  21219451.454   111508849.526       -1643.032          36.000  
G07  21706473.296   114068169.9211      -2336.542          17.000  
G08  22149493.100   116396261.861       -2514.153          38.000  
G14  21658678.284   113816879.062        2548.358          35.000  
G17  22626158.911   118901170.9171       2114.540          15.000  
G22  23480744.894   123391988.611        2693.166          22.000  
G30  21362877.263   112262654.215        -533.444          31.000  
J02  38776876.202   203773848.832         624.479          35.000  
> 2025 04 08 03 04 47.0001229  0 20                     
C06  37394036.160   194720605.1981      -1507.538          15.000  
C07  36032343.740   187629860.700         167.995          39.000  
C09  36832899.327   191798554.029       -1042.100          22.000  
C10  37016225.713   192753198.674         281.510          33.000  
C26  23160085.419   120600596.463        1930.868          32.000  
C29  21848012.848   113768120.292       -1249.988          38.000  
C35  22713711.537   118276115.569        1906.901          23.000  
C40  36104024.117   188002888.261         -23.302          41.000  
C45  21988848.150   114501473.260       -1252.654          26.000  
E31  23528537.845   123643123.971        -451.306          33.000  
E33  23931479.594   125760532.070        -581.916          33.000  
G01  20493695.023   107695020.143        1057.782          36.000  
G02  21219792.956   111510634.938       -1644.589          37.000  
G07  21706946.706   114070647.7101      -2337.415          18.000  
G08  22150000.386   116398917.640       -2517.328          37.000  
G14  21658220.838   113814471.915        2550.820          35.000  
G17  22625788.705   118899198.5381       2115.229          16.000  
G22  23480257.768   123389432.501        2697.871          25.000  
G30  21363008.609   112263325.879        -530.671          30.000  
J02  38776785.403   203773367.922         622.356          36.000  
> 2025 04 08 03 04 48.0000618  0 20                     
C06  37394314.330   194722087.2421      -1496.141          18.000  
C07  36032311.625   187629679.111         170.173          38.000  
C09  36833100.150   191799582.114       -1042.441          21.000  
C10  37016171.113   192752903.461         283.174          30.000  
C26  23159712.739   120598651.215        1934.984          32.000  
C29  21848252.644   113769359.177       -1251.436          38.000  
C35  22713346.053   118274197.549        1903.828          23.000  
C40  36104027.077   188002895.346         -19.106          40.000  
C45  21989086.747   114502713.865       -1259.606          25.000  
E31  23528624.147   123643564.147        -452.595          32.000  
E33  23931587.782   125761101.527        -582.654          33.000  
G01  20493493.225   107693951.255        1054.546          34.000  
G02  21220105.002   111512267.456       -1647.099          37.000  
G07  21707390.661   114072971.6331      -2338.931          19.000  
G08  22150477.319   116401420.721       -2517.877          39.000  
G14  21657734.238   113811906.015        2555.387          35.000  
G17  22625385.447   118897070.3211       2116.434          13.000  
G22  23479743.587   123386721.640        2699.110          23.000  
G30  21363107.204   112263840.268        -524.443          29.000  
J02  38776666.947   203772733.120         620.544          36.000  
> 2025 04 08 03 04 49.0000007  0 20                     
C06  37394578.897   194723570.511       -1499.216          24.000  
C07  36032276.399   187629494.275         168.878          39.000  
C09  36833298.163   191800611.101       -1044.318          25.000  
C10  37016114.003   192752603.686         285.222          33.000  
C26  23159340.547   120596700.466        1936.835          30.000  
C29  21848490.530   113770595.173       -1252.410          38.000  
C35  22712984.053   118272279.681        1902.479          26.000  
C40  36104029.026   188002899.332         -22.073          41.000  
C45  21989322.834   114503957.003       -1258.855          30.000  
E31  23528707.939   123644004.197        -455.937          31.000  
E33  23931693.159   125761670.200        -585.085          32.000  
G01  20493291.315   107692883.179        1051.621          37.000  
G02  21220416.936   111513899.033       -1649.898          37.000  
G07  21707823.711   114075301.552       -2344.438          28.000  
G08  22150953.839   116403924.638       -2520.413          39.000  
G14  21657245.426   113809334.695        2556.245          34.000  
G17  22624980.277   118894915.4111       2140.065          18.000  
G22  23479228.693   123384002.637        2705.232          24.000  
G30  21363208.084   112264352.137        -531.292          31.000  
J02  38776548.979   203772098.524         618.853          35.000  
> 2025 04 08 03 04 49.9999397  0 20                     
C06  37394893.566   194725212.810       -1500.087          22.000  
C07  36032271.490   187629467.371         172.426          39.000  
C09  36833521.996   191801798.220       -1045.043          25.000  
C10  37016088.108   192752462.520         284.843          34.000  
C26  23158999.571   120594907.770        1937.395          34.000  
C29  21848759.931   113771991.136       -1252.483          39.000  
C35  22712646.375   118270521.355        1900.481          27.000  
C40  36104062.490   188003327.211         -19.836          41.000  
C45  21989594.033   114505359.152       -1260.189          29.000  
E31  23528819.050   123644606.232        -456.621          29.000  
E33  23931837.546   125762400.922        -586.257          32.000  
G01  20493119.421   107691976.224        1050.217          36.000  
G02  21220760.086   111515692.471       -1649.852          37.000  
G07  21708295.772   114077788.067       -2341.026          24.000  
G08  22151461.575   116406588.663       -2521.204          39.000  
G14  21656788.130   113807189.061        2560.266          35.000  
G17  22624608.122   118892920.142        2139.455          21.000  
G22  23478745.016   123381440.549        2708.706          23.000  
G30  21363336.582   112265026.931        -530.865          31.000  
J02  38776460.128   203771624.715         616.940          34.000  
> 2025 04 08 03 04 50.9998786  0 20                     
C06  37395179.512   194726696.153       -1499.327          21.000  
C07  36032237.257   187629278.799         173.708          39.000  
C09  36833720.102   191802824.821       -1044.094          27.000  
C10  37016032.290   192752159.285         289.472          35.000  
C26  23158626.872   120592953.470        1939.441          35.000  
C29  21848997.910   113773227.542       -1251.307          39.000  
C35  22712277.274   118268605.499        1900.952          26.000  
C40  36104064.532   188003327.890         -17.687          41.000  
C45  21989833.211   114506601.789       -1260.801          27.000  
E31  23528909.231   123645045.537        -456.852          30.000  
E33  23931947.514   125762974.352        -588.531          32.000  
G01  20492917.005   107690910.615        1050.070          35.000  
G02  21221071.814   111517325.530       -1650.170          38.000  
G07  21708741.807   114080111.243       -2337.695          26.000  
G08  22151940.287   116409092.237       -2521.709          40.000  
G14  21656299.712   113804611.093        2564.351          35.000  
G17  22624204.845   118890765.324        2139.516          24.000  
G22  23478226.618   123378713.387        2715.098          23.000  
G30  21363436.957   112265539.898        -527.205          32.000  
J02  38776340.155   203770992.458         616.547          35.000  
> 2025 04 08 03 04 51.9998175  0 20                     
C06  37395466.339   194728181.462       -1499.384          21.000  
C07  36032201.807   187629091.857         173.764          39.000  
C09  36833917.291   191803855.174       -1043.166          26.000  
C10  37015976.154   192751856.135         290.905          34.000  
C26  23158252.956   120590999.249        1943.047          35.000  
C29  21849237.069   113774466.825       -1252.231          39.000  
C35  22711909.953   118266687.086        1905.236          26.000  
C40  36104065.057   188003331.173         -16.871          41.000  
C45  21990074.170   114507849.353       -1261.643          26.000  
E31  23528995.197   123645490.296        -457.919          30.000  
E33  23932055.064   125763549.190        -588.893          31.000  
G01  20492716.369   107689849.344        1047.379          35.000  
G02  21221384.423   111518962.755       -1651.114          39.000  
G07  21709187.523   114082437.477       -2343.467          29.000  
G08  22152419.880   116411601.515       -2524.388          38.000  
G14  21655810.076   113802032.766        2567.370          34.000  
G17  22623801.549   118888879.267        2153.679          26.000  
G22  23477707.003   123375981.483        2731.537          24.000  
G30  21363535.513   112266050.696        -522.892          29.000  
J02  38776222.261   203770364.002         615.097          35.000  
> 2025 04 08 03 04 52.9997565  0 20                     
C06  37395782.414   194729827.262       -1503.946          26.000  
C07  36032196.504   187629059.180         176.431          40.000  
C09  36834145.826   191805039.530       -1043.141          28.000  
C10  37015946.868   192751705.922         293.622          34.000  
C26  23157908.289   120589197.538        1946.054          35.000  
C29  21849504.578   113775859.675       -1251.168          38.000  
C35  22711571.281   118264924.679        1905.139          26.000  
C40  36104097.528   188003488.307         -15.444          41.000  
C45  21990345.276   114509252.294       -1262.603          27.000  
E31  23529108.912   123646090.373        -458.188          31.000  
E33  23932201.157   125764566.160        -590.884          32.000  
G01  20492546.180   107688946.655        1046.068          35.000  
G02  21221726.280   111520756.484       -1651.310          39.000  
G07  21709665.786   114084928.753       -2349.597          32.000  
G08  22152930.820   116414270.487       -2525.810          34.000  
G14  21655349.389   113799609.143        2567.364          36.000  
G17  22623423.005   118886860.218        2165.911          29.000  
G22  23477217.236   123373391.408        2734.925          27.000  
G30  21363663.019   112266716.528        -524.354          31.000  
J02  38776133.316   203769892.849         614.846          35.000  
> 2025 04 08 03 04 53.9996954  0 19                     
C06  37396073.849   194731316.236       -1502.864          25.000  
C07  36032161.166   187628869.163         178.600          39.000  
C09  36834346.125   191806069.193       -1043.124          26.000  
C10  37015890.845   192751399.525         294.687          34.000  
C26  23157530.588   120587237.233        1950.553          37.000  
C29  21849743.550   113777097.414       -1248.637          38.000  
C35  22711202.874   118263007.273        1905.365          29.000  
C40  36104098.465   188003487.977         -11.286          41.000  
C45  21990585.747   114510504.198       -1264.598          28.000  
E31  23529191.992   123646536.457        -457.982          33.000  
E33  23932311.818   125765142.154        -589.472          28.000  
G01  20492346.256   107687890.078        1042.168          36.000  
G02  21222040.500   111522394.336       -1650.935          34.000  
G07  21710110.416   114087263.307       -2346.506          33.000  
G08  22153409.626   116416781.277       -2521.804          32.000  
G14  21654859.865   113797026.152        2574.379          41.000  
G17  22623015.325   118884685.586        2150.197          27.000  
G30  21363761.988   112267229.819        -525.314          32.000  
J02  38776015.536   203769266.988         612.003          32.000  
> 2025 04 08 03 04 54.9996343  0 20                     
C06  37396370.869   194732803.480       -1503.306          25.000  
C07  36032125.416   187628675.337         181.697          40.000  
C09  36834547.511   191807097.669       -1045.113          25.000  
C10  37015830.211   192751089.419         298.655          37.000  
C26  23157155.472   120585269.411        1957.651          37.000  
C29  21849985.707   113778609.387       -1248.473          36.000  
C35  22710833.455   118261088.128        1904.779          32.000  
C40  36104098.690   188003485.150          -9.180          42.000  
C45  21990827.604   114511754.115       -1268.983          29.000  
E31  23529280.056   123646981.202        -459.712          36.000  
E33  23932425.364   125765719.127        -594.013          27.000  
G01  20492148.019   107686835.744        1037.047          37.000  
G02  21222354.907   111524029.648       -1651.775          31.000  
G07  21710558.231   114089593.448       -2345.980          36.000  
G08  22153890.418   116419287.543       -2527.746          30.000  
G14  21654368.130   113794434.508        2580.795          39.000  
G17  22622607.532   118882521.155        2150.022          29.000  
G22  23476173.621   123367896.6461       2736.747          29.000  
G30  21363860.545   112267738.728        -525.501          35.000  
J02  38775898.542   203768641.997         608.635          28.000  
> 2025 04 08 03 04 55.9995733  0 20                     
C06  37396688.330   194734448.641       -1504.489          31.000  
C07  36032119.102   187628634.488         183.768          40.000  
C09  36834776.534   191808288.438       -1050.645          27.000  
C10  37015801.413   192750930.784         302.094          40.000  
C26  23156807.095   120583451.278        1961.756          38.000  
C29  21850253.403   113780000.737       -1248.799          32.000  
C35  22710497.968   118259325.077        1905.649          31.000  
C40  36104128.651   188003632.577          -6.689          39.000  
C45  21991099.797   114513427.378       -1273.600          30.000  
E31  23529399.654   123647583.852        -461.469          34.000  
E33  23932567.447   125766455.011        -592.811          30.000  
G01  20491980.716   107685945.110        1032.756          33.000  
G02  21222697.551   111525826.082       -1653.019          33.000  
G07  21711033.383   114092083.215       -2348.585          42.000  
G08  22154403.944   116421963.654       -2540.136          29.000  
G14  21653904.932   113791993.298        2585.494          40.000  
G17  22622227.377   118880515.646        2145.839          33.000  
G22  23475679.544   123365298.977        2746.870          30.000  
G30  21363987.338   112268405.218        -524.442          38.000  
J02  38775810.684   203768178.782         605.337          30.000  
> 2025 04 08 03 04 56.9995122  0 20                     
C06  37396977.199   194735935.977       -1501.892          31.000  
C07  36032081.497   187628435.136         185.796          40.000  
C09  36834975.165   191809325.301       -1053.187          29.000  
C10  37015740.723   192750613.228         304.076          39.000  
C26  23156426.527   120581472.482        1967.903          41.000  
C29  21850489.508   113781232.097       -1245.960          32.000  
C35  22710131.790   118257402.169        1918.989          34.000  
C40  36104127.620   188003621.582          -2.638          36.000  
C45  21991343.097   114514686.676       -1276.461          32.000  
E31  23529485.863   123648031.577        -461.963          30.000  
E33  23932679.738   125767031.805        -591.925          29.000  
G01  20491782.122   107684897.154        1033.059          36.000  
G02  21223011.902   111527459.379       -1647.581          31.000  
G07  21711477.245   114094413.477       -2344.978          39.000  
G08  22154887.978   116424490.003       -2529.293          25.000  
G14  21653409.544   113789389.922        2593.770          41.000  
G17  22621814.731   118878354.007        2152.431          36.000  
G22  23475154.176   123362535.002        2753.158          35.000  
G30  21364086.738   112268913.263        -523.037          39.000  
J02  38775693.334   203767557.105         607.707          29.000  
> 2025 04 08 03 04 57.9994511  0 20                     
C06  37397265.374   194737424.426       -1503.660          29.000  
C07  36032044.697   187628236.565         187.507          35.000  
C09  36835175.201   191810365.499       -1055.377          33.000  
C10  37015681.140   192750295.791         308.976          39.000  
C26  23156048.264   120579490.383        1973.281          43.000  
C29  21850729.417   113782465.546       -1247.919          32.000  
C35  22709760.423   118255474.603        1906.938          39.000  
C40  36104128.894   188003609.669          -1.304          33.000  
C45  21991585.405   114515953.384       -1280.434          41.000  
E31  23529575.276   123648753.070        -461.753          28.000  
E33  23932789.237   125767613.201        -596.187          30.000  
G01  20491584.634   107683854.999        1024.274          36.000  
G02  21223325.860   111529095.030       -1661.415          27.000  
G07  21711921.912   114096759.389       -2367.578          38.000  
G08  22155371.018   116427007.779       -2532.138          24.000  
G14  21652914.062   113786782.195        2598.885          43.000  
G17  22621403.491   118876184.666        2157.863          39.000  
G22  23474627.216   123359765.807        2762.623          37.000  
G30  21364184.246   112269422.192        -520.087          41.000  
J02  38775576.789   203766943.648         596.041          34.000  
> 2025 04 08 03 04 59.0003900  0 20                     
C06  37397575.472   194739015.667       -1513.981          28.000  
C07  36032025.923   187628126.089         190.260          32.000  
C09  36835393.563   191811498.408       -1051.575          33.000  
C10  37015638.382   192750061.459         315.176          34.000  
C26  23155686.227   120577590.290        1980.168          38.000  
C29  21850987.951   113783796.079       -1254.249          28.000  
C35  22709408.878   118253639.771        1918.225          43.000  
C40  36104146.395   188003690.171          -4.725          30.000  
C45  21991846.636   114517311.981       -1277.663          43.000  
E31  23529679.117   123649300.462        -470.481          30.000  
E33  23932925.755   125768292.342        -602.794          26.000  
G01  20491403.372   107682911.532        1021.671          41.000  
G02  21223660.541   111530836.703       -1660.363          25.000  
G07  21712385.803   114099200.966       -2359.470          39.000  
G08  22155871.784   116429891.437       -2533.848          23.000  
G14  21652435.106   113784257.805        2604.117          37.000  
G17  22621008.776   118874101.799        2162.168          37.000  
G22  23474116.183   123357075.227        2770.442          35.000  
G30  21364297.679   112270017.268        -509.471          43.000  
J02  38775480.369   203766428.449         592.962          33.000  
> 2025 04 08 03 05 00.0003289  0 20                     
C06  37397861.643   194740518.548       -1515.925          33.000  
C07  36031987.118   187627923.590         191.716          34.000  
C09  36835592.793   191812530.850       -1042.430          37.000  
C10  37015577.693   192749733.394         317.604          29.000  
C26  23155305.060   120575599.107        1966.920          33.000  
C29  21851226.754   113785042.914       -1260.160          28.000  
C35  22709039.103   118251709.141        1920.199          43.000  
C40  36104147.163   188003685.068          -6.200          31.000  
C45  21992089.937   114518577.439       -1278.420          43.000  
E31  23529768.924   123649762.791        -473.646          31.000  
E33  23933035.348   125768886.565        -607.732          25.000  
G01  20491207.176   107681878.177        1021.528          43.000  
G02  21223976.990   111532751.730       -1661.728          26.000  
G07  21712831.763   114101547.785       -2357.543          40.000  
G08  22156356.417   116432414.191       -2535.100          22.000  
G14  21651939.718   113781644.070        2601.777          33.000  
G17  22620597.930   118871929.055        2160.253          36.000  
G22  23473587.217   123354292.629        2773.108          35.000  
G30  21364393.482   112270512.080        -506.178          43.000  
J02  38775365.717   203765823.754         592.863          34.000  
> 2025 04 08 03 05 01.0002679  0 19                     
C06  37398177.043   194742175.073       -1518.922          34.000  
C07  36031979.342   187627870.599         195.526          36.000  
C09  36835820.355   191813712.461       -1042.500          37.000  
C10  37015544.734   192749555.329         325.322          27.000  
C26  23154951.623   120573763.294        1983.326          33.000  
C29  21851494.787   113786444.812       -1260.170          29.000  
C35  22708697.958   118249928.109        1921.689          42.000  
C40  36104175.962   188003827.045          -0.915          33.000  
C45  21992363.966   114519995.409       -1281.644          43.000  
E31  23529884.363   123650378.132        -475.407          38.000  
E33  23933176.269   125769638.430        -610.918          37.000  
G01  20491041.410   107681001.634        1016.804          45.000  
G07  21713307.852   114104047.740       -2363.264          40.000  
G08  22156868.781   116435091.1431      -2536.636          19.000  
G14  21651472.060   113779177.529        2614.646          34.000  
G17  22620214.214   118869906.418        2169.309          36.000  
G22  23473086.283   123351655.292        2783.802          36.000  
G30  21364518.214   112271157.965        -505.279          42.000  
J02  38775279.995   203765374.895         588.594          37.000  
> 2025 04 08 03 05 02.0002068  0 20                     
C06  37398466.718   194743680.658       -1520.431          34.000  
C07  36031939.845   187627660.083         197.443          35.000  
C09  36836019.492   191814743.131       -1046.420          37.000  
C10  37015484.551   192749217.452         323.776          26.000  
C26  23154567.364   120571755.201        2004.121          28.000  
C29  21851735.896   113787689.149       -1257.191          31.000  
C35  22708327.190   118247993.402        1919.995          42.000  
C40  36104176.037   188003810.972           2.793          32.000  
C45  21992608.372   114521265.304       -1285.431          43.000  
E31  23529974.675   123650840.538        -476.371          37.000  
E33  23933292.664   125770236.586        -612.728          39.000  
G01  20490846.919   107679973.556        1011.682          46.000  
G02  21224635.428   111536211.5431      -1668.965          35.000  
G07  21713756.417   114106397.381       -2366.547          39.000  
G08  22157355.420   116437610.7601      -2535.422          17.000  
G14  21650970.582   113776545.372        2620.081          32.000  
G17  22619798.777   118867719.610        2175.102          33.000  
G22  23472555.426   123348855.107        2788.128          35.000  
G30  21364612.424   112271648.597        -504.901          43.000  
J02  38775164.949   203764774.575         584.827          39.000  
> 2025 04 08 03 05 03.0001457  0 20                     
C06  37398757.929   194745192.787       -1526.832          35.000  
C07  36031900.984   187627451.154         199.192          35.000  
C09  36836219.866   191815776.764       -1048.267          38.000  
C10  37015418.409   192748881.868         329.653          26.000  
C26  23154181.644   120569738.435        1992.661          28.000  
C29  21851977.341   113788932.024       -1252.593          26.000  
C35  22707957.058   118246060.654        1921.199          44.000  
C40  36104173.151   188003793.358           6.267          28.000  
C45  21992853.714   114522537.139       -1287.010          43.000  
E31  23530064.126   123651306.073        -477.684          36.000  
E33  23933407.297   125770837.899        -613.715          39.000  
G01  20490653.066   107678950.804        1008.981          45.000  
G02  21224950.023   111537867.598       -1670.433          31.000  
G07  21714204.719   114108751.820       -2367.794          40.000  
G08  22157830.703   116440134.9821      -2538.389          19.000  
G14  21650470.941   113773912.082        2623.063          29.000  
G17  22619383.077   118865531.620        2177.769          31.000  
G22  23472022.507   123346052.142        2795.405          32.000  
G30  21364706.671   112272138.049        -503.373          42.000  
J02  38775053.239   203764177.722         583.264          40.000  
> 2025 04 08 03 05 04.0000847  0 20                     
C06  37399080.149   194746861.051       -1532.128          37.000  
C07  36031890.735   187627394.408         196.553          34.000  
C09  36836448.251   191816968.021       -1051.525          37.000  
C10  37015388.374   192748695.288         325.619          27.000  
C26  23153829.331   120567886.757        1993.467          29.000  
C29  21852246.798   113790325.925       -1264.194          28.000  
C35  22707617.337   118244282.954        1915.332          41.000  
C40  36104204.573   188003928.741           5.183          26.000  
C45  21993129.167   114523968.200       -1296.647          42.000  
E31  23530182.188   123651928.658        -482.991          36.000  
E33  23933550.841   125771597.077        -618.094          37.000  
G01  20490489.923   107678086.863        1000.885          45.000  
G02  21225297.426   111539679.496       -1669.884          29.000  
G07  21714683.731   114111265.239       -2378.101          41.000  
G08  22158338.795   116442826.489       -2549.748          26.000  
G14  21650001.410   113771430.548        2624.675          28.000  
G17  22618997.188   118863494.646        2181.706          27.000  
G22  23471518.799   123343663.137        2794.407          32.000  
G30  21364831.329   112272784.592        -505.378          37.000  
J02  38774972.239   203763739.364         575.097          38.000  
> 2025 04 08 03 05 05.0000236  0 20                     
C06  37399372.747   194748382.677       -1538.517          34.000  
C07  36031850.563   187627187.097         190.678          33.000  
C09  36836650.611   191818006.601       -1057.578          34.000  
C10  37015322.719   192748359.438         319.148          26.000  
C26  23153444.698   120565880.510        1990.744          29.000  
C29  21852487.831   113791575.656       -1264.463          28.000  
C35  22707248.892   118242356.529        1911.442          40.000  
C40  36104204.273   188003911.311          -9.346          25.000  
C45  21993377.695   114525251.197       -1299.942          42.000  
E31  23530274.524   123652402.274        -488.624          36.000  
E33  23933668.960   125772207.395        -625.128          37.000  
G01  20490298.655   107677074.604         995.303          45.000  
G02  21225613.707   111541335.124       -1674.417          28.000  
G07  21715135.218   114113629.101       -2379.317          37.000  
G08  22158822.360   116445362.517       -2553.066          24.000  
G14  21649501.955   113768794.592        2617.091          27.000  
G17  22618581.675   118861300.162        2179.747          24.000  
G22  23470986.968   123340857.709        2789.235          32.000  
G30  21364926.663   112273279.061        -514.365          38.000  
J02  38774862.515   203763152.321         570.039          38.000  
> 2025 04 08 03 05 05.9999625  0 20                     
C06  37399665.532   194749900.295       -1526.184          34.000  
C07  36031813.276   187626977.442         201.431          34.000  
C09  36836850.161   191819045.356       -1046.609          35.000  
C10  37015262.049   192748024.510         332.632          28.000  
C26  23153059.951   120563871.254        1999.243          29.000  
C29  21852728.752   113792823.723       -1259.326          29.000  
C35  22706877.937   118240423.544        1925.085          40.000  
C40  36104207.159   188003904.224           4.340          25.000  
C45  21993624.312   114526529.166       -1286.683          42.000  
E31  23530364.949   123652873.826        -483.376          35.000  
E33  23933784.567   125772812.812        -619.415          36.000  
G01  20490106.076   107676058.586        1009.797          45.000  
G02  21225931.974   111542997.708       -1676.807          27.000  
G07  21715585.095   114115989.150       -2370.012          35.000  
G08  22159305.513   116447899.887       -2555.059          25.000  
G14  21649003.288   113766165.111        2627.482          26.000  
G17  22618160.954   118859106.342        2178.678          21.000  
G22  23470454.424   123338051.543        2796.122          31.000  
G30  21365022.184   112273772.614        -498.703          37.000  
J02  38774750.580   203762561.510         584.731          39.000  
> 2025 04 08 03 05 06.9999015  0 20                     
C06  37399986.534   194751565.586       -1522.741          33.000  
C07  36031802.109   187626916.060         206.126          34.000  
C09  36837079.727   191820232.379       -1045.578          35.000  
C10  37015220.602   192747834.807         333.243          30.000  
C26  23152704.023   120562008.859        2010.383          29.000  
C29  21852996.092   113794223.495       -1252.673          29.000  
C35  22706538.197   118238902.237        1924.597          40.000  
C40  36104234.665   188004041.238          17.331          22.000  
C45  21993900.046   114527958.964       -1286.959          42.000  
E31  23530482.392   123653495.138        -479.069          34.000  
E33  23933930.191   125773570.168        -615.055          36.000  
G01  20489942.914   107675194.730        1005.997          45.000  
G02  21226280.558   111544814.178       -1668.487          27.000  
G07  21716064.987   114118498.793       -2365.753          36.000  
G08  22159815.985   116450591.497       -2546.880          38.000  
G14  21648533.438   113763682.424        2628.128          23.000  
G17  22617775.946   118857074.0771       2176.087          18.000  
G22  23469948.299   123335394.610        2807.960          30.000  
G30  21365145.324   112274412.946        -498.762          35.000  
J02  38774667.762   203762120.860         583.910          39.000  
> 2025 04 08 03 05 07.9998404  0 20                     
C06  37400278.382   194753074.063       -1526.546          31.000  
C07  36031761.787   187626694.150         204.648          33.000  
C09  36837276.241   191821259.968       -1044.532          35.000  
C10  37015155.997   192747485.092         333.352          28.000  
C26  23152319.839   120559985.838        2004.644          28.000  
C29  21853233.078   113795457.421       -1250.181          29.000  
C35  22706166.904   118236962.058        1923.739          41.000  
C40  36104228.819   188004008.156           6.374          23.000  
C45  21994146.326   114529229.307       -1288.817          42.000  
E31  23530573.979   123653955.799        -478.250          35.000  
E33  23934044.262   125774168.241        -614.502          36.000  
G01  20489749.098   107674171.564        1007.042          44.000  
G02  21226595.490   111546463.566       -1667.618          26.000  
G07  21716513.327   114120846.818       -2367.513          34.000  
G08  22160297.302   116453120.108       -2545.634          40.000  
G14  21648034.434   113761036.069        2632.461          27.000  
G17  22617359.684   118854887.3221       2169.335          20.000  
G22  23469410.921   123332569.421        2809.292          29.000  
G30  21365239.009   112274895.316        -499.892          37.000  
J02  38774554.291   203761519.749         584.293          38.000  
> 2025 04 08 03 05 08.9997793  0 20                     
C06  37400568.357   194754585.326       -1524.338          31.000  
C07  36031720.490   187626476.971         204.402          32.000  
C09  36837477.776   191822289.881       -1045.892          36.000  
C10  37015091.617   192747138.741         331.721          26.000  
C26  23151937.079   120557969.237        2001.053          27.000  
C29  21853473.586   113796696.406       -1263.689          26.000  
C35  22705796.136   118235024.714        1922.964          42.000  
C40  36104224.397   188003987.083           7.180          22.000  
C45  21994393.130   114530502.443       -1288.906          43.000  
E31  23530662.493   123654419.326        -478.206          35.000  
E33  23934163.655   125774768.209        -615.373          36.000  
G01  20489556.407   107673151.628        1006.104          44.000  
G02  21226912.446   111548117.219       -1670.541          27.000  
G07  21716963.390   114123201.050       -2370.648          34.000  
G08  22160779.443   116455652.979       -2546.878          38.000  
G14  21647530.258   113758389.526        2632.675          28.000  
G17  22616944.546   118852704.8401       2168.514          18.000  
G22  23468874.967   123329748.967        2804.021          30.000  
G30  21365332.619   112275381.743        -502.157          37.000  
J02  38774441.644   203760922.475         583.121          38.000  
> 2025 04 08 03 05 09.9997183  0 19                     
C06  37400890.053   194756250.784       -1523.808          32.000  
C07  36031709.117   187626416.447         201.684          33.000  
C09  36837707.136   191823477.887       -1045.241          34.000  
C10  37015056.560   192746950.760         329.627          27.000  
C26  23151583.342   120556114.562        1994.071          25.000  
C29  21853746.716   113798098.875       -1255.575          30.000  
C35  22705455.290   118233244.313        1922.651          41.000  
C40  36104251.097   188004120.747           7.814          26.000  
C45  21994668.358   114531933.201       -1288.819          42.000  
E31  23530782.728   123655039.202        -478.747          36.000  
E33  23934306.974   125775525.183        -615.834          37.000  
G01  20489393.038   107672287.920        1006.847          44.000  
G07  21717441.878   114125712.323       -2367.550          35.000  
G08  22161292.107   116458341.415       -2546.758          37.000  
G14  21647056.605   113755901.854        2630.119          30.000  
G17  22616560.831   118850680.8461       2166.526          17.000  
G22  23468371.335   123327091.436        2799.556          32.000  
G30  21365457.352   112276027.049        -504.949          37.000  
J02  38774358.620   203760479.976         585.206          38.000  
> 2025 04 08 03 05 10.9996572  0 20                     
C06  37401182.987   194757759.809       -1524.111          32.000  
C07  36031670.481   187626201.080         203.683          33.000  
C09  36837908.334   191824507.181       -1045.780          34.000  
C10  37014988.844   192746607.039         330.882          28.000  
C26  23151199.645   120554371.019        2005.488          25.000  
C29  21853985.988   113799336.168       -1249.563          28.000  
C35  22705083.885   118231308.889        1920.395          38.000  
C40  36104242.740   188004098.755           6.000          29.000  
C45  21994915.724   114533206.825       -1290.545          41.000  
E31  23530873.603   123655505.897        -479.788          35.000  
E33  23934426.629   125776128.383        -617.441          34.000  
G01  20489200.309   107671269.087        1004.902          44.000  
G02  21227574.144   111551590.0971      -1674.002          28.000  
G07  21717891.304   114128065.177       -2369.831          34.000  
G08  22161775.410   116460874.373       -2549.822          35.000  
G14  21646554.789   113753259.166        2628.450          29.000  
G17  22616152.551   118848501.3361       2165.370          19.000  
G22  23467837.442   123324278.470        2801.351          33.000  
G30  21365552.124   112276516.822        -504.436          36.000  
J02  38774246.535   203759882.700         582.706          37.000  
