     3.04           OBSERVATION DATA    M: Mixed            RINEX VERSION / TYPE
RTKCONV demo5 b34k                      20250418 052453 UTC PGM / RUN BY / DATE 
format: RINEX                                               COMMENT             
log: E:\Proj-ES\GNSS-SPP\RTKLIB-py\data\unisoc\20250408\��óCOMMENT             
  \rover.obs                                                COMMENT             
Geo++                                                       MARKER NAME         
                                                            MARKER NUMBER       
                                                            MARKER TYPE         
                                                            OBSERVER / AGENCY   
unknown             UNISOC              uis7865_6h10_go_a32bREC # / TYPE / VERS 
unknown             uis7865_6h10_go_a32b                    ANT # / TYPE        
 -2182132.8071  4386100.8586  4070635.9170                  APPROX POSITION XYZ 
        0.0000        0.0000        0.0000                  ANTENNA: DELTA H/E/N
G    4 C1C L1C D1C S1C                                      SYS / # / OBS TYPES 
E    4 C1C L1C D1C S1C                                      SYS / # / OBS TYPES 
J    4 C1C L1C D1C S1C                                      SYS / # / OBS TYPES 
C    4 C2I L2I D2I S2I                                      SYS / # / OBS TYPES 
  2025    04    08    05    16   53.9994864     GPS         TIME OF FIRST OBS   
  2025    04    08    05    47   19.0003021     GPS         TIME OF LAST OBS    
G L1C                                                       SYS / PHASE SHIFT   
E L1C  0.00000                                              SYS / PHASE SHIFT   
J L1C                                                       SYS / PHASE SHIFT   
C L2I                                                       SYS / PHASE SHIFT   
 24 R01  1 R02 -4 R03  5 R04  6 R05  1 R06 -4 R07  5 R08  6 GLONASS SLOT / FRQ #
    R09 -2 R10 -5 R11  0 R12 -1 R13 -2 R14 -7 R15  0 R16 -1 GLONASS SLOT / FRQ #
    R17  4 R18 -3 R19  3 R20  2 R21  4 R22 -3 R23  3 R24  2 GLONASS SLOT / FRQ #
 C1C    0.000 C1P    0.000 C2C    0.000 C2P    0.000        GLONASS COD/PHS/BIS 
                                                            END OF HEADER       

> 2025 04 08 05 17 15.2354724  0 23                     
C03  37317150.281   194320194.044          65.497          42.000  
C07  35772192.033   186275190.393         200.701          36.000  
C10  36512416.187   190129732.127         425.135          34.000  
C24  23433571.782   122024757.246         849.557          39.000  
C26  23209686.774   120858928.843       -1999.185          28.000  
C29  24983055.996   130093328.450       -2357.421          22.000  
C35  21782646.194   113427954.835        -464.021          36.000  
C38  37997184.203   197861308.6571       1708.096          35.000  
C40  36046786.635   187705076.743         131.715          40.000  
E10  23567796.061   123849603.781         519.184          35.000  
E11  25222784.436   132546626.5181       1810.626          19.000  
E12  23726034.314   124681152.139        -764.694          34.000  
E16  23721639.657   124658058.087         962.700          31.000  
E24  23739543.862   124752145.161        -533.423          28.000  
E25  25105713.083   131931412.9511       2025.657          19.000  
G01  22415969.154   117796712.951       -2893.604          22.000  
G03  21235819.354   111594983.093          47.496          38.000  
G14  20237997.632   106351394.763       -1227.834          34.000  
G17  20738120.404   108979557.321         432.924          31.000  
G19  21451640.245   112729130.029        2114.683          20.000  
G22  20714612.478   108856023.176         322.644          34.000  
J02  37863880.287   198976033.518         542.599          37.000  
J03  39017956.237   205040743.370        -397.494          44.000  
> 2025 04 08 05 17 15.2354724  0 23                     
C03  37317150.281   194320194.044          65.497          42.000  
C07  35772192.033   186275190.393         200.701          36.000  
C10  36512416.187   190129732.127         425.135          34.000  
C24  23433571.782   122024757.246         849.557          39.000  
C26  23209686.774   120858928.843       -1999.185          28.000  
C29  24983055.996   130093328.450       -2357.421          22.000  
C35  21782646.194   113427954.835        -464.021          36.000  
C38  37997184.203   197861308.657        1708.096          35.000  
C40  36046786.635   187705076.743         131.715          40.000  
E10  23567796.061   123849603.781         519.184          35.000  
E11  25222784.436   132546626.5181       1810.626          19.000  
E12  23726034.314   124681152.139        -764.694          34.000  
E16  23721639.657   124658058.087         962.700          31.000  
E24  23739543.862   124752145.161        -533.423          28.000  
E25  25105713.083   131931412.9511       2025.657          19.000  
G01  22415969.154   117796712.951       -2893.604          22.000  
G03  21235819.354   111594983.093          47.496          38.000  
G14  20237997.632   106351394.763       -1227.834          34.000  
G17  20738120.404   108979557.321         432.924          31.000  
G19  21451640.245   112729130.029        2114.683          20.000  
G22  20714612.478   108856023.176         322.644          34.000  
J02  37863880.287   198976033.518         542.599          37.000  
J03  39017956.237   205040743.370        -397.494          44.000  
> 2025 04 08 05 17 16.2354113  0 23                     
C03  37317139.938   194320113.639          63.639          41.000  
C07  35772153.210   186274977.341         196.202          36.000  
C09  39258849.520   204431130.9211      -1866.285          15.000  
C10  36512335.692   190129294.353         420.621          32.000  
C24  23433409.145   122023894.927         845.801          34.000  
C26  23210078.153   120860919.616       -2008.730          25.000  
C29  24983512.430   130095668.814       -2358.410          22.000  
C35  21782732.384   113428406.424        -468.851          36.000  
C38  37996847.986   197859591.724        1701.094          37.000  
C40  36046760.403   187704933.607         127.433          41.000  
E10  23567694.281   123849072.317         515.812          33.000  
E11  25222445.521   132544801.1911       1810.261          18.000  
E12  23726177.166   124681904.384        -768.355          34.000  
E16  23721459.332   124657082.835         959.222          25.000  
E24  23739643.243   124752662.901        -535.225          24.000  
E25  25105325.301   131929376.8581       2021.767          14.000  
G01  22416515.525   117799589.414       -2893.422          20.000  
G03  21235809.311   111594922.235          44.613          37.000  
G14  20238229.521   106352609.727       -1233.074          35.000  
G17  20738036.013   108979112.359         428.184          29.000  
G22  20714549.372   108855687.979         317.783          32.000  
J02  37863775.510   198975479.420         536.003          36.000  
J03  39018030.736   205041128.269        -402.439          44.000  
> 2025 04 08 05 17 17.2353502  0 24                     
C03  37317128.883   194320036.807          60.872          41.000  
C07  35772113.675   186274767.704         197.795          36.000  
C09  39259212.007   204432984.8131      -1866.176          16.000  
C10  36512251.488   190128861.847         417.231          27.000  
C24  23433247.294   122023038.012         840.883          29.000  
C26  23210473.917   120862915.674       -2014.017          25.000  
C29  24983972.949   130098014.861       -2359.226          21.000  
C35  21782821.760   113428861.784        -468.483          37.000  
C38  37996518.551   197857876.283        1703.886          38.000  
C40  36046733.759   187704792.655         129.315          41.000  
E10  23567598.085   123848545.120         514.417          32.000  
E11  25222101.996   132542978.5081       1807.526          13.000  
E12  23726322.602   124682660.395        -770.302          34.000  
E16  23721277.095   124656111.052         956.629          22.000  
E24  23739747.009   124753185.600        -539.181          24.000  
E25  25104939.506   131927341.0041       2022.575           9.000  
G01  22417066.881   117802464.000       -2889.050          28.000  
G03  21235799.755   111594865.646          42.450          37.000  
G14  20238463.097   106353829.788       -1235.751          34.000  
G17  20737953.008   108978671.283         426.570          27.000  
G19  21450728.763   112724340.4311       2162.546          43.000  
G22  20714487.952   108855358.068         316.205          32.000  
J02  37863671.519   198974926.257         543.757          37.000  
J03  39018106.021   205041516.412        -402.088          43.000  
> 2025 04 08 05 17 18.2352892  0 24                     
C03  37317145.934   194320114.505          63.404          41.000  
C07  35772102.845   186274707.765         202.292          37.000  
C09  39259607.096   204434990.8531      -1866.435          15.000  
C10  36512195.989   190128585.290         418.169          25.000  
C24  23433117.746   122022339.107         851.773          24.000  
C26  23210893.589   120865071.037       -2003.534          26.000  
C29  24984475.963   130100512.8081      -2359.657          16.000  
C35  21782939.241   113429465.998        -462.395          37.000  
C38  37996221.420   197856310.594        1708.420          37.000  
C40  36046735.820   187704801.611         133.620          41.000  
E10  23567527.596   123848170.863         516.545          32.000  
E11  25221791.074   132541314.3301       1806.537          19.000  
E12  23726497.644   124683567.385        -766.689          34.000  
E16  23721134.656   124655296.874         957.189          21.000  
E24  23739881.578   124753866.840        -537.878          28.000  
E25  25104584.514   131925459.8081       2023.604           9.000  
G01  22417649.640   117805493.391       -2887.960          32.000  
G03  21235819.804   111594960.589          54.269          37.000  
G14  20238725.378   106355203.440       -1229.920          34.000  
G17  20737900.207   108978384.510         429.871          25.000  
G19  21450343.792   112722317.768        2166.919          38.000  
G22  20714456.736   108855179.858         322.389          34.000  
J02  37863595.934   198974524.543         543.012          38.000  
J03  39018209.712   205042054.803        -394.668          43.000  
> 2025 04 08 05 17 19.2352281  0 24                     
C03  37317132.256   194320035.705          66.145          39.000  
C07  35772061.886   186274493.035         203.100          37.000  
C09  39259970.257   204436845.7721      -1867.261          15.000  
C10  36512118.755   190128150.111         424.263          22.000  
C24  23432949.076   122021478.445         845.900          31.000  
C26  23211276.237   120867063.534       -2010.265          26.000  
C29  24984957.842   130103231.733       -2360.367          21.000  
C35  21783026.593   113429913.405        -461.484          36.000  
C38  37995891.760   197854589.922        1709.837          37.000  
C40  36046709.251   187704656.308         133.230          41.000  
E10  23567427.878   123847640.809         517.872          32.000  
E11  25221439.529   132539492.866        1809.784          27.000  
E12  23726642.256   124684318.423        -763.905          34.000  
E16  23720941.403   124654324.769         960.798          24.000  
E24  23739973.127   124754388.999        -534.299          32.000  
E25  25104198.194   131923423.8701       2024.578           9.000  
G01  22418199.272   117808365.986       -2885.277          33.000  
G03  21235808.524   111594894.644          48.000          36.000  
G14  20238959.029   106356417.724       -1227.965          35.000  
G17  20737822.373   108977941.790         431.266          21.000  
G19  21449929.292   112720139.418        2165.892          33.000  
G22  20714394.492   108854845.179         322.690          34.000  
J02  37863491.719   198973969.576         543.496          39.000  
J03  39018283.273   205042436.931        -395.270          43.000  
> 2025 04 08 05 17 20.2351670  0 23                     
C03  37317119.102   194319946.434          76.250          34.000  
C07  35772021.151   186274276.406         203.520          37.000  
C09  39260337.540   204438698.6981      -1866.807          15.000  
C10  36512036.349   190127711.314         425.982          21.000  
C24  23432781.229   122020618.575         846.085          37.000  
C26  23211656.411   120869064.464       -2022.792          32.000  
C29  24985419.860   130105576.6401      -2360.259          19.000  
C35  21783113.870   113430361.782        -462.319          34.000  
C38  37995572.819   197852866.381        1710.699          36.000  
C40  36046682.607   187704508.795         135.819          41.000  
E10  23567327.485   123847107.562         519.528          32.000  
E11  25221079.216   132537666.720        1812.532          31.000  
E12  23726783.496   124685066.160        -764.061          34.000  
E16  23720761.265   124653349.974         961.881          26.000  
E24  23740077.193   124754907.758        -533.514          31.000  
G01  22418747.031   117811238.016       -2885.115          33.000  
G03  21235797.769   111594831.902          51.967          37.000  
G14  20239194.104   106357632.291       -1228.260          36.000  
G17  20737747.762   108977496.341         432.695          26.000  
G19  21449515.016   112717961.579        2162.328          30.000  
G22  20714332.472   108854509.865         321.410          34.000  
J02  37863387.129   198973412.557         545.480          39.000  
J03  39018356.760   205042815.227        -393.681          43.000  
> 2025 04 08 05 17 21.2351059  0 24                     
C03  37317109.378   194319854.905          75.394          32.000  
C07  35771981.747   186274058.353         203.561          36.000  
C09  39260700.158   204440551.2511      -1866.696          15.000  
C10  36511954.075   190127270.525         426.437          20.000  
C24  23432613.214   122019757.679         846.399          36.000  
C26  23212046.010   120871079.295       -2027.057          32.000  
C29  24985883.508   130107922.1181      -2361.343          19.000  
C35  21783203.077   113430809.081        -463.809          29.000  
C38  37995266.299   197851140.947        1709.485          32.000  
C40  36046654.296   187704359.274         134.533          41.000  
E10  23567232.020   123846572.959         519.920          32.000  
E11  25220729.227   132535840.637        1810.047          27.000  
E12  23726929.064   124685815.479        -764.704          33.000  
E16  23720568.067   124652373.766         961.820          31.000  
E24  23740178.691   124755425.724        -533.840          33.000  
E25  25103337.396   131918928.7971       2072.390          22.000  
G01  22419293.421   117814104.345       -2881.649          32.000  
G03  21235785.946   111594766.613          49.084          37.000  
G14  20239429.010   106358844.483       -1228.461          32.000  
G17  20737665.488   108977048.716         432.422          27.000  
G19  21449101.171   112715785.338        2161.488          29.000  
G22  20714267.586   108854173.919         321.286          34.000  
J02  37863281.770   198972852.484         544.967          38.000  
J03  39018430.378   205043193.318        -394.479          44.000  
> 2025 04 08 05 17 22.2350448  0 24                     
C03  37317099.110   194319769.204          68.361          31.000  
C07  35771938.202   186273837.765         205.216          37.000  
C09  39261062.232   204442402.3081      -1866.950          14.000  
C10  36511865.861   190126827.384         427.750          26.000  
C24  23432453.950   122018895.121         847.289          39.000  
C26  23212421.275   120873078.821       -2005.718          32.000  
C29  24986351.109   130110266.0611      -2360.831          19.000  
C35  21783297.437   113431255.343        -462.847          31.000  
C38  37994946.646   197849415.912        1708.698          32.000  
C40  36046627.239   187704207.642         136.174          38.000  
E10  23567130.015   123846037.680         518.802          31.000  
E11  25220398.481   132534016.400        1807.446          24.000  
E12  23727075.887   124686563.030        -762.790          30.000  
E16  23720386.318   124651395.970         961.730          33.000  
E24  23740276.049   124755943.061        -532.630          35.000  
E25  25102929.304   131916838.9011       2073.739          19.000  
G01  22419837.769   117816958.917       -2849.265          30.000  
G03  21235774.179   111594701.024          51.818          36.000  
G14  20239662.473   106360057.975       -1229.957          34.000  
G17  20737580.272   108976600.474         432.003          29.000  
G19  21448684.984   112713603.148        2169.286          40.000  
G22  20714203.655   108853834.991         325.013          33.000  
J02  37863176.169   198972290.592         547.485          38.000  
J03  39018502.853   205043569.692        -390.230          43.000  
> 2025 04 08 05 17 23.1349899  0 24                     
C03  37317117.435   194319839.080          65.457          31.000  
C07  35771929.846   186273783.347         204.772          37.000  
C09  39261426.218   204444549.0521      -1866.302          14.000  
C10  36511817.332   190126573.231         425.974          29.000  
C24  23432336.169   122018264.229         843.246          37.000  
C26  23212799.051   120875015.159       -2025.203          29.000  
C29  24986803.234   130112841.290       -2360.183          22.000  
C35  21783410.796   113431798.722        -459.765          30.000  
C38  37994689.461   197848317.711        1707.007          30.000  
C40  36046633.273   187704214.517         137.483          33.000  
E10  23567066.197   123845702.269         518.081          31.000  
E11  25220121.511   132532521.9681       1805.295          19.000  
E12  23727233.915   124687377.720        -760.113          25.000  
E16  23720246.652   124650661.956         960.379          33.000  
E24  23740393.305   124756552.741        -533.524          35.000  
E25  25102586.978   131915100.409        2076.730          21.000  
G01  22420357.047   117819633.215       -2813.199          32.000  
G03  21235791.305   111594783.727          53.021          36.000  
G14  20239898.447   106361293.460       -1229.585          37.000  
G17  20737533.242   108976342.670         432.356          28.000  
G19  21448337.263   112711784.358        2165.255          40.000  
G22  20714174.613   108853675.715         320.314          33.000  
J02  37863109.952   198971928.640         547.713          39.000  
J03  39018596.125   205044051.926        -390.563          43.000  
> 2025 04 08 05 17 24.0349349  0 24                     
C03  37317094.126   194319755.332          59.757          36.000  
C07  35771891.248   186273571.134         206.700          37.000  
C09  39261745.572   204446198.8511      -1865.787           8.000  
C10  36511736.763   190126162.520         425.879          29.000  
C24  23432192.943   122017479.272         839.629          34.000  
C26  23213150.783   120876811.775       -2028.387          28.000  
C29  24987222.418   130114936.228       -2360.619          23.000  
C35  21783490.016   113432181.987        -455.520          27.000  
C38  37994398.438   197846751.107        1712.505          31.000  
C40  36046608.465   187704062.909         139.274          29.000  
E10  23566973.636   123845208.174         519.236          32.000  
E11  25219813.999   132530870.4181       1803.307          18.000  
E12  23727357.205   124688033.809        -760.887          21.000  
E16  23720070.150   124649769.621         960.512          32.000  
E24  23740484.217   124757005.979        -534.194          33.000  
E25  25102152.954   131912704.403        2076.551          26.000  
G01  22420839.488   117822136.740       -2815.688          29.000  
G03  21235778.189   111594706.996          55.456          36.000  
G14  20240103.281   106362370.143       -1229.011          38.000  
G17  20737452.673   108975925.282         433.253          27.000  
G19  21447962.597   112709808.016        2164.971          41.000  
G22  20714116.228   108853359.149         321.465          34.000  
J02  37863011.095   198971406.493         551.366          39.000  
J03  39018658.557   205044372.586        -388.044          44.000  
> 2025 04 08 05 17 24.9998759  0 24                     
C03  37317098.004   194319921.557          61.718          26.000  
C07  35771841.163   186273300.730         203.733          37.000  
C09  39262079.522   204447925.3681      -1865.359           7.000  
C10  36511643.509   190125680.071         424.320          29.000  
C24  23432029.537   122016600.050         833.092          31.000  
C26  23213516.211   120878694.694       -2029.019          26.000  
C29  24987659.797   130117140.684       -2361.223          22.000  
C35  21783564.346   113432547.414        -455.512          26.000  
C38  37994081.838   197845025.613        1713.481          32.000  
C40  36046571.871   187703855.290         140.915          29.000  
E10  23566859.996   123844636.838         516.275          31.000  
E11  25219472.516   132529057.7431       1801.756          14.000  
E12  23727490.594   124688693.8931       -760.965          19.000  
E16  23719880.662   124648770.202         958.435          31.000  
E24  23740565.742   124757447.594        -534.353          33.000  
E25  25101775.196   131910628.908        2072.054          36.000  
G01  22421352.414   117824793.936       -2854.235          31.000  
G03  21235754.787   111594579.754          56.300          37.000  
G14  20240315.215   106363484.579       -1231.704          37.000  
G17  20737360.018   108975433.583         433.585          24.000  
G19  21447552.462   112707648.656        2160.059          41.000  
G22  20714044.859   108852977.124         318.389          34.000  
J02  37862898.954   198970792.329         575.985          38.000  
J03  39018716.698   205044673.744        -388.467          44.000  
> 2025 04 08 05 17 25.9998149  0 25                     
C03  37317193.807   194320420.546          61.859          20.000  
C06  40192664.560   209293750.8011      -1883.889          15.000  
C07  35771830.839   186273238.464         205.509          36.000  
C09  39262467.322   204449934.2371      -1864.669           6.000  
C10  36511590.914   190125398.097         424.743          29.000  
C24  23431905.292   122015911.971         829.474          29.000  
C26  23213928.594   120880864.996       -2026.011          26.000  
C29  24988151.925   130119644.825       -2362.466          20.000  
C35  21783673.339   113433146.301        -459.300          32.000  
C38  37993786.411   197843454.292        1713.898          34.000  
C40  36046573.539   187703856.858         142.199          26.000  
E10  23566796.609   123844265.533         516.172          31.000  
E11  25219166.297   132527401.6291       1783.201          14.000  
E12  23727674.235   124689596.553        -760.694          21.000  
E16  23719732.134   124647957.018         956.766          29.000  
E24  23740697.520   124758123.653        -534.040          31.000  
E25  25101418.612   131908704.231        2067.797          34.000  
G01  22421925.486   117827798.236       -2859.454          34.000  
G03  21235772.343   111594665.821          57.118          38.000  
G14  20240578.002   106364859.373       -1234.301          34.000  
G17  20737305.325   108975144.757         432.171          23.000  
G19  21447169.196   112705631.754        2161.759          40.000  
G22  20714012.650   108852802.657         318.264          35.000  
J02  37862822.076   198970355.985         568.298          34.000  
J03  39018818.796   205045204.150        -387.352          44.000  
> 2025 04 08 05 17 26.9997538  0 24                     
C03  37317115.786   194320013.910          75.555          27.000  
C06  40193026.035   209295617.8971      -1883.437          16.000  
C07  35771790.592   186273018.921         205.974          36.000  
C10  36511511.994   190124958.432         425.734          29.000  
C24  23431748.725   122015072.219         813.204          29.000  
C26  23214315.551   120882875.011       -2028.863          27.000  
C29  24988607.235   130121992.467       -2363.548          20.000  
C35  21783749.412   113433591.566        -459.247          36.000  
C38  37993460.762   197841725.893        1715.506          32.000  
C40  36046548.881   187703699.811         143.625          24.000  
E10  23566689.508   123843733.976         517.466          32.000  
E11  25218833.153   132525605.7261       1780.080          20.000  
E12  23727812.665   124690341.917        -761.537          26.000  
E16  23719549.185   124646985.177         957.031          24.000  
E24  23740795.177   124758643.404        -534.675          30.000  
E25  25101027.308   131906624.128        2070.928          33.000  
G01  22422472.233   117830632.286       -2838.369          33.000  
G03  21235760.576   111594596.410          52.701          38.000  
G14  20240814.463   106366078.314       -1234.055          33.000  
G17  20737220.708   108974698.953         430.648          24.000  
G19  21446756.907   112703457.412        2157.109          35.000  
G22  20713950.518   108852468.774         320.884          36.000  
J02  37862717.074   198969774.827         564.993          31.000  
J03  39018891.271   205045574.811        -387.614          44.000  
> 2025 04 08 05 17 27.9996927  0 25                     
C03  37317159.537   194320242.294          72.117          26.000  
C06  40193384.867   209297485.3831      -1849.056          17.000  
C07  35771748.303   186272797.977         207.731          36.000  
C09  39263448.449   204455078.8781      -1867.983          17.000  
C10  36511429.832   190124518.393         426.580          29.000  
C24  23431595.513   122014251.052         803.270          28.000  
C26  23214709.760   120884892.840       -2034.083          27.000  
C29  24989063.800   130124611.959       -2365.074          20.000  
C35  21783836.033   113434036.656        -458.458          37.000  
C38  37993135.468   197839991.911        1724.404          29.000  
C40  36046514.086   187703542.674         142.052          34.000  
E10  23566590.857   123843200.589         519.617          33.000  
E11  25218498.565   132524104.6291       1777.686          18.000  
E12  23727943.056   124691089.016        -760.144          32.000  
E16  23719371.989   124646013.932         957.664          23.000  
E24  23740894.390   124759162.006        -533.440          33.000  
E25  25100623.769   131904537.602        2072.352          32.000  
G01  22423018.136   117833755.393       -2829.487          31.000  
G03  21235749.166   111594530.744          50.774          37.000  
G14  20241044.685   106367295.480       -1229.046          33.000  
G17  20737134.649   108974255.265         423.600          22.000  
G19  21446347.072   112701289.429        2148.339          33.000  
G22  20713888.442   108852133.591         322.483          36.000  
J02  37862613.327   198969201.653         547.037          29.000  
J03  39018964.102   205045947.479        -386.948          44.000  
> 2025 04 08 05 17 28.9996316  0 24                     
C03  37317167.219   194320154.805          68.938          25.000  
C06  40193734.013   209299317.1131      -1848.904          17.000  
C07  35771704.720   186272574.922         206.576          36.000  
C09  39263797.595   204456930.9031      -1867.781          17.000  
C10  36511347.876   190124075.598         426.471          26.000  
C24  23431444.005   122013435.994         800.819          26.000  
C26  23215095.780   120886909.007       -2020.238          26.000  
C29  24989523.569   130126961.024       -2366.713          20.000  
C35  21783918.064   113434479.268        -461.463          36.000  
C38  37992810.681   197838535.213        1727.218          29.000  
C40  36046478.898   187703387.700         136.913          38.000  
E10  23566489.415   123842664.583         518.735          33.000  
E11  25218154.591   132522312.6761       1773.669          19.000  
E12  23728085.944   124691830.352        -761.342          31.000  
E16  23719186.005   124645039.138         959.428          24.000  
E24  23740995.007   124759678.524        -534.659          34.000  
E25  25100228.530   131902452.058        2071.776          31.000  
G03  21235738.560   111594467.149          46.696          37.000  
G14  20241275.713   106368509.308       -1232.045          34.000  
G17  20737052.993   108973816.109         422.572          22.000  
G19  21445939.841   112699131.522        2134.590          32.000  
G22  20713825.673   108851796.462         319.184          36.000  
J02  37862509.786   198968639.115         548.159          26.000  
J03  39019036.539   205046322.009        -391.631          43.000  
> 2025 04 08 05 17 29.9995705  0 25                     
C03  37317152.998   194320072.421          75.248          26.000  
C06  40194083.440   209301151.8941      -1848.738          17.000  
C07  35771663.817   186272357.334         206.597          36.000  
C09  39264137.428   204458787.6201      -1867.581          15.000  
C10  36511267.700   190123643.613         420.598          24.000  
C24  23431287.982   122012621.580         800.659          27.000  
C26  23215420.324   120888910.664       -2004.742          34.000  
C29  24989982.120   130129316.8651      -2368.682          20.000  
C35  21784007.271   113434928.760        -461.014          37.000  
C38  37992496.067   197836802.374        1712.292          30.000  
C40  36046450.886   187703238.206         139.760          38.000  
E10  23566393.051   123842135.240         518.594          33.000  
E11  25217806.401   132520530.1821       1761.365          15.000  
E12  23728228.514   124692580.556        -763.465          33.000  
E16  23719008.997   124644066.462         961.703          25.000  
E24  23741093.808   124760203.135        -535.658          33.000  
E25  25099838.069   131900375.569        2066.915          31.000  
G01  22424104.940   117839395.5211      -2852.196          29.000  
G03  21235728.536   111594408.457          46.978          38.000  
G14  20241506.721   106369729.808       -1233.034          35.000  
G17  20736971.318   108973382.098         434.892          21.000  
G19  21445533.491   112696989.378        2143.267          32.000  
G22  20713763.185   108851464.969         320.061          36.000  
J02  37862408.025   198968075.656         561.756          27.000  
J03  39019109.558   205046698.926        -389.045          43.000  
> 2025 04 08 05 17 30.9995094  0 24                     
C03  37317097.424   194319982.708          74.297          27.000  
C06  40194428.689   209302987.2091      -1849.239          18.000  
C07  35771621.734   186272135.827         207.089          36.000  
C09  39264461.691   204460355.0721      -1866.153          15.000  
C10  36511190.841   190123226.897         401.940          22.000  
C24  23431057.629   122011804.328         803.457          26.000  
C26  23215809.942   120890897.493       -2007.303          33.000  
C29  24990434.994   130131670.7471      -2407.661          20.000  
C35  21784095.597   113435374.578        -460.945          38.000  
C38  37992177.575   197835077.604        1716.149          29.000  
C40  36046423.793   187703083.713         139.478          39.000  
E10  23566290.409   123841601.419         518.533          32.000  
E11  25217474.118   132518755.8901       1763.276          16.000  
E12  23728372.902   124693329.005        -764.401          33.000  
E16  23718823.013   124643073.412         980.234          21.000  
E24  23741195.325   124760721.024        -534.705          34.000  
E25  25099446.727   131898304.797        2044.211          30.000  
G01  22424653.448   117842255.936       -2878.969          33.000  
G03  21235718.530   111594345.974          47.807          38.000  
G14  20241738.648   106370944.359       -1231.132          33.000  
G17  20736888.164   108972933.031         433.758          23.000  
G19  21445121.764   112694831.840        2155.159          32.000  
G22  20713699.817   108851129.781         320.428          36.000  
J03  39019181.695   205047070.904        -388.900          44.000  
> 2025 04 08 05 17 31.9994484  0 23                     
C03  37317064.634   194319747.678          74.691          29.000  
C06  40194804.516   209304975.9481      -1849.986          18.000  
C07  35771609.930   186272070.596         206.645          37.000  
C09  39264819.831   204462362.4841      -1865.416          16.000  
C10  36511143.361   190122966.5091        401.738          19.000  
C24  23430934.302   122011127.522         842.887          27.000  
C26  23216221.744   120893048.684       -2009.729          35.000  
C29  24990928.640   130134218.7461      -2408.871          20.000  
C35  21784212.404   113435975.250        -462.008          36.000  
C38  37991884.865   197833505.890        1711.712          27.000  
C40  36046425.479   187703086.205         139.362          39.000  
E10  23566221.644   123841226.733         517.990          33.000  
E11  25217155.626   132517136.7341       1765.006          19.000  
E12  23728546.069   124694234.686        -763.880          33.000  
E16  23718671.206   124642236.051         979.891          21.000  
E24  23741331.019   124761397.568        -535.054          34.000  
E25  25099109.948   131896713.297        2034.447          31.000  
G01  22425233.734   117845290.174       -2878.966          29.000  
G03  21235737.905   111594441.133          47.451          38.000  
G14  20242001.454   106372317.103       -1231.098          31.000  
G22  20713668.526   108850953.751         317.930          37.000  
J02  37862216.833   198967101.3961        550.867          40.000  
J03  39019284.411   205047603.156        -388.393          43.000  
> 2025 04 08 05 17 33.0003872  0 25                     
C03  37317018.972   194319602.446          72.711          31.000  
C06  40195147.385   209306756.3151      -1851.709          18.000  
C07  35771558.572   186271791.311         204.592          38.000  
C09  39265145.612   204464157.1881      -1865.462          16.000  
C10  36511054.829   190122492.6061        401.134          18.000  
C24  23430754.932   122010205.886         851.495          26.000  
C26  23216582.001   120894985.376       -2010.358          41.000  
C29  24991378.235   130136559.2851      -2410.786          20.000  
C35  21784293.554   113436362.575        -459.230          32.000  
C38  37991466.561   197831719.980        1717.685          24.000  
C40  36046382.215   187702874.272         138.908          39.000  
E10  23566108.229   123840635.848         516.959          34.000  
E11  25216795.482   132515297.196        1767.701          28.000  
E12  23728678.184   124694925.135        -762.163          31.000  
E16  23718470.251   124641182.6391        979.586          17.000  
E24  23741415.466   124761861.182        -535.675          32.000  
E25  25098721.923   131894609.371        2026.889          30.000  
G01  22425773.266   117848101.723       -2871.431          28.000  
G03  21235715.926   111594318.311          50.639          39.000  
G14  20242222.607   106373478.690       -1234.315          33.000  
G17  20736742.858   108972136.8521        432.531          27.000  
G19  21444244.065   112690263.0991       2156.871          30.000  
G22  20713594.983   108850562.109         317.943          37.000  
J02  37862097.721   198966476.530         551.654          41.000  
J03  39019345.176   205047916.260        -386.527          43.000  
> 2025 04 08 05 17 34.0003261  0 25                     
C03  37317002.221   194319518.800          67.233          32.000  
C06  40195501.177   209308592.7401      -1853.837          17.000  
C07  35771518.737   186271575.293         200.524          37.000  
C09  39265496.106   204465741.9441      -1867.158          16.000  
C10  36510976.321   190122077.7711        401.216          17.000  
C24  23430587.685   122009342.455         824.900          22.000  
C26  23216966.073   120896983.134       -2016.004          43.000  
C29  24991849.247   130138954.568       -2413.033          22.000  
C35  21784390.724   113436809.096        -464.066          30.000  
C38  37991136.227   197829991.254        1702.808          23.000  
C40  36046358.569   187702723.373         135.219          33.000  
E10  23566012.932   123840109.151         512.637          32.000  
E11  25216458.553   132513517.043        1766.142          27.000  
E12  23728822.122   124695672.079        -763.031          26.000  
E16  23718284.717   124640189.3301        979.527          12.000  
E24  23741519.832   124762384.740        -539.439          36.000  
E25  25098332.230   131892565.999        2029.883          29.000  
G01  22426321.924   117850964.854       -2883.448          31.000  
G03  21235705.171   111594256.591          45.774          40.000  
G14  20242457.982   106374700.848       -1240.172          34.000  
G17  20736658.654   108971691.130         430.709          23.000  
G19  21443838.183   112688095.148        2151.554          29.000  
G22  20713532.663   108850234.194         309.721          36.000  
J02  37861993.131   198965914.080         545.089          39.000  
J03  39019417.763   205048290.170        -392.143          44.000  
> 2025 04 08 05 17 35.0002651  0 24                     
C03  37317008.010   194319594.126          66.728          34.000  
C06  40195873.014   209310589.2591      -1856.833          18.000  
C07  35771506.539   186271514.934         202.959          35.000  
C09  39265876.637   204467752.0821      -1869.837          16.000  
C24  23430466.963   122008658.916         824.142          22.000  
C26  23217381.679   120899140.267       -2018.803          43.000  
C29  24992342.799   130141508.6291      -2414.435          20.000  
C35  21784513.433   113437677.695        -468.144          30.000  
C38  37990839.527   197828429.753        1705.704          26.000  
C40  36046363.459   187702729.557         134.821          28.000  
E10  23565942.875   123839742.465         509.517          30.000  
E11  25216145.663   132511894.582        1764.999          23.000  
E12  23729004.190   124696580.354        -767.265          24.000  
E16  23718128.319   124639352.3911        979.353          11.000  
E24  23741648.836   124763068.123        -541.350          34.000  
E25  25097903.620   131890373.763        2035.893          28.000  
G01  22426900.917   117853990.288       -2871.444          28.000  
G03  21235724.152   111594350.874          51.247          40.000  
G14  20242723.392   106376084.157       -1240.672          35.000  
G17  20736605.085   108971403.508         436.361          21.000  
G19  21443462.637   112686089.897        2143.059          28.000  
G22  20713502.778   108850068.851         307.604          33.000  
J02  37861920.076   198965509.376         549.876          38.000  
J03  39019519.486   205048820.920        -387.164          44.000  
> 2025 04 08 05 17 36.0002040  0 25                     
C03  37316988.224   194319514.046          67.420          34.000  
C06  40196216.576   209312433.3231      -1860.515          18.000  
C07  35771467.566   186271299.247         201.650          32.000  
C09  39266232.191   204469608.5121      -1873.036          16.000  
C10  36510819.623   190121418.7571        421.601          20.000  
C24  23430320.664   122007822.867         820.317          24.000  
C26  23217766.612   120901144.264       -2018.194          42.000  
C29  24992808.676   130143908.8091      -2414.950          20.000  
C35  21784601.272   113438130.836        -465.059          29.000  
C38  37990508.556   197826709.314        1708.599          29.000  
C40  36046339.476   187702579.701         137.258          25.000  
E10  23565845.442   123839221.931         508.448          30.000  
E11  25215801.501   132510116.096        1763.909          20.000  
E12  23729155.585   124697330.648        -766.413          21.000  
E16  23717941.548   124638623.9561        979.519          10.000  
E24  23741749.266   124763594.632        -541.998          34.000  
E25  25097516.888   131888313.221        2049.644          27.000  
G01  22427449.537   117856846.820       -2872.946          27.000  
G03  21235711.860   111594283.723          55.450          40.000  
G14  20242957.829   106377307.783       -1238.015          35.000  
G17  20736518.445   108970954.0031        427.495          19.000  
G19  21443059.416   112683936.770        2140.016          28.000  
G22  20713442.819   108849746.848         307.493          32.000  
J02  37861816.048   198964941.949         556.971          32.000  
J03  39019591.436   205049191.727        -385.195          44.000  
> 2025 04 08 05 17 37.0001429  0 25                     
C03  37316970.068   194319433.554          65.392          34.000  
C06  40196569.263   209314280.9281      -1863.466          18.000  
C07  35771427.525   186271083.602         203.087          29.000  
C09  39266579.182   204471470.761       -1875.740          21.000  
C10  36510735.213   190120984.062         419.449          22.000  
C24  23430177.494   122006991.957         808.823          24.000  
C26  23218152.276   120903148.270       -2021.506          42.000  
C29  24993274.385   130146309.0291      -2381.596          20.000  
C35  21784695.538   113438579.291        -460.852          24.000  
C38  37990172.320   197824985.025        1712.320          27.000  
C40  36046315.624   187702426.914         141.010          25.000  
E10  23565743.944   123838698.626         510.388          32.000  
E11  25215454.773   132508339.5461       1762.438          15.000  
E12  23729300.816   124698083.5411       -766.544          19.000  
E16  23717755.208   124637631.1721        979.528          10.000  
E24  23741852.226   124764123.750        -541.676          34.000  
E25  25097123.092   131886248.582        2046.426          26.000  
G01  22427999.788   117859703.558       -2868.245          26.000  
G03  21235700.000   111594212.938          57.783          40.000  
G14  20243190.600   106378532.974       -1240.352          35.000  
G17  20736434.934   108970513.2671        434.330          20.000  
G19  21442656.926   112681785.052        2143.459          28.000  
G22  20713382.393   108849425.186         308.650          34.000  
J02  37861710.352   198964370.669         558.651          30.000  
J03  39019663.218   205049561.876        -382.634          40.000  
> 2025 04 08 05 17 38.0000818  0 25                     
C03  37316953.673   194319352.743          61.872          45.000  
C06  40196924.011   209316129.8021      -1866.790          17.000  
C07  35771385.947   186270864.170         205.505          31.000  
C09  39266931.232   204473332.184       -1878.827          21.000  
C10  36510649.866   190120549.724         418.045          22.000  
C24  23430024.694   122006169.213         813.318          24.000  
C26  23218538.803   120905155.159       -2024.962          42.000  
C29  24993739.757   130148961.601       -2387.955          25.000  
C35  21784783.771   113439023.772        -457.780          23.000  
C38  37989794.975   197822831.517        1707.032          37.000  
C40  36046286.338   187702269.345         144.787          23.000  
E10  23565649.603   123838174.549         508.749          34.000  
E11  25215110.405   132506299.8361       1760.921          14.000  
E12  23729446.608   124698833.5451       -765.664          18.000  
E16  23717575.127   124636698.393        1025.743          25.000  
E24  23741948.254   124764648.221        -541.843          32.000  
E25  25096654.310   131883808.551        2047.992          23.000  
G01  22428547.602   117862553.095       -2865.981          24.000  
G03  21235687.202   111594138.992          60.796          35.000  
G14  20243424.232   106379756.192       -1241.060          37.000  
G17  20736346.289   108970064.717         432.438          28.000  
G19  21442252.300   112679625.218        2145.487          27.000  
G22  20713321.928   108849100.454         308.383          34.000  
J02  37861603.420   198964067.920         558.613          28.000  
J03  39019734.363   205049927.595        -381.157          38.000  
> 2025 04 08 05 17 39.0000208  0 25                     
C03  37316968.194   194319435.557          58.475          41.000  
C06  40197319.269   209318138.0151      -1899.377          17.000  
C07  35771374.686   186270801.584         204.888          32.000  
C09  39267315.697   204475353.000       -1878.580          21.000  
C10  36510596.634   190120273.863         418.008          21.000  
C24  23429902.210   122005500.590         809.682          23.000  
C26  23218956.245   120907323.846       -2028.587          44.000  
C29  24994234.245   130151491.704       -2387.985          24.000  
C35  21784897.823   113439621.067        -454.691          21.000  
C38  37989490.517   197821268.791        1705.897          35.000  
C40  36046284.071   187702265.403         148.389          23.000  
E10  23565578.983   123837811.935         506.089          32.000  
E11  25214801.750   132504683.8731       1759.419           9.000  
E12  23729620.020   124699740.9241       -765.308          14.000  
E16  23717415.768   124635816.8371       1026.242          20.000  
E24  23742083.292   124765334.623        -542.146          34.000  
E25  25096301.586   131881904.064        2047.994          21.000  
G01  22429124.234   117865843.2281      -2867.427          20.000  
G03  21235705.920   111594220.701          63.109          30.000  
G14  20243686.981   106381140.814       -1243.158          41.000  
G17  20736285.862   108969778.632         427.704          27.000  
G19  21441877.691   112677624.170        2147.099          28.000  
G22  20713292.380   108848936.661         306.815          32.000  
J02  37861528.903   198963653.536         558.625          27.000  
J03  39019835.524   205050450.943        -380.698          37.000  
> 2025 04 08 05 17 39.9999597  0 25                     
C03  37316954.985   194319363.646          60.171          38.000  
C06  40197677.502   209320022.2691      -1897.453          17.000  
C07  35771331.797   186270582.436         205.540          32.000  
C09  39267666.735   204477217.247       -1878.450          23.000  
C10  36510515.671   190119836.213         421.536          26.000  
C24  23429748.398   122004677.372         821.733          25.000  
C26  23219345.057   120909337.914       -2028.539          44.000  
C29  24994692.310   130153863.670       -2390.007          22.000  
C35  21784976.050   113440060.157        -452.821          23.000  
C38  37989158.928   197819548.936        1707.745          35.000  
C40  36046255.871   187702099.723         163.759          24.000  
E10  23565484.230   123837291.479         507.425          30.000  
E11  25214461.766   132502911.1211       1757.904           8.000  
E12  23729760.304   124700489.0441       -761.992          14.000  
E16  23717226.581   124634775.3911       1028.358          17.000  
E24  23742184.003   124765860.899        -542.827          36.000  
E25  25095919.032   131879841.167        2062.652          21.000  
G01  22429669.538   117868695.0971      -2866.063          20.000  
G03  21235696.009   111594141.148          69.133          30.000  
G14  20243921.700   106382370.502       -1242.385          42.000  
G17  20736200.402   108969336.471         434.128          26.000  
G19  21441471.153   112675463.890        2148.373          30.000  
G22  20713232.403   108848616.510         306.554          35.000  
J02  37861421.558   198963081.965         557.428          25.000  
J03  39019906.256   205050816.003        -378.686          39.000  
> 2025 04 08 05 17 40.9998986  0 25                     
C03  37316941.457   194319288.770          61.914          36.000  
C06  40198039.014   209321905.7771      -1895.831          17.000  
C07  35771292.787   186270364.155         205.574          32.000  
C09  39268008.161   204479082.382       -1880.270          27.000  
C10  36510431.392   190119402.390         419.041          25.000  
C24  23429580.776   122003846.408         813.080          28.000  
C26  23219735.349   120911354.085       -2031.497          43.000  
C29  24995153.353   130156241.126       -2391.225          23.000  
C35  21785059.655   113440499.387        -465.374          23.000  
C38  37988830.617   197817828.398        1707.455          34.000  
C40  36046223.156   187701921.9781        167.151          18.000  
E10  23565382.263   123836774.349         503.940          30.000  
E11  25214125.362   132501141.3711       1756.408           7.000  
E12  23729899.370   124701235.546        -759.709          21.000  
E16  23717035.276   124633732.2941       1031.123          16.000  
E24  23742286.794   124766390.981        -543.833          36.000  
E25  25095531.063   131877767.320        2059.492          27.000  
G01  22430215.422   117871547.1061      -2865.390          19.000  
G03  21235686.378   111594054.057          74.291          31.000  
G14  20244157.899   106383600.635       -1244.092          44.000  
G17  20736117.622   108968891.670         429.850          26.000  
G19  21441060.700   112673305.929        2143.000          32.000  
G22  20713171.507   108848298.166         304.322          35.000  
J02  37861315.094   198962513.740         554.711          26.000  
J03  39019976.070   205051182.690        -379.219          38.000  
> 2025 04 08 05 17 41.9998375  0 25                     
C03  37316927.853   194319212.616          60.599          36.000  
C06  40198402.850   209323785.0691      -1894.530          17.000  
C07  35771252.502   186270144.732         203.889          33.000  
C09  39268357.907   204480643.418       -1882.412          28.000  
C10  36510348.537   190118968.676         417.429          24.000  
C24  23429416.078   122003021.686         807.306          30.000  
C26  23220123.168   120913370.835       -2031.478          41.000  
C29  24995602.030   130158617.543       -2393.047          22.000  
C35  21785143.784   113440946.539        -454.773          23.000  
C38  37988496.236   197816104.479        1710.457          36.000  
C40  36046188.568   187701738.2101        171.473          17.000  
E10  23565284.418   123836255.876         504.256          30.000  
E11  25213778.989   132499303.056        1869.498          22.000  
E12  23730038.061   124701980.614        -761.378          23.000  
E16  23716849.891   124632685.9391       1032.325          15.000  
E24  23742388.611   124766919.118        -543.806          38.000  
E25  25095143.019   131875695.864        2051.376          26.000  
G01  22430757.035   117874395.1391      -2863.281          15.000  
G03  21235676.672   111594233.171          68.733          28.000  
G14  20244392.823   106384827.242       -1243.787          44.000  
G17  20736033.568   108968448.403         427.576          28.000  
G19  21440649.572   112671150.715        2138.893          35.000  
G22  20713111.436   108847980.301         302.476          34.000  
J02  37861208.856   198961943.435         556.933          24.000  
J03  39020046.409   205051544.778        -378.034          38.000  
> 2025 04 08 05 17 42.9997764  0 24                     
C03  37316915.955   194319137.106          62.631          36.000  
C06  40198765.992   209325664.3121      -1893.710          16.000  
C07  35771211.824   186269926.456         204.979          33.000  
C09  39268718.351   204482512.158       -1882.667          29.000  
C10  36510269.485   190118537.045         416.897          24.000  
C24  23429251.585   122002204.795         801.402          27.000  
C26  23220512.393   120915387.172       -2031.914          40.000  
C35  21785225.421   113441385.795        -453.652          23.000  
C38  37988167.757   197814379.046        1711.143          36.000  
C40  36046155.085   187701552.5881        151.184          17.000  
E10  23565188.578   123835737.348         505.264          31.000  
E11  25213415.734   132497419.7561       1875.939          20.000  
E12  23730181.756   124702726.524        -761.424          23.000  
E16  23716665.313   124631917.0941       1034.379          15.000  
E24  23742489.435   124767449.025        -543.336          38.000  
E25  25094753.982   131873632.362        2048.162          24.000  
G01  22431306.349   117877242.7261      -2860.464          18.000  
G03  21235665.074   111594153.114          65.624          27.000  
G14  20244627.954   106386057.171       -1243.877          44.000  
G17  20735949.420   108968007.289         427.394          28.000  
G19  21440241.349   112668998.592        2138.964          33.000  
G22  20713050.972   108847664.091         303.219          33.000  
J02  37861100.724   198961369.937         560.386          23.000  
J03  39020117.853   205051906.903        -376.929          36.000  
> 2025 04 08 05 17 43.9997154  0 23                     
C03  37316932.275   194319218.424          59.237          35.000  
C06  40199157.053   209327697.8961      -1891.525          16.000  
C07  35771202.662   186269863.371         204.084          33.000  
C09  39269107.912   204484535.596       -1883.915          29.000  
C10  36510226.146   190118260.797         416.267          27.000  
C24  23429118.609   122001543.103         804.941          31.000  
C26  23220931.634   120917560.024       -2033.863          39.000  
C35  21785336.775   113441981.578        -455.249          25.000  
C38  37987871.993   197812810.577        1709.477          36.000  
C40  36046160.612   187701817.1301        154.534          18.000  
E10  23565123.055   123835375.747         504.151          32.000  
E11  25213075.601   132495686.291        1876.164          21.000  
E12  23730352.169   124703630.447        -761.916          24.000  
E24  23742624.473   124768135.155        -545.134          39.000  
E25  25094406.954   131871998.125        2046.694          27.000  
G01  22431883.880   117880242.9031      -2857.587          19.000  
G03  21235683.192   111594231.289          64.521          28.000  
G14  20244893.402   106387443.105       -1245.847          44.000  
G17  20735894.089   108967722.257         428.043          30.000  
G19  21439860.443   112667002.310        2139.335          36.000  
G22  20713022.623   108847503.664         302.192          32.000  
J02  37861022.609   198960952.876         559.202          26.000  
J03  39020218.715   205052426.066        -378.017          37.000  
> 2025 04 08 05 17 44.9996543  0 24                     
C03  37316918.822   194319142.032          66.718          36.000  
C06  40199517.141   209329575.0011      -1893.234          16.000  
C07  35771160.728   186269646.279         202.698          32.000  
C09  39269468.001   204486406.652       -1888.950          27.000  
C10  36510140.443   190117831.240         414.502          28.000  
C24  23428951.362   122000725.856         803.436          34.000  
C26  23221326.498   120919579.349       -2034.370          39.000  
C35  21785419.256   113442423.433        -459.056          28.000  
C38  37987543.159   197811087.049        1711.183          36.000  
C40  36046129.172   187701647.720         156.367          23.000  
E10  23565023.561   123834859.442         502.484          32.000  
E11  25212710.191   132493796.854        1872.730          23.000  
E12  23730494.308   124704378.671        -763.625          24.000  
E16  23716448.732   124630779.0361       1018.515          18.000  
E24  23742724.641   124768667.558        -546.385          39.000  
E25  25094014.863   131869938.162        2046.830          30.000  
G01  22432440.332   117883084.426       -2855.475          20.000  
G03  21235674.536   111594152.946          64.110          27.000  
G14  20245129.376   106388673.942       -1245.781          43.000  
G17  20735811.084   108967281.504         425.941          32.000  
G19  21439449.765   112664850.355        2138.236          37.000  
G22  20712965.700   108847189.958         299.044          36.000  
J02  37860910.225   198960379.761         559.757          27.000  
J03  39020289.503   205052789.315        -377.015          38.000  
> 2025 04 08 05 17 45.9995932  0 24                     
C03  37316903.121   194319061.494          65.554          36.000  
C06  40199875.280   209331453.5651      -1893.596          16.000  
C07  35771121.043   186269430.734         203.903          32.000  
C09  39269826.440   204488281.034       -1889.400          26.000  
C10  36510062.385   190117402.118         415.255          27.000  
C24  23428788.762   121999909.786         803.678          38.000  
C26  23221710.719   120921600.910       -2032.760          38.000  
C35  21785504.284   113442870.021        -462.401          26.000  
C38  37987208.478   197809362.088        1710.965          35.000  
C40  36046103.577   187701478.081         157.410          22.000  
E10  23564924.817   123834344.220         502.865          34.000  
E11  25212351.527   132491910.201        1874.906          23.000  
E12  23730631.201   124705128.553        -762.903          25.000  
E16  23716246.859   124629746.0751       1019.060          16.000  
E24  23742828.857   124769199.086        -545.796          39.000  
E25  25093617.525   131867878.532        2048.522          28.000  
G01  22432995.136   117885927.969       -2857.682          21.000  
G03  21235657.935   111594076.521          63.462          28.000  
G14  20245365.200   106389906.328       -1245.904          43.000  
G17  20735729.128   108966842.269         427.443          32.000  
G19  21439043.434   112662697.868        2141.468          34.000  
G22  20712908.627   108846877.615         300.507          34.000  
J02  37860805.485   198959806.640         560.020          24.000  
J03  39020358.943   205053152.384        -376.005          37.000  
> 2025 04 08 05 17 46.9995321  0 24                     
C03  37316888.955   194318983.290          61.939          37.000  
C06  40200233.158   209333330.8621      -1892.822          15.000  
C07  35771080.196   186269211.439         206.502          33.000  
C09  39270188.814   204490151.226       -1878.839          30.000  
C10  36509980.766   190116970.354         418.245          26.000  
C24  23428638.791   121999091.504         804.777          36.000  
C26  23222101.873   120923618.638       -2035.600          40.000  
C35  21785595.946   113443317.845        -462.542          27.000  
C38  37986884.027   197807639.871        1704.273          34.000  
C40  36046071.724   187701305.0121        159.672          19.000  
E10  23564830.907   123833826.286         503.572          35.000  
E11  25212002.494   132490019.902        1876.810          23.000  
E12  23730782.521   124705873.246        -761.483          26.000  
E16  23716046.822   124628711.5541       1018.656          15.000  
E24  23742930.112   124769729.223        -546.461          39.000  
E25  25093233.416   131865814.621        2051.457          30.000  
G01  22433538.884   117889042.1951      -2855.933          17.000  
G03  21235643.770   111593998.706          62.257          26.000  
G14  20245601.062   106391137.037       -1250.261          42.000  
G17  20735643.013   108966398.541         431.418          32.000  
G19  21438628.446   112660540.194        2146.380          34.000  
G22  20712850.992   108846562.257         301.285          30.000  
J02  37860697.185   198959232.573         559.330          21.000  
J03  39020429.918   205053513.235        -378.916          36.000  
> 2025 04 08 05 17 47.9994710  0 24                     
C03  37316876.158   194318910.624          53.890          36.000  
C06  40200586.407   209335209.7901      -1892.727          16.000  
C07  35771037.120   186268991.024         207.929          31.000  
C09  39270544.761   204492011.468       -1871.367          28.000  
C10  36509891.522   190116533.914         421.945          32.000  
C24  23428488.988   121998268.913         810.989          34.000  
C26  23222490.498   120925643.843       -2039.578          42.000  
C35  21785682.979   113443763.049        -455.945          30.000  
C38  37986554.949   197805925.045        1699.593          32.000  
C40  36046043.637   187701131.631         159.855          23.000  
E10  23564729.971   123833308.226         504.205          34.000  
E11  25211654.828   132488129.2691       1877.439          19.000  
E12  23730925.016   124706620.952        -761.220          25.000  
E16  23715846.655   124627678.8211       1017.412          15.000  
E24  23743031.535   124770262.408        -548.145          41.000  
E25  25092832.088   131863748.556        2055.108          30.000  
G01  22434083.401   117891882.2501      -2851.296          18.000  
G03  21235629.473   111593927.519          57.608          23.000  
G14  20245837.392   106392374.502       -1252.669          42.000  
G17  20735556.467   108965953.875         431.780          34.000  
G19  21438217.824   112658382.450        2146.651          37.000  
G22  20712794.425   108846248.408         299.627          31.000  
J02  37860588.154   198958661.512         555.357          28.000  
J03  39020500.763   205053876.698        -376.289          37.000  
> 2025 04 08 05 17 49.0004099  0 24                     
C03  37316883.971   194318938.411          50.313          33.000  
C06  40200951.573   209336903.625       -1892.965          20.000  
C07  35771014.055   186268862.949         207.777          30.000  
C09  39270921.020   204493959.852       -1866.100          27.000  
C10  36509825.886   190116190.461         421.219          31.000  
C24  23428313.928   121997535.942         810.378          40.000  
C26  23222899.134   120927766.447       -2045.497          40.000  
C35  21785784.328   113444298.547        -452.913          27.000  
C38  37986242.584   197804306.598        1694.558          31.000  
C40  36046031.064   187701051.950         146.948          25.000  
E10  23564650.844   123832885.826         501.720          35.000  
E11  25211321.178   132486330.0411       1868.664          18.000  
E12  23731089.021   124707461.142        -759.505          24.000  
E16  23715670.695   124626740.0341       1017.200          19.000  
E24  23743155.068   124770892.123        -549.578          41.000  
E25  25092452.269   131861770.363        2059.390          32.000  
G01  22434643.732   117894810.0251      -2846.083          14.000  
G03  21235638.786   111593945.201          63.237          22.000  
G14  20246092.834   106393709.011       -1255.560          44.000  
G17  20735491.131   108965601.127         433.556          34.000  
G19  21437814.023   112656312.489        2146.868          42.000  
G22  20712753.971   108846029.280         297.984          36.000  
J02  37860496.436   198958188.107         551.606          36.000  
J03  39020591.619   205054332.655        -374.798          34.000  
> 2025 04 08 05 17 50.0003488  0 24                     
C03  37316873.254   194318879.403          46.389          35.000  
C06  40201305.103   209338783.359       -1893.276          23.000  
C07  35770974.557   186268646.681         201.987          29.000  
C09  39271276.948   204495814.320       -1866.058          24.000  
C10  36509745.617   190115758.645         419.171          29.000  
C24  23428154.514   121996716.229         809.438          43.000  
C26  23223289.539   120929801.412       -2048.053          42.000  
C35  21785868.045   113444742.107        -456.215          33.000  
C38  37985918.883   197802602.204        1693.468          33.000  
C40  36046000.261   187700892.950         150.803          28.000  
E10  23564554.986   123832375.314         500.393          37.000  
E11  25210978.890   132484451.0701       1868.301          17.000  
E12  23731231.498   124708207.197        -757.609          23.000  
E16  23715480.702   124625700.4131       1031.228          20.000  
E24  23743258.572   124771432.629        -551.558          41.000  
E25  25092047.624   131859700.311        2059.936          36.000  
G01  22435184.932   117897643.7051      -2843.279          14.000  
G03  21235631.366   111593871.395          62.684          21.000  
G14  20246330.644   106394955.072       -1256.448          44.000  
G17  20735406.065   108965156.517         433.937          36.000  
G19  21437399.485   112654154.531        2148.333          44.000  
G22  20712691.390   108845721.236         298.575          40.000  
J02  37860389.785   198957626.962         550.560          35.000  
J03  39020664.544   205054975.360        -377.723          32.000  
> 2025 04 08 05 17 51.0002878  0 24                     
C03  37316893.040   194318976.381          40.650          35.000  
C06  40201690.037   209340816.667       -1895.277          23.000  
C07  35770961.666   186268583.241         204.554          29.000  
C09  39271664.280   204497820.068       -1865.955          24.000  
C10  36509695.251   190115478.170         420.930          26.000  
C24  23428028.001   121996045.397         811.079          44.000  
C26  23223710.148   120931988.920       -2049.768          42.000  
C35  21785981.666   113445334.347        -451.844          33.000  
C38  37985620.590   197801051.790        1690.088          33.000  
C40  36045997.263   187700881.268         153.191          26.000  
E10  23564482.136   123832016.179         501.039          37.000  
E11  25210666.506   132482725.1891       1867.692          17.000  
E12  23731409.275   124709397.6251       -756.519          19.000  
E16  23715318.814   124624810.3491       1033.219          20.000  
E24  23743392.279   124772125.391        -551.884          41.000  
E25  25091684.276   131857781.241        2061.364          37.000  
G01  22435753.638   117900627.8421      -2842.031          14.000  
G03  21235651.752   111593951.9931         61.005          18.000  
G14  20246598.359   106396352.151       -1258.813          45.000  
G17  20735351.802   108964863.243         436.308          36.000  
G19  21437017.849   112652146.844        2150.647          45.000  
G22  20712661.710   108845565.234         297.731          40.000  
J02  37860311.839   198957219.467         548.201          36.000  
J03  39020766.473   205055491.506        -375.174          30.000  
> 2025 04 08 05 17 52.0002267  0 24                     
C03  37316883.447   194318922.191          40.383          35.000  
C06  40202055.484   209342699.886       -1897.037          21.000  
C07  35770920.894   186268362.400         208.834          27.000  
C09  39272021.033   204499670.655       -1867.285          23.000  
C10  36509613.708   190115042.293         421.256          25.000  
C24  23427864.914   121995220.233         810.904          43.000  
C26  23224105.274   120934026.331       -2054.063          41.000  
C35  21786069.505   113445773.014        -452.974          34.000  
C38  37985295.914   197799349.267        1687.603          34.000  
C40  36045964.885   187700711.963         156.047          26.000  
E10  23564390.699   123831503.495         498.659          37.000  
E11  25210315.449   132480843.5161       1867.753          11.000  
E12  23731553.775   124710138.0871       -756.083          19.000  
E16  23715133.242   124623761.2111       1034.951          20.000  
E24  23743496.007   124772663.810        -553.904          41.000  
E25  25091293.946   131855706.971        2059.544          33.000  
G01  22436296.263   117903451.7731      -2839.891          10.000  
G03  21235641.559   111593877.5821         59.626          17.000  
G14  20246836.694   106397597.968       -1261.403          45.000  
G17  20735267.560   108964413.552         436.102          36.000  
G19  21436605.035   112649983.467        2148.894          43.000  
G22  20712603.850   108845255.493         294.924          39.000  
J02  37860204.813   198956659.587         544.685          36.000  
J03  39020838.123   205055854.132        -376.081          26.000  
> 2025 04 08 05 17 53.0001656  0 24                     
C03  37316873.610   194318868.014          41.113          35.000  
C06  40202420.987   209344583.5881      -1897.737          14.000  
C07  35770885.575   186268139.532         209.219          26.000  
C09  39272377.543   204501524.565       -1867.754          22.000  
C10  36509531.621   190114605.687         422.997          25.000  
C24  23427701.284   121994396.242         810.010          42.000  
C26  23224506.153   120936060.015       -2037.364          36.000  
C35  21786154.103   113446211.061        -452.671          33.000  
C38  37984968.597   197797647.685        1687.883          34.000  
C40  36045931.365   187700542.924         154.355          27.000  
E10  23564291.524   123830991.409         498.526          36.000  
E11  25209961.750   132479243.0701       1867.871           7.000  
E12  23731692.635   124710880.965        -758.032          21.000  
E16  23714942.631   124622715.1191       1032.699          19.000  
E24  23743597.693   124773204.393        -554.533          40.000  
E25  25090901.874   131853636.176        2052.253          28.000  
G01  22436840.442   117906314.609       -2877.390          28.000  
G03  21235633.820   111593809.7151         53.244          16.000  
G14  20247075.385   106398844.481       -1261.290          44.000  
G17  20735183.075   108963963.624         435.027          36.000  
G19  21436192.277   112647820.190        2149.454          43.000  
G22  20712546.946   108844946.284         295.385          38.000  
J02  37860098.143   198956099.537         547.487          36.000  
J03  39020908.931   205056214.061        -374.484          21.000  
> 2025 04 08 05 17 54.0001045  0 23                     
C03  37316863.361   194318811.552          44.099          35.000  
C06  40202786.078   209346466.2341      -1897.279          14.000  
C07  35770840.550   186267918.228         208.625          26.000  
C09  39272667.685   204503086.300       -1912.170          24.000  
C10  36509447.323   190114168.753         423.527          27.000  
C24  23427553.130   121993572.647         813.112          42.000  
C26  23224912.915   120938067.609       -2022.298          34.000  
C35  21786240.387   113446648.690        -451.034          31.000  
C38  37984643.266   197795945.920        1689.583          31.000  
C40  36045902.229   187700377.226         153.128          27.000  
E10  23564198.832   123830479.791         498.991          38.000  
E12  23731831.982   124711625.227        -757.464          21.000  
E16  23714759.401   124621669.0331       1034.240          18.000  
E24  23743702.264   124773745.775        -554.518          41.000  
E25  25090515.985   131851575.595        2049.904          27.000  
G01  22437384.809   117909177.330       -2877.405          27.000  
G03  21235625.370   111593744.4561         51.811          15.000  
G14  20247313.364   106400090.116       -1261.124          44.000  
G17  20735098.478   108963515.658         435.822          36.000  
G19  21435781.505   112645656.519        2152.667          43.000  
G22  20712489.629   108844637.272         296.896          37.000  
J02  37859995.858   198955538.388         548.803          33.000  
J03  39020979.625   205056573.8301       -373.647          20.000  
> 2025 04 08 05 17 55.0000435  0 24                     
C03  37316885.564   194318912.617          38.250          32.000  
C06  40203175.827   209348502.7301      -1896.921          13.000  
C07  35770825.879   186267850.550         207.870          26.000  
C09  39273071.824   204505135.338       -1909.571          23.000  
C10  36509388.582   190113883.897         424.819          28.000  
C24  23427425.437   121992900.334         814.583          40.000  
C26  23225347.333   120940219.861       -2016.770          35.000  
C35  21786357.025   113447239.044        -451.880          31.000  
C38  37984348.289   197794400.218        1683.321          30.000  
C40  36045900.149   187700364.408         154.971          32.000  
E10  23564135.894   123830123.501         498.413          38.000  
E11  25209433.179   132476465.5751       1882.592          15.000  
E12  23732006.480   124712524.599        -756.599          24.000  
E16  23714604.727   124621089.4331       1035.626          18.000  
E24  23743836.890   124774705.134        -555.385          41.000  
E25  25090158.351   131849674.999        2033.622          25.000  
G01  22437958.931   117912193.842       -2875.911          24.000  
G03  21235643.376   111593835.4051         50.300          13.000  
G14  20247582.297   106401762.928       -1265.041          45.000  
G17  20735043.634   108963220.593         438.038          35.000  
G19  21435400.187   112643645.421        2152.760          42.000  
G22  20712461.168   108844483.554         294.981          37.000  
J02  37859923.926   198955133.578         545.964          31.000  
J03  39021079.475   205057087.3291       -373.028          18.000  
> 2025 04 08 05 17 55.9999824  0 24                     
C03  37316874.696   194318859.460          42.355          30.000  
C06  40203544.497   209350386.0461      -1896.384          12.000  
C07  35770785.032   186267630.230         207.647          27.000  
C09  39273443.792   204507032.346       -1912.094          21.000  
C10  36509306.364   190113444.200         426.679          29.000  
C24  23427266.172   121992072.093         814.942          39.000  
C26  23225741.185   120942528.552       -2012.473          35.000  
C35  21786439.693   113447678.200        -451.689          30.000  
C38  37984024.438   197792708.873        1676.078          30.000  
C40  36045870.095   187700196.615         155.051          32.000  
E10  23564037.188   123829614.872         495.911          39.000  
E11  25209077.250   132474569.0681       1883.508          15.000  
E12  23732150.006   124713267.592        -756.946          24.000  
E16  23714419.980   124620040.5571       1036.617          17.000  
E24  23743943.841   124775251.750        -559.110          41.000  
E25  25089773.942   131847634.115        2030.413          27.000  
G01  22438500.281   117915057.474       -2876.812          21.000  
G03  21235635.806   111593772.8961         49.139          13.000  
G14  20247822.356   106403017.508       -1267.899          45.000  
G17  20734959.018   108962768.770         440.329          36.000  
G19  21434992.994   112641487.425        2133.308          37.000  
G22  20712403.533   108844175.855         295.979          37.000  
J02  37859821.922   198954578.773         538.885          29.000  
J03  39021151.950   205057446.8671       -371.685          18.000  
> 2025 04 08 05 17 56.9999213  0 24                     
C03  37316872.954   194318805.781          38.997          27.000  
C06  40203911.499   209352268.3011      -1897.239          12.000  
C07  35770744.916   186267408.100         209.257          25.000  
C09  39273817.989   204508941.5681      -1926.370          19.000  
C10  36509222.179   190113002.418         428.196          28.000  
C24  23427112.735   121991246.557         799.668          33.000  
C26  23226133.370   120944524.207       -2014.076          39.000  
C35  21786521.892   113448113.732        -447.863          30.000  
C38  37983702.218   197791021.710        1671.304          29.000  
C40  36045837.473   187700028.034         156.116          31.000  
E10  23563938.312   123829104.999         496.258          40.000  
E11  25208728.048   132472669.8891       1885.174          16.000  
E12  23732291.564   124714009.431        -756.412          22.000  
E16  23714235.364   124618989.4681       1038.286          13.000  
E24  23744046.126   124775795.794        -558.954          41.000  
E25  25089390.564   131845596.706        2023.894          26.000  
G01  22439044.460   117917922.3221      -2880.801          17.000  
G03  21235625.370   111593710.3361         48.659           9.000  
G14  20248062.545   106404271.291       -1270.317          45.000  
G17  20734873.633   108962313.754         441.274          36.000  
G19  21434591.928   112639355.578        2119.707          33.000  
G22  20712345.429   108843866.552         295.011          38.000  
J02  37859717.051   198954025.467         544.316          25.000  
J03  39021220.659   205057802.5041       -370.856          18.000  
> 2025 04 08 05 17 57.9998602  0 24                     
C03  37316864.466   194318754.267          34.870          34.000  
C07  35770702.851   186267183.951         209.898          24.000  
C09  39274191.437   204510854.2891      -1929.006          19.000  
C10  36509135.745   190112558.660         427.291          27.000  
C24  23426964.244   121990439.963         771.930          27.000  
C26  23226522.407   120946528.363       -2026.125          35.000  
C29  25003044.546   130197260.6531      -2355.072          13.000  
C35  21786605.740   113448546.075        -448.435          32.000  
C38  37983379.547   197789336.364        1670.923          32.000  
C40  36045805.002   187699855.278         159.967          29.000  
E10  23563845.283   123828595.776         494.473          39.000  
E11  25208381.095   132470768.2551       1889.074          20.000  
E12  23732431.174   124714748.7061       -754.381          19.000  
E16  23714051.498   124617936.5801       1038.798          12.000  
E24  23744151.859   124776339.645        -560.549          41.000  
E25  25089006.136   131843563.283        2021.359          27.000  
G01  22439591.188   117920792.3181      -2886.394          15.000  
G03  21235612.985   111593647.0711         48.939          16.000  
G14  20248303.185   106405528.178       -1273.623          45.000  
G17  20734787.499   108961858.369         439.860          36.000  
G19  21434192.211   112637231.652        2122.086          29.000  
G22  20712286.876   108843558.844         290.627          38.000  
J02  37859609.332   198953449.563         583.718          30.000  
J03  39021288.618   205058158.860        -374.177          26.000  
> 2025 04 08 05 17 58.9997992  0 23                     
C03  37316887.082   194318862.731          31.002          34.000  
C07  35770690.691   186267115.365         209.863          23.000  
C09  39274593.590   204512922.8231      -1930.212          20.000  
C10  36509082.213   190112271.847         426.965          24.000  
C24  23426849.854   121989815.835         759.673          23.000  
C26  23226942.547   120948704.737       -2049.611          34.000  
C29  25003527.943   130199757.3471      -2355.958          16.000  
C35  21786726.388   113449135.508        -448.827          35.000  
C38  37983084.982   197787804.705        1673.623          35.000  
C40  36045802.135   187699836.454         158.515          27.000  
E10  23563778.860   123828244.711         493.750          40.000  
E11  25208055.052   132469019.0191       1893.634          18.000  
E12  23732602.786   124715644.9301       -754.890          17.000  
E16  23713885.843   124617311.0571       1039.726          11.000  
E24  23744288.396   124777043.321        -561.334          40.000  
E25  25088649.215   131841683.088        2024.469          28.000  
G01  22440166.621   117923820.9361      -2887.204          16.000  
G14  20248573.729   106406942.747       -1272.000          46.000  
G17  20734732.468   108961560.933         440.359          38.000  
G19  21433820.300   112635259.150        2127.488          28.000  
G22  20712260.925   108843411.580         290.367          39.000  
J02  37859536.014   198953000.101         585.818          33.000  
J03  39021387.081   205058675.273        -374.530          27.000  
> 2025 04 08 05 17 59.9997381  0 24                     
C03  37316880.730   194318821.285          27.871          43.000  
C07  35770648.064   186266893.360         209.164          23.000  
C09  39274960.479   204514833.924       -1925.829          22.000  
C10  36509001.513   190111831.593         426.527          23.000  
C24  23426709.495   121989047.708         797.890          22.000  
C26  23227328.324   120950757.197       -2052.927          35.000  
C29  25003975.777   130202098.9121      -2357.989          17.000  
C35  21786809.974   113449569.693        -446.821          34.000  
C38  37982764.748   197786117.622        1675.321          35.000  
C40  36045772.999   187699665.776         157.532          28.000  
E10  23563682.271   123827738.695         493.520          40.000  
E11  25207707.536   132467397.0801       1898.780          19.000  
E12  23732744.831   124716388.6691       -756.008          17.000  
E16  23713686.725   124616258.0161       1040.908          10.000  
E24  23744393.867   124777590.450        -560.760          40.000  
E25  25088263.026   131839642.317        2031.732          26.000  
G01  22440714.286   117926695.3061      -2887.792          16.000  
G03  21235553.101   111593654.3411         61.434          35.000  
G14  20248814.106   106408199.282       -1271.725          45.000  
G17  20734646.072   108961107.691         440.637          39.000  
G19  21433417.323   112633107.556        2150.599          31.000  
G22  20712204.208   108843108.561         291.153          39.000  
J02  37859433.129   198952663.548         588.571          33.000  
J03  39021457.476   205059037.135        -374.450          28.000  
> 2025 04 08 05 18 00.9996770  0 22                     
C03  37316871.848   194318775.882          34.220          36.000  
C07  35770606.206   186266932.886         208.926          21.000  
C09  39275327.238   204516748.147       -1928.655          23.000  
C10  36508915.285   190111391.086         425.656          23.000  
C24  23426563.009   121988240.132         792.313          29.000  
C26  23227712.171   120952810.815       -2072.040          37.000  
C29  25004431.573   130204445.1471      -2360.343          18.000  
C35  21786896.427   113450001.650        -449.193          33.000  
C38  37982444.082   197784429.316        1674.769          36.000  
C40  36045743.432   187699496.216         155.369          24.000  
E10  23563588.848   123827495.465         492.828          39.000  
E11  25207359.889   132465482.4591       1902.065          18.000  
E12  23732885.247   124717130.0711       -755.482          17.000  
E24  23744498.307   124778136.554        -561.372          40.000  
E25  25087877.605   131837597.596        2030.866          22.000  
G01  22441114.021   117928849.9101      -2878.223          15.000  
G03  21235548.717   111593581.884          58.280          31.000  
G14  20249054.353   106409456.452       -1272.034          45.000  
G17  20734561.943   108960654.727         438.431          39.000  
G22  20712147.660   108843070.284         290.411          39.000  
J02  37859326.515   198952064.543         580.061          29.000  
J03  39021529.239   205059398.147        -377.651          35.000  
> 2025 04 08 05 18 01.9996159  0 24                     
C03  37316864.766   194318727.173          32.265          33.000  
C07  35770564.347   186266708.889         209.435          20.000  
C09  39275699.093   204518660.619       -1930.395          20.000  
C10  36508832.355   190110949.314         426.290          25.000  
C24  23426364.659   121987436.063         801.844          25.000  
C26  23228103.812   120954862.283       -2062.773          39.000  
C29  25004879.876   130206789.8261      -2362.704          18.000  
C35  21786981.081   113450436.804        -452.141          32.000  
C38  37982116.821   197782737.831        1677.922          35.000  
C40  36045715.964   187699327.083         152.183          22.000  
E10  23563493.327   123826986.517         493.918          38.000  
E11  25207010.743   132463562.9331       1905.849          17.000  
E12  23733029.859   124717868.6001       -754.711          17.000  
E16  23713474.097   124615147.4601        939.614          24.000  
E24  23744603.946   124778681.134        -561.002          40.000  
E25  25087492.484   131835552.9431       2028.955          19.000  
G01  22441662.454   117931715.0921      -2882.685          15.000  
G03  21235540.735   111593509.710          57.787          29.000  
G14  20249294.899   106410712.915       -1271.405          45.000  
G17  20734476.015   108960201.568         437.512          38.000  
G19  21432590.720   112628766.2061       2159.060          28.000  
G22  20712091.711   108842764.907         290.301          37.000  
J02  37859222.000   198951475.739         570.028          26.000  
J03  39021601.301   205059759.159        -375.898          36.000  
> 2025 04 08 05 18 02.9995549  0 24                     
C03  37316887.175   194318836.741          31.383          33.000  
C07  35770548.683   186266641.365         209.501          21.000  
C09  39276106.136   204520733.8411      -1931.392          18.000  
C10  36508781.615   190110664.847         425.210          25.000  
C24  23426250.063   121986779.430         795.478          24.000  
C26  23228530.042   120957064.222       -2063.274          40.000  
C29  25005360.668   130209295.828       -2413.801          22.000  
C35  21787093.728   113451030.846        -453.023          33.000  
C38  37981823.250   197781201.289        1679.102          36.000  
C40  36045717.388   187699318.002         150.052          21.000  
E10  23563427.897   123826636.453         493.196          39.000  
E11  25206684.794   132461797.3961       1909.966          10.000  
E12  23733199.766   124718764.1921       -753.806          11.000  
E16  23713309.436   124614349.326         940.353          25.000  
E24  23744740.577   124779385.491        -561.585          40.000  
E25  25087132.059   131833668.8241       2025.723          15.000  
G01  22442245.476   117934740.6241      -2886.028          19.000  
G03  21235561.945   111593594.671          58.783          25.000  
G14  20249565.236   106412125.292       -1272.120          45.000  
G17  20734421.977   108959907.554         436.882          38.000  
G19  21432207.210   112626751.469        2157.568          24.000  
G22  20712064.955   108842618.735         288.767          38.000  
J02  37859145.478   198951049.740         570.274          23.000  
J03  39021701.057   205060277.574        -377.687          32.000  
> 2025 04 08 05 18 03.9994938  0 24                     
C03  37316880.149   194318792.158          34.538          33.000  
C07  35770509.879   186266419.593         210.359          23.000  
C09  39276477.748   204522925.8531      -1929.566          18.000  
C10  36508700.840   190110227.245         424.143          23.000  
C24  23426099.137   121985975.419         789.452          25.000  
C26  23228925.037   120959112.982       -2059.574          37.000  
C29  25005821.617   130211695.5301      -2413.006          19.000  
C35  21787180.836   113451469.843        -451.099          33.000  
C38  37981499.043   197779509.202        1682.271          36.000  
C40  36045690.575   187699157.051         149.037          22.000  
E10  23563335.130   123826130.526         494.646          39.000  
E11  25206323.713   132459873.1841       1913.958           8.000  
E12  23733343.536   124719506.0321       -752.965          11.000  
E16  23713116.539   124613396.334         940.092          30.000  
E24  23744845.373   124779934.272        -560.234          40.000  
E25  25086738.900   131831633.2371       2022.806          14.000  
G01  22442797.562   117937614.5041      -2888.557          16.000  
G03  21235559.416   111593522.525          68.222          22.000  
G14  20249805.839   106413383.558       -1269.378          45.000  
G17  20734338.204   108959459.544         437.276          37.000  
G19  21431793.066   112624583.428        2150.654          27.000  
G22  20712008.462   108842317.396         291.084          40.000  
J02  37859043.417   198950467.758         571.108          21.000  
J03  39021772.876   205060644.766        -377.756          26.000  
> 2025 04 08 05 18 05.0004326  0 24                     
C03  37316860.719   194318683.575          34.296          34.000  
C07  35770457.471   186266135.176         208.972          25.000  
C09  39276837.255   204524781.0171      -1928.872          17.000  
C10  36508610.359   190109727.483         423.497          24.000  
C24  23425936.106   121985114.495         781.937          29.000  
C26  23229312.126   120961097.769       -2055.827          31.000  
C29  25006273.461   130214034.3891      -2386.585          19.000  
C35  21787253.142   113451847.527        -454.403          33.000  
C38  37981164.231   197777750.864        1681.160          34.000  
C40  36045647.161   187698933.129         149.515          24.000  
E10  23563224.563   123825560.800         493.634          37.000  
E11  25205947.230   132458146.4041       1917.841           7.000  
E12  23733473.702   124720183.9821       -752.729          11.000  
E16  23712913.335   124612380.328         937.569          30.000  
E24  23744938.365   124780418.351        -561.050          40.000  
E25  25086339.033   131829535.3941       2018.034          14.000  
G01  22443325.253   117940394.477       -2854.284          28.000  
G03  21235543.283   111593380.374          62.253          27.000  
G14  20250034.636   106414579.508       -1271.767          45.000  
G17  20734242.626   108958948.684         432.748          37.000  
G19  21431368.316   112622356.470        2147.512          35.000  
G22  20711941.965   108841952.646         287.404          39.000  
J02  37858929.852   198949847.972         542.848          38.000  
J03  39021833.790   205060944.734        -376.607          22.000  
> 2025 04 08 05 18 06.0003716  0 23                     
C03  37316879.699   194318787.251          38.048          35.000  
C07  35770443.175   186266068.566         207.129          25.000  
C09  39277239.370   204526848.8211      -1927.634          17.000  
C10  36508556.790   190109444.225         423.441          24.000  
C24  23425805.790   121984466.119         801.633          34.000  
C26  23229740.023   120963291.419       -2053.040          28.000  
C29  25006740.631   130216560.219       -2385.984          23.000  
C35  21787369.855   113452442.995        -456.615          34.000  
C38  37980873.826   197776210.356        1683.647          33.000  
C40  36045640.360   187698923.498         152.911          29.000  
E10  23563158.402   123825210.445         493.345          37.000  
E12  23733650.373   124721084.7291       -760.652          12.000  
E16  23712764.732   124611585.213         936.178          29.000  
E24  23745074.265   124781122.063        -561.119          40.000  
E25  25085980.575   131827661.2661       2014.911          14.000  
G01  22443894.952   117943391.375       -2858.012          27.000  
G03  21235570.958   111593461.318          60.062          30.000  
G14  20250304.843   106415992.968       -1269.898          45.000  
G17  20734188.158   108958658.653         433.482          37.000  
G19  21430987.074   112620353.021        2145.605          36.000  
G22  20711917.176   108841807.754         288.496          39.000  
J02  37858854.398   198949447.711         544.104          37.000  
J03  39021935.514   205061462.369        -374.745          22.000  
> 2025 04 08 05 18 07.0003105  0 24                     
C03  37316869.637   194318733.498          43.199          35.000  
C07  35770410.029   186265846.769         207.598          25.000  
C09  39277610.945   204528760.4681      -1925.602          16.000  
C10  36508474.778   190109005.141         423.152          23.000  
C24  23425649.429   121983646.465         803.891          40.000  
C26  23230143.075   120965330.658       -2057.459          33.000  
C29  25007125.996   130218666.836       -2385.399          21.000  
C35  21787453.628   113452883.324        -455.670          34.000  
C38  37980543.286   197774509.344        1688.498          32.000  
C40  36045606.015   187698755.769         152.579          29.000  
E10  23563065.298   123824701.127         494.145          40.000  
E11  25205455.495   132455562.5381       1680.403          24.000  
E12  23733795.604   124721827.1891       -757.062          12.000  
E16  23712575.095   124610633.123         936.599          31.000  
E24  23745177.524   124781664.401        -559.834          41.000  
E25  25085587.378   131825632.4251       2013.043          14.000  
G01  22444432.312   117946235.756       -2860.317          26.000  
G03  21235565.992   111593652.185          58.499          36.000  
G14  20250544.509   106417246.133       -1268.551          45.000  
G17  20734104.347   108958209.752         433.427          37.000  
G19  21430575.590   112618191.165        2148.250          38.000  
G22  20711858.847   108841503.707         288.818          40.000  
J02  37858748.103   198948886.464         548.087          33.000  
J03  39022006.396   205061820.083        -373.430          25.000  
> 2025 04 08 05 18 08.0002494  0 24                     
C03  37316861.037   194318677.996          39.868          35.000  
C07  35770365.754   186265625.486         206.504          31.000  
C09  39277980.083   204530669.5231      -1923.205          16.000  
C10  36508390.330   190108568.882         422.706          23.000  
C24  23425493.931   121982840.574         780.471          36.000  
C26  23230540.394   120967372.420       -2058.810          33.000  
C29  25007596.164   130221037.300       -2385.401          22.000  
C35  21787541.561   113453325.755        -457.010          35.000  
C38  37980219.604   197772807.688        1688.975          32.000  
C40  36045578.228   187698588.562         154.001          29.000  
E10  23562972.156   123824193.216         494.248          40.000  
E11  25205145.004   132453868.9931       1673.227          19.000  
E12  23733936.900   124722571.8841       -761.114          18.000  
E16  23712391.715   124609681.743         936.125          29.000  
E24  23745284.344   124782209.595        -560.111          41.000  
E25  25085202.538   131823606.4831       2011.593          13.000  
G01  22444900.082   117948745.797       -2863.734          23.000  
G03  21235561.589   111593584.024          53.577          40.000  
G14  20250784.436   106418500.075       -1268.444          44.000  
G17  20734021.098   108957764.123         433.206          35.000  
G19  21430149.978   112616031.307        2147.284          43.000  
G22  20711802.280   108841202.218         288.500          40.000  
J02  37858644.468   198948324.695         550.417          31.000  
J03  39022079.939   205062178.263        -372.693          25.000  
> 2025 04 08 05 18 09.0001883  0 24                     
C03  37316851.313   194318620.803          46.978          35.000  
C07  35770327.849   186265404.608         210.627          29.000  
C09  39278344.499   204532578.5351      -1922.309          16.000  
C10  36508305.957   190108133.232         423.034          23.000  
C24  23425313.024   121981752.145         806.481          42.000  
C26  23230937.488   120969415.950       -2053.558          31.000  
C29  25008071.803   130223408.863       -2387.627          23.000  
C35  21787627.770   113453769.030        -455.771          35.000  
C38  37979894.497   197771104.963        1690.905          33.000  
C40  36045550.516   187698421.832         152.731          24.000  
E10  23562873.993   123823685.549         494.295          38.000  
E11  25204813.002   132452182.316        1671.937          23.000  
E12  23734081.868   124723319.3081       -762.282          18.000  
E16  23712202.415   124608464.724         935.355          29.000  
E24  23745389.740   124782755.624        -559.440          41.000  
E25  25084814.176   131821582.9131       2009.234           7.000  
G01  22445404.801   117951581.602       -2849.389          21.000  
G03  21235552.764   111593521.050          49.543          36.000  
G14  20251024.439   106419754.156       -1267.207          44.000  
G17  20733937.325   108957317.288         434.282          33.000  
G19  21429732.536   112613870.920        2147.606          44.000  
G22  20711747.287   108840899.845         288.902          41.000  
J02  37858542.108   198947757.379         559.276          29.000  
J03  39022151.458   205062537.027        -372.929          27.000  
> 2025 04 08 05 18 10.0001272  0 23                     
C03  37316840.595   194318557.749          54.176          34.000  
C07  35770284.753   186265181.646         210.172          30.000  
C09  39278717.216   204534487.7791      -1921.437          16.000  
C10  36508221.790   190107697.992         423.154          24.000  
C24  23425153.610   121980936.855         799.226          43.000  
C26  23231338.685   120971452.002       -2036.630          29.000  
C29  25008537.456   130225782.229       -2387.768          22.000  
C35  21787713.586   113454210.153        -456.970          35.000  
C38  37979566.599   197769400.465        1694.509          33.000  
C40  36045523.909   187698257.888         151.001          24.000  
E10  23562780.833   123823178.076         495.456          40.000  
E11  25204479.108   132450496.999        1675.346          23.000  
E12  23734222.246   124724069.471        -762.501          20.000  
E16  23712019.617   124607516.151         934.964          31.000  
E24  23745494.143   124783300.596        -558.060          41.000  
E25  25084429.317   131819562.8071       2007.066           6.000  
G03  21235538.149   111593458.006          50.683          34.000  
G14  20251264.647   106421007.412       -1267.827          43.000  
G17  20733853.758   108957136.714         431.900          32.000  
G19  21429319.497   112611711.971        2145.075          44.000  
G22  20711690.102   108840598.516         287.604          39.000  
J02  37858438.754   198947182.704         564.336          27.000  
J03  39022219.886   205062897.000        -373.398          27.000  
> 2025 04 08 05 18 11.0000661  0 22                     
C03  37316829.297   194318485.832          55.266          33.000  
C07  35770241.677   186264955.745         207.392          29.000  
C09  39279082.757   204536391.1401      -1920.566          15.000  
C10  36508136.743   190107257.965         423.140          23.000  
C24  23424998.711   121980120.638         798.754          43.000  
C26  23231748.895   120973812.379       -2028.244          33.000  
C29  25008995.333   130228154.015       -2389.024          21.000  
C35  21787801.819   113454651.903        -459.015          35.000  
C38  37979242.617   197767688.489        1696.925          33.000  
C40  36045492.825   187698091.606         148.751          25.000  
E10  23562681.995   123822665.858         495.717          39.000  
E11  25204083.176   132448350.693        1675.906          24.000  
E12  23734371.037   124724815.0171       -763.244          20.000  
E16  23711836.537   124606564.018         933.329          31.000  
E24  23745597.965   124783840.833        -557.483          40.000  
E25  25084046.276   131817553.0941       2005.082           5.000  
G03  21235526.251   111593392.811          45.539          34.000  
G14  20251503.976   106422256.561       -1265.412          43.000  
G17  20733769.910   108956689.278         428.556          30.000  
G19  21428908.275   112609551.558        2143.834          44.000  
G22  20711633.235   108840295.147         287.105          38.000  
J03  39022288.632   205063254.618        -374.587          28.000  
> 2025 04 08 05 18 12.0000051  0 24                     
C03  37316848.708   194318575.217          57.703          34.000  
C07  35770232.908   186264893.098         206.812          29.000  
C09  39279487.702   204538454.7801      -1919.304          15.000  
C10  36508083.305   190106980.070         422.490          23.000  
C24  23424873.922   121979467.351         797.155          42.000  
C26  23232168.829   120975987.718       -2042.774          31.000  
C29  25009485.718   130230954.154       -2389.887          21.000  
C35  21787919.562   113455256.023        -459.857          35.000  
C38  37978943.050   197766133.826        1701.563          32.000  
C40  36045496.647   187698359.367         147.998          24.000  
E10  23562615.366   123822316.302         495.618          37.000  
E11  25203806.093   132446819.296        1679.643          24.000  
E12  23734550.238   124725726.0741       -766.234          18.000  
E16  23711691.063   124605775.918         932.601          31.000  
E24  23745732.197   124784543.165        -556.860          41.000  
E25  25083569.531   131815047.1301       2043.567          19.000  
G01  22447108.015   117960348.6851      -2858.170          34.000  
G03  21235545.063   111593492.250          46.258          32.000  
G14  20251773.414   106423665.439       -1263.924          43.000  
G17  20733717.971   108956409.030         425.179          29.000  
G19  21428528.064   112607553.787        2143.402          44.000  
G22  20711606.778   108840152.456         289.771          37.000  
J02  37858262.495   198946511.7081        561.559          28.000  
J03  39022387.488   205063772.232        -372.815          29.000  
> 2025 04 08 05 18 12.9999440  0 24                     
C03  37316836.454   194318501.752          56.224          33.000  
C07  35770191.274   186264670.987         207.796          29.000  
C09  39279854.685   204540356.5771      -1896.582          15.000  
C10  36508001.499   190106542.617         421.944          22.000  
C24  23424719.567   121978656.625         794.992          43.000  
C26  23232561.295   120978014.281       -2040.926          33.000  
C29  25009947.436   130233329.609       -2391.219          21.000  
C35  21788005.340   113455698.969        -462.456          35.000  
C38  37978613.316   197764417.524        1700.877          31.000  
C40  36045464.007   187698197.092         145.967          24.000  
E10  23562520.369   123821806.565         494.438          37.000  
E11  25203485.652   132445123.676        1679.148          21.000  
E12  23734686.381   124726474.8051       -767.084          19.000  
E16  23711514.822   124604827.704         930.972          32.000  
E24  23745837.761   124785084.317        -558.173          42.000  
E25  25083181.937   131812987.2751       2043.554          18.000  
G01  22447659.071   117963193.151       -2862.354          34.000  
G03  21235532.209   111593430.635          46.608          31.000  
G14  20252011.487   106424913.978       -1266.306          43.000  
G17  20733637.064   108955968.435         425.328          31.000  
G19  21428117.685   112605396.469        2140.471          44.000  
G22  20711549.255   108839849.280         285.889          38.000  
J02  37858158.505   198945934.969         560.302          25.000  
J03  39022453.180   205064128.797        -372.624          29.000  
> 2025 04 08 05 18 13.9998829  0 24                     
C03  37316824.369   194318431.985          56.188          33.000  
C07  35770150.409   186264449.016         206.382          28.000  
C09  39280223.036   204542236.9971      -1895.376          15.000  
C10  36507918.363   190106106.976         420.343          22.000  
C24  23424566.579   121977847.608         794.182          39.000  
C26  23232949.433   120980038.653       -2041.053          34.000  
C29  25010408.123   130235704.787       -2391.387          22.000  
C35  21788092.186   113456146.356        -462.673          35.000  
C38  37978284.350   197762701.685        1703.383          31.000  
C40  36045427.638   187698037.205         145.555          25.000  
E10  23562426.440   123821297.712         494.581          36.000  
E11  25203163.282   132443429.3191       1678.643          18.000  
E12  23734828.089   124727227.4491       -768.261          19.000  
E16  23711334.853   124603881.501         930.219          32.000  
E24  23745940.796   124785626.434        -557.986          42.000  
E25  25082800.807   131810928.1931       2043.794          18.000  
G01  22448206.699   117966041.504       -2865.609          33.000  
G03  21235467.660   111593369.413          46.749          33.000  
G14  20252250.927   106426165.993       -1264.947          44.000  
G17  20733554.528   108955528.518         427.163          33.000  
G19  21427708.375   112603241.634        2140.926          44.000  
G22  20711493.100   108839549.065         286.246          38.000  
J02  37858052.884   198945360.826         559.579          25.000  
J03  39022522.039   205064487.522        -373.874          29.000  
> 2025 04 08 05 18 14.9998219  0 24                     
C03  37316840.539   194318516.715          57.188          33.000  
C07  35770138.698   186264386.272         204.773          28.000  
C09  39280616.345   204544271.2771      -1894.549          15.000  
C10  36507868.878   190105829.498         418.765          22.000  
C24  23424443.945   121977196.937         792.478          37.000  
C26  23233375.719   120982219.093       -2037.800          35.000  
C29  25010903.961   130238236.737       -2390.819          21.000  
C35  21788210.286   113456750.532        -462.910          36.000  
C38  37977983.939   197761139.419        1704.355          32.000  
C40  36045428.819   187698032.818         146.651          26.000  
E10  23562361.367   123820946.024         494.627          37.000  
E11  25202873.364   132441893.1191       1678.728          16.000  
E12  23735005.847   124728140.8151       -771.421          18.000  
E16  23711184.039   124603093.410         930.050          32.000  
E24  23746076.883   124786326.644        -557.950          42.000  
E25  25082445.534   131809026.7571       2044.375          17.000  
G01  22448782.581   117969048.016       -2863.774          37.000  
G03  21235494.023   111593467.639          44.911          33.000  
G14  20252520.122   106427571.607       -1264.619          44.000  
G17  20733500.546   108955244.853         426.595          34.000  
G19  21427329.419   112601244.536        2139.895          44.000  
G22  20711466.400   108839405.887         285.842          38.000  
J02  37857979.716   198944945.719         558.821          30.000  
J03  39022619.153   205065002.243        -373.255          30.000  
> 2025 04 08 05 18 15.9997608  0 24                     
C03  37316827.217   194318443.435          60.365          34.000  
C07  35770095.397   186264166.416         208.611          29.000  
C09  39280984.659   204546152.3531      -1894.139          15.000  
C10  36507786.904   190105397.927         418.771          23.000  
C24  23424296.016   121976391.482         790.192          34.000  
C26  23233764.119   120984244.364       -2044.184          35.000  
C29  25011360.114   130240611.275       -2387.657          23.000  
C35  21788300.392   113457199.210        -463.708          36.000  
C38  37977654.935   197759421.570        1705.679          31.000  
C40  36045393.312   187697871.935         149.065          28.000  
E10  23562264.403   123820438.382         494.781          37.000  
E11  25202547.658   132440200.4491       1678.534           7.000  
E12  23735153.514   124728897.5331       -770.329          18.000  
E16  23711005.831   124602148.965         929.535          32.000  
E24  23746181.379   124786869.415        -557.046          41.000  
E25  25082054.474   131806968.5181       2044.690          14.000  
G01  22449324.175   117971898.957       -2865.954          37.000  
G03  21235490.295   111593409.747          44.718          33.000  
G14  20252759.525   106428823.074       -1264.254          44.000  
G17  20733420.970   108954806.346         424.329          37.000  
G19  21426920.071   112599091.807        2139.360          44.000  
G22  20711409.908   108839106.702         286.608          39.000  
J02  37857872.559   198944373.410         559.768          31.000  
J03  39022685.875   205065361.541        -371.934          30.000  
> 2025 04 08 05 18 16.9996997  0 24                     
C03  37316813.801   194318365.519          64.292          35.000  
C07  35770049.604   186263943.287         205.271          29.000  
C09  39281344.185   204548029.4811      -1890.827          15.000  
C10  36507705.135   190104964.234         418.624          23.000  
C24  23424142.297   121975587.544         788.484          34.000  
C26  23234156.622   120986274.077       -2043.937          34.000  
C29  25011821.570   130242982.534       -2385.249          21.000  
C35  21788385.009   113457647.801        -466.157          35.000  
C38  37977330.635   197757699.271        1710.582          31.000  
C40  36045363.408   187697707.742         149.176          30.000  
E10  23562166.146   123819928.964         494.193          37.000  
E11  25202225.456   132438588.8091       1678.496           4.000  
E12  23735294.791   124729649.6751       -767.663          18.000  
E16  23710826.630   124601204.779         927.746          31.000  
E24  23746285.482   124787411.539        -557.311          42.000  
E25  25081652.827   131804906.5081       2047.176          14.000  
G01  22449868.073   117974747.284       -2864.912          38.000  
G03  21235482.575   111593350.551          43.634          34.000  
G14  20252997.935   106430069.021       -1263.062          44.000  
G17  20733339.801   108954368.493         421.989          37.000  
G19  21426512.128   112596938.793        2137.415          45.000  
G22  20711354.521   108838806.106         285.154          38.000  
J02  37857766.208   198943797.974         560.995          31.000  
J03  39022753.104   205065717.199        -372.127          28.000  
> 2025 04 08 05 18 17.9996386  0 23                     
C03  37316799.130   194318285.988          70.994          35.000  
C07  35770007.951   186263725.557         204.684          27.000  
C09  39281712.049   204550182.5071      -1885.366          16.000  
C10  36507629.007   190104804.387         418.439          22.000  
C24  23423997.816   121974786.107         788.787          34.000  
C26  23234549.369   120988303.534       -2043.266          35.000  
C29  25012273.076   130245353.966       -2385.533          23.000  
C35  21788477.064   113458101.984        -467.363          35.000  
C38  37976991.888   197755974.446        1711.884          32.000  
C40  36045331.049   187697546.501         147.844          32.000  
E10  23562073.828   123819421.488         494.774          37.000  
E12  23735442.907   124730405.6901       -770.845          18.000  
E16  23710659.065   124600263.096         926.825          32.000  
E24  23746390.129   124787953.597        -556.579          41.000  
E25  25081271.210   131802844.7051       2049.883          14.000  
G01  22450414.314   117977597.907       -2863.372          34.000  
G03  21235482.894   111593295.174          41.843          35.000  
G14  20253237.188   106431319.042       -1262.920          44.000  
G17  20733258.576   108953934.038         420.955          36.000  
G19  21426104.729   112594789.711        2134.916          44.000  
G22  20711299.978   108838508.941         284.073          39.000  
J02  37857656.502   198943223.508         562.564          31.000  
J03  39022820.576   205066075.531        -372.515          30.000  
> 2025 04 08 05 18 18.9995776  0 24                     
C03  37316809.567   194318354.010          73.777          35.000  
C07  35769994.704   186263661.206         203.906          28.000  
C09  39282100.224   204552208.7331      -1886.837          15.000  
C10  36507571.990   190104526.672         417.829          20.000  
C24  23423878.742   121974139.939         786.041          33.000  
C26  23234972.320   120990489.075       -2046.791          36.000  
C29  25012755.386   130247878.744       -2387.339          25.000  
C35  21788602.621   113458971.272        -469.718          33.000  
C38  37976687.243   197754404.806        1710.182          33.000  
C40  36045331.592   187697541.005         145.793          32.000  
E10  23562006.618   123819070.832         492.727          37.000  
E11  25201505.017   132434802.4031       1857.529          16.000  
E12  23735622.127   124731318.6421       -771.954          14.000  
E16  23710510.012   124599479.852         924.380          31.000  
E24  23746524.380   124788652.867        -558.681          41.000  
E25  25080912.902   131800934.8281       2051.092          14.000  
G01  22450982.065   117980604.132       -2867.841          28.000  
G03  21235505.622   111593396.653          39.988          34.000  
G14  20253506.046   106432722.828       -1264.896          44.000  
G17  20733209.954   108953656.764         418.315          38.000  
G19  21425722.437   112592798.165        2133.216          43.000  
G22  20711272.641   108838368.057         282.114          39.000  
J02  37857583.596   198942802.845         561.878          28.000  
J03  39022917.952   205066587.310        -373.916          30.000  
> 2025 04 08 05 18 19.9995165  0 24                     
C03  37316792.029   194318271.588          70.794          35.000  
C07  35769955.881   186263445.909         203.859          30.000  
C09  39282458.026   204554088.4271      -1890.412          15.000  
C10  36507485.800   190104097.381         417.780          24.000  
C24  23423728.397   121973341.220         786.823          33.000  
C26  23235363.099   120992522.566       -2045.583          35.000  
C29  25013207.023   130250254.426       -2387.793          24.000  
C35  21788694.507   113459427.372        -469.017          33.000  
C38  37976354.923   197752681.538        1712.115          33.000  
C40  36045303.562   187697382.897         146.891          35.000  
E10  23561911.734   123818566.521         492.678          37.000  
E11  25201142.418   132432932.1331       1857.840          13.000  
E12  23735770.974   124732077.6491       -772.162          14.000  
E16  23710332.684   124598542.947         925.026          31.000  
E24  23746630.056   124789198.173        -557.917          41.000  
E25  25080523.321   131798871.3481       2051.129          14.000  
G01  22451446.293   117983145.958       -2863.105          25.000  
G03  21235496.478   111593344.438          41.193          34.000  
G14  20253746.030   106433973.933       -1264.366          44.000  
G17  20733129.759   108953225.173         420.213          38.000  
G19  21425311.871   112590651.708        2135.436          43.000  
G22  20711218.528   108838073.253         282.455          38.000  
J02  37857483.316   198942228.426         564.052          27.000  
J03  39022987.354   205066950.515        -374.415          31.000  
> 2025 04 08 05 18 20.9994554  0 24                     
C03  37316774.378   194318187.769          67.000          35.000  
C07  35769910.650   186263226.552         207.563          26.000  
C09  39282817.515   204555963.9951      -1888.870          15.000  
C10  36507400.396   190103665.611         418.426          24.000  
C24  23423571.942   121972540.430         788.052          34.000  
C26  23235754.965   120994552.805       -2044.087          35.000  
C29  25013666.643   130252626.121       -2387.993          23.000  
C35  21788781.784   113459880.845        -466.000          31.000  
C38  37976028.187   197750955.009        1713.734          33.000  
C40  36045274.519   187697220.966         149.461          34.000  
E10  23561815.838   123818058.784         494.010          37.000  
E11  25200792.898   132431059.5891       1858.183          13.000  
E12  23735906.218   124732834.714        -771.230          24.000  
E16  23710149.249   124597602.872         926.252          33.000  
E24  23746735.321   124789741.874        -557.351          40.000  
E25  25080129.132   131796805.2221       2048.290          14.000  
G01  22451986.857   117985993.886       -2863.586          27.000  
G03  21235484.824   111593288.981          42.130          32.000  
G14  20253985.301   106435223.374       -1263.434          44.000  
G17  20733047.354   108952790.732         421.515          40.000  
G19  21424902.692   112588502.654        2136.168          44.000  
G22  20711162.804   108837776.119         284.651          39.000  
J02  37857379.925   198941650.141         565.199          28.000  
J03  39023056.944   205067309.059        -373.339          28.000  
> 2025 04 08 05 18 22.0003943  0 24                     
C03  37316778.482   194318203.224          66.189          35.000  
C07  35769884.774   186263101.104         206.894          25.000  
C09  39283201.156   204557933.6371      -1887.121          15.000  
C10  36507337.946   190103328.911         418.775          23.000  
C24  23423436.342   121971835.239         786.901          35.000  
C26  23236163.489   120996679.836       -2043.843          34.000  
C29  25014146.817   130255098.983       -2387.869          24.000  
C35  21788887.817   113460429.117        -466.883          30.000  
C38  37975720.506   197749324.127        1711.207          34.000  
C40  36045263.933   187697154.716         147.337          34.000  
E10  23561735.100   123817648.454         492.937          37.000  
E11  25200458.536   132429280.7651       1865.186          11.000  
E12  23736070.710   124733688.465        -772.164          24.000  
E16  23709988.766   124596759.334         924.377          33.000  
E24  23746857.842   124790381.080        -557.942          40.000  
E25  25079752.199   131794836.5041       2048.960          15.000  
G01  22452550.073   117988941.456       -2863.967          27.000  
G03  21235489.527   111593331.654          39.007          31.000  
G14  20254243.629   106436571.390       -1266.493          43.000  
G17  20732984.603   108952453.263         418.515          40.000  
G19  21424512.569   112586448.548        2134.101          44.000  
G22  20711127.035   108837575.576         281.442          39.000  
J02  37857293.491   198941169.094         561.577          28.000  
J03  39023145.289   205067765.514        -372.588          27.000  
> 2025 04 08 05 18 23.0003332  0 24                     
C03  37316763.174   194318120.825          70.350          35.000  
C07  35769845.483   186262882.307         204.202          26.000  
C09  39283564.186   204559805.9161      -1885.872          10.000  
C10  36507257.883   190102896.162         418.917          24.000  
C24  23423283.430   121971035.783         784.599          36.000  
C26  23236550.202   120998711.148       -2048.287          32.000  
C29  25014596.486   130257471.951       -2387.738          25.000  
C35  21788972.040   113460881.257        -469.722          29.000  
C38  37975386.818   197747597.611        1712.416          33.000  
C40  36045233.335   187696993.387         147.424          34.000  
E10  23561639.448   123817141.449         493.175          36.000  
E11  25200110.158   132427400.1311       1865.796          13.000  
E12  23736215.791   124734446.480        -772.974          22.000  
E16  23709808.273   124595820.716         923.704          34.000  
E24  23746961.852   124790924.657        -559.198          40.000  
E25  25079355.555   131792772.1011       2048.009          18.000  
G01  22453094.777   117991792.085       -2864.876          26.000  
G03  21235474.518   111593278.822          38.260          29.000  
G14  20254482.545   106437820.665       -1265.109          44.000  
G17  20732903.641   108952019.476         419.093          41.000  
G19  21424105.132   112584299.609        2133.786          45.000  
G22  20711073.354   108837279.567         281.840          38.000  
J02  37857189.145   198940871.561         561.020          29.000  
J03  39023215.721   205068123.434        -373.891          29.000  
> 2025 04 08 05 18 24.0002721  0 24                     
C03  37316747.210   194318035.478          68.014          35.000  
C07  35769808.533   186262662.371         203.979          26.000  
C09  39283922.363   204561673.5791      -1884.815          10.000  
C10  36507176.264   190102461.692         418.310          25.000  
C24  23423129.561   121970234.569         786.135          37.000  
C26  23236935.960   121000743.480       -2048.215          30.000  
C29  25015045.800   130259842.835       -2387.871          26.000  
C35  21789060.703   113461334.890        -468.438          31.000  
C38  37975061.468   197745869.755        1712.238          33.000  
C40  36045200.283   187696829.307         148.726          34.000  
E10  23561542.540   123816632.565         492.866          36.000  
E11  25199762.624   132425517.2871       1866.234          13.000  
E12  23736357.518   124735200.638        -772.560          20.000  
E16  23709634.018   124594880.305         924.617          32.000  
E24  23747063.107   124791466.682        -558.643          41.000  
E25  25078966.649   131790706.1891       2049.863          16.000  
G01  22453640.025   117994639.768       -2865.158          25.000  
G03  21235458.554   111593224.000          39.807          29.000  
G14  20254720.505   106439071.045       -1266.731          44.000  
G17  20732822.022   108951584.559         419.072          41.000  
G19  21423698.239   112582149.708        2134.461          45.000  
G22  20711019.316   108836982.454         281.567          38.000  
J02  37857082.044   198940293.808         562.794          29.000  
J03  39023285.798   205068750.451        -372.967          30.000  
> 2025 04 08 05 18 25.0002111  0 25                     
C03  37316762.256   194318108.197          70.573          34.000  
C07  35769798.097   186262602.451         203.706          27.000  
C08  39244932.911   204358663.8681       1933.376          32.000  
C09  39284316.046   204563700.2601      -1883.574           9.000  
C10  36507127.154   190102187.722         417.681          25.000  
C24  23423005.503   121969593.301         784.374          37.000  
C26  23237353.927   121002932.471       -2044.087          26.000  
C29  25015523.426   130262373.841       -2388.460          26.000  
C35  21789180.677   113461945.174        -468.741          32.000  
C38  37974765.629   197744569.070        1712.553          33.000  
C40  36045200.040   187696824.837         148.852          34.000  
E10  23561480.839   123816285.749         492.247          36.000  
E11  25199445.499   132423794.9301       1867.478          13.000  
E12  23736536.550   124736118.4671       -772.583          17.000  
E16  23709485.078   124594100.717         925.165          32.000  
E24  23747198.369   124792169.740        -559.162          40.000  
E25  25078603.956   131788800.7011       2050.163          19.000  
G01  22454218.680   117997647.264       -2863.669          24.000  
G03  21235481.694   111593328.334          42.010          27.000  
G14  20254990.374   106440480.783       -1266.216          44.000  
G17  20732771.114   108951310.995         418.895          41.000  
G19  21423323.254   112580161.085        2134.463          45.000  
G22  20710994.789   108836847.096         280.876          38.000  
J02  37857002.955   198939876.167         563.231          29.000  
J03  39023384.785   205069266.924        -373.691          29.000  
> 2025 04 08 05 18 26.0001500  0 25                     
C03  37316746.985   194318025.958          66.429          35.000  
C07  35769755.545   186262384.965         202.689          28.000  
C08  39244561.487   204356717.239        1930.516          32.000  
C09  39284677.915   204565568.1851      -1882.559           9.000  
C10  36507045.030   190101756.259         416.678          24.000  
C24  23422853.827   121968796.649         779.835          37.000  
C26  23237740.678   121004959.628       -2042.825          22.000  
C29  25015976.131   130264748.010       -2390.451          27.000  
C35  21789265.237   113462400.791        -471.721          32.000  
C38  37974436.476   197742844.128        1708.303          33.000  
C40  36045170.679   187696663.696         143.956          34.000  
E10  23561386.423   123815782.133         489.383          36.000  
E11  25199092.962   132421911.9241       1868.881          13.000  
E12  23736679.870   124736876.2131       -773.862          17.000  
E16  23709306.720   124593162.653         921.554          30.000  
E24  23747303.615   124792717.016        -561.879          41.000  
E25  25078218.442   131786736.4891       2048.259          16.000  
G01  22454770.917   118000497.637       -2866.322          25.000  
G03  21235477.816   111593276.446          34.416          29.000  
G14  20255229.328   106441735.460       -1272.316          44.000  
G17  20732689.889   108950879.491         414.733          41.000  
G19  21422917.954   112578014.489        2129.815          45.000  
G22  20710941.145   108836553.480         275.995          38.000  
J02  37856895.048   198939299.052         561.352          30.000  
J03  39023453.756   205069625.026        -373.432          28.000  
> 2025 04 08 05 18 27.0000889  0 24                     
C03  37316732.838   194317945.469          68.144          35.000  
C07  35769715.616   186262168.601         202.477          28.000  
C08  39244192.386   204354774.497        1930.329          32.000  
C09  39285038.809   204567436.6021      -1881.896           9.000  
C10  36506963.130   190101326.288         416.652          24.000  
C24  23422702.975   121968003.335         780.673          37.000  
C26  23238132.151   121006986.928       -2044.011          22.000  
C29  25016438.355   130267123.343       -2391.846          26.000  
C35  21789353.320   113462858.034        -471.569          33.000  
C38  37974109.346   197741122.469        1710.110          32.000  
C40  36045141.843   187696505.811         145.002          33.000  
E10  23561291.932   123815280.749         488.110          36.000  
E12  23736827.611   124737636.2051       -776.938          16.000  
E16  23709124.090   124592230.165         918.907          30.000  
E24  23747407.587   124793265.829        -562.658          40.000  
E25  25077834.352   131784674.5251       2044.000          18.000  
G01  22455319.781   118003350.321       -2868.681          24.000  
G03  21235481.957   111593230.515          31.669          30.000  
G14  20255469.106   106442990.287       -1268.152          44.000  
G17  20732608.589   108950449.711         419.186          41.000  
G19  21422513.178   112575869.957        2133.973          46.000  
G22  20710886.527   108836263.367         279.521          38.000  
J02  37856786.167   198938726.254         557.876          30.000  
J03  39023524.751   205069984.235        -375.441          28.000  
> 2025 04 08 05 18 28.0000278  0 24                     
C03  37316717.512   194317862.382          67.334          35.000  
C07  35769674.507   186261950.243         203.222          28.000  
C08  39243820.306   204352827.339        1932.082          32.000  
C10  36506886.646   190100893.910         417.162          25.000  
C24  23422551.243   121967205.590         783.316          38.000  
C26  23238527.240   121009015.625       -2044.941          23.000  
C29  25016899.398   130269497.575       -2389.933          26.000  
C35  21789439.023   113463311.071        -468.977          33.000  
C38  37973780.736   197739396.179        1710.986          32.000  
C40  36045110.926   187696343.730         147.760          34.000  
E10  23561195.961   123814774.090         490.480          36.000  
E11  25198564.634   132419350.9031       1685.070          17.000  
E12  23736975.371   124738399.7301       -779.806          11.000  
E16  23708946.276   124591293.128         922.219          32.000  
E24  23747513.976   124793809.406        -561.618          41.000  
E25  25077452.378   131782901.3481       2045.061          19.000  
G01  22455868.963   118006200.945       -2868.348          23.000  
G03  21235486.716   111593181.110          34.308          31.000  
G14  20255708.602   106444242.257       -1269.793          44.000  
G17  20732527.308   108950015.800         417.557          41.000  
G19  21422107.221   112573720.550        2133.384          46.000  
G22  20710830.428   108835968.128         279.151          38.000  
J02  37856673.408   198938152.162         559.549          29.000  
J03  39023593.666   205070343.743        -375.103          28.000  
> 2025 04 08 05 18 28.9999667  0 25                     
C03  37316703.477   194317783.112          65.260          34.000  
C07  35769634.391   186261734.357         204.082          29.000  
C08  39243446.521   204350883.243        1932.907          32.000  
C09  39285872.550   204571847.5651      -1888.516          18.000  
C10  36506805.758   190100464.229         417.873          26.000  
C24  23422403.201   121966410.778         781.723          38.000  
C26  23238923.921   121011048.151       -2047.161          24.000  
C29  25017356.938   130271873.070       -2388.875          25.000  
C35  21789524.520   113463768.622        -469.766          32.000  
C38  37973448.622   197737673.104        1711.669          33.000  
C40  36045081.303   187696183.448         148.381          33.000  
E10  23561103.381   123814271.541         490.017          36.000  
E11  25198238.216   132417653.3961       1683.932          14.000  
E12  23737118.728   124739162.1421       -775.789          19.000  
E16  23708767.955   124590357.971         922.496          33.000  
E24  23747618.360   124794358.420        -561.664          41.000  
E25  25077061.206   131780842.5861       2046.256          20.000  
G01  22456416.140   118009055.606       -2867.725          22.000  
G03  21235491.269   111593134.123          34.531          34.000  
G14  20255949.692   106445499.277       -1270.024          44.000  
G17  20732445.820   108949585.954         417.160          42.000  
G19  21421701.658   112571575.286        2132.879          46.000  
G22  20710774.123   108835677.705         277.364          37.000  
J02  37856563.740   198937579.055         561.575          30.000  
J03  39023665.073   205070704.684        -373.142          27.000  
> 2025 04 08 05 18 29.9999056  0 25                     
C03  37316688.956   194317705.646          64.041          34.000  
C07  35769594.388   186261518.355         205.223          29.000  
C08  39243076.446   204348939.431        1931.811          32.000  
C09  39286238.466   204573723.3321      -1888.173          18.000  
C10  36506725.282   190100034.438         419.129          26.000  
C24  23422252.874   121965618.217         781.378          38.000  
C26  23239316.518   121013085.043       -2049.491          27.000  
C29  25017828.980   130274248.231       -2387.699          26.000  
C35  21789611.628   113464225.988        -470.277          33.000  
C38  37973118.120   197735950.361        1711.516          33.000  
C40  36045051.792   187696024.110         148.507          34.000  
E10  23561010.914   123813769.637         490.593          36.000  
E11  25197908.014   132415957.6601       1682.551          13.000  
E12  23737264.296   124739924.4611       -774.704          17.000  
E16  23708588.248   124589423.982         922.622          33.000  
E24  23747724.355   124794906.261        -561.290          40.000  
E25  25076670.745   131778783.332        2047.483          21.000  
G01  22456964.030   118011909.783       -2866.061          26.000  
G03  21235491.138   111593088.343          34.007          34.000  
G14  20256190.594   106446756.952       -1269.008          44.000  
G17  20732363.846   108949156.308         418.454          42.000  
G19  21421295.608   112569430.511        2134.045          46.000  
G22  20710718.530   108835387.814         278.179          38.000  
J02  37856454.484   198937005.596         562.596          29.000  
J03  39023734.193   205071062.203        -370.720          27.000  
> 2025 04 08 05 18 30.9998446  0 24                     
C03  37316704.789   194317782.565          65.470          34.000  
C07  35769582.639   186261454.917         205.275          29.000  
C08  39242735.826   204347149.200        1932.006          32.000  
C09  39286630.238   204575754.7341      -1888.451          19.000  
C10  36506676.360   190099757.206         418.948          26.000  
C24  23422134.700   121964977.945         781.965          39.000  
C26  23239733.174   121015275.338       -2050.726          29.000  
C29  25018332.575   130276777.395       -2388.813          26.000  
C35  21789726.992   113464836.554        -470.509          31.000  
C38  37972814.374   197734380.898        1710.855          33.000  
C40  36045049.338   187696017.499         148.627          34.000  
E10  23560948.201   123813422.321         490.244          36.000  
E12  23737445.015   124741115.672        -773.822          20.000  
E16  23708440.694   124588644.249         922.393          33.000  
E24  23747859.805   124795610.743        -561.744          40.000  
E25  25076316.334   131776877.906        2048.000          20.000  
G01  22457538.976   118014918.531       -2864.815          25.000  
G03  21235521.960   111593198.871          30.638          34.000  
G14  20256460.650   106448169.166       -1271.125          44.000  
G17  20732312.225   108948881.267         417.993          42.000  
G19  21420919.013   112567439.981        2132.847          46.000  
G22  20710692.392   108835253.693         276.960          37.000  
J02  37856373.784   198936586.105         562.529          29.000  
J03  39023832.769   205071576.557        -372.597          28.000  
> 2025 04 08 05 18 31.9997835  0 24                     
C03  37316689.799   194317702.104          66.705          35.000  
C07  35769541.868   186261236.205         204.591          29.000  
C08  39242360.186   204345203.449        1932.738          33.000  
C09  39286995.685   204577628.1431      -1888.622          19.000  
C10  36506591.219   190099324.806         418.346          26.000  
C24  23421986.602   121964183.718         780.204          39.000  
C26  23240117.807   121017310.536       -2049.606          30.000  
C29  25018790.058   130279149.836       -2389.211          27.000  
C35  21789812.733   113465292.459        -470.393          32.000  
C38  37972482.504   197732656.876        1710.767          33.000  
C40  36045021.157   187695856.454         146.186          34.000  
E10  23560850.469   123812920.299         488.642          36.000  
E12  23737595.811   124741874.2881       -774.285          19.000  
E16  23708265.016   124587709.206         921.303          33.000  
E24  23747966.531   124796159.939        -563.179          40.000  
E25  25075915.511   131774815.8211       2046.513          20.000  
G01  22458083.099   118017768.169       -2865.729          27.000  
G03  21235518.063   111593153.608          33.338          33.000  
G14  20256701.683   106449424.207       -1270.896          44.000  
G17  20732230.082   108948450.249         417.164          41.000  
G19  21420512.194   112565293.973        2133.205          46.000  
G22  20710638.130   108834962.987         277.754          37.000  
J02  37856263.161   198936009.963         561.849          29.000  
J03  39023903.820   205071935.653        -373.535          29.000  
> 2025 04 08 05 18 32.9997224  0 25                     
C03  37316675.784   194317620.010          70.061          35.000  
C07  35769499.972   186261017.997         207.365          28.000  
C08  39241988.818   204343256.728        1933.328          32.000  
C09  39287360.008   204579504.1601      -1888.742          19.000  
C10  36506508.551   190098892.589         417.707          25.000  
C24  23421835.582   121963390.063         779.206          39.000  
C26  23240507.013   121019345.927       -2050.212          31.000  
C29  25019243.120   130281524.198       -2388.767          28.000  
C35  21789899.748   113465747.342        -470.831          33.000  
C38  37972151.608   197730932.544        1710.043          33.000  
C40  36044992.452   187695696.301         146.897          34.000  
E10  23560755.510   123812416.959         489.491          36.000  
E11  25196917.218   132410693.7991       1769.692           7.000  
E12  23737737.388   124742634.6241       -774.916          19.000  
E16  23708086.415   124586773.711         921.928          32.000  
E24  23748070.934   124796708.048        -563.152          40.000  
E25  25075529.753   131772754.677        2046.470          20.000  
G01  22458633.893   118020917.261       -2866.476          28.000  
G03  21235510.343   111593107.252          31.455          32.000  
G14  20256942.192   106450949.132       -1272.188          44.000  
G17  20732148.613   108948018.826         417.494          41.000  
G19  21420105.151   112563411.954        2133.226          46.000  
G22  20710585.441   108834672.026         276.007          38.000  
J02  37856150.813   198935434.513         560.856          29.000  
J03  39023973.147   205072295.196        -373.222          29.000  
> 2025 04 08 05 18 33.9996613  0 25                     
C03  37316661.019   194317536.026          68.176          35.000  
C07  35769457.026   186260797.814         204.467          28.000  
C08  39241616.700   204341309.259        1933.149          32.000  
C09  39287722.982   204581376.8321      -1889.053          20.000  
C10  36506428.132   190098460.593         417.778          25.000  
C24  23421683.512   121962596.310         780.683          39.000  
C26  23240905.362   121021381.643       -2049.590          32.000  
C29  25019698.130   130283898.829       -2388.344          28.000  
C35  21789989.311   113466204.419        -472.117          31.000  
C38  37971818.164   197729208.487        1709.471          33.000  
C40  36044960.899   187695533.953         149.235          33.000  
E10  23560661.899   123811912.879         489.640          36.000  
E11  25196575.380   132408908.8441       1769.789          10.000  
E12  23737877.915   124743393.751        -775.234          20.000  
E16  23707907.963   124585837.682         921.129          33.000  
E24  23748181.183   124797534.164        -562.855          41.000  
E25  25075145.045   131770693.296        2045.869          20.000  
G01  22459180.939   118023769.067       -2866.280          28.000  
G03  21235503.373   111593322.515          31.817          31.000  
G14  20257181.951   106452205.188       -1272.611          44.000  
G17  20732067.295   108947587.395         416.530          41.000  
G19  21419698.258   112561264.831        2132.791          46.000  
G22  20710532.003   108834381.973         275.858          37.000  
J02  37856037.417   198934858.203         562.344          28.000  
J03  39024042.324   205072652.344        -373.400          28.000  
> 2025 04 08 05 18 34.9996003  0 25                     
C03  37316676.927   194317606.707          70.699          35.000  
C07  35769442.655   186260735.682         202.220          28.000  
C08  39241273.756   204339518.087        1931.897          32.000  
C09  39288114.829   204583407.8531      -1889.916          20.000  
C10  36506376.586   190098183.410         418.350          25.000  
C24  23421561.515   121961957.182         779.297          39.000  
C26  23241327.189   121023572.685       -2052.039          32.000  
C29  25020183.812   130286426.174       -2387.025          28.000  
C35  21790110.146   113466816.236        -470.858          32.000  
C38  37971518.989   197727639.744        1710.582          32.000  
C40  36044959.119   187695525.564         148.726          33.000  
E10  23560596.264   123811566.707         488.352          36.000  
E11  25196260.317   132407281.2931       1769.500          12.000  
E12  23738050.914   124744311.060        -776.335          21.000  
E16  23707758.685   124585059.226         919.555          31.000  
E24  23748314.909   124798237.948        -563.350          41.000  
E25  25074782.015   131768789.008        2044.619          21.000  
G01  22459759.557   118026775.201       -2867.791          30.000  
G03  21235527.076   111593433.992          29.342          30.000  
G14  20257451.483   106453618.750       -1273.374          44.000  
G17  20732015.749   108947312.679         416.173          41.000  
G19  21419320.838   112559274.723        2131.547          46.000  
G22  20710507.439   108834248.605         274.410          38.000  
J02  37855955.592   198934438.457         561.397          29.000  
J03  39024140.675   205073167.553        -373.537          29.000  
> 2025 04 08 05 18 35.9995392  0 25                     
C03  37316662.050   194317522.918          69.782          34.000  
C07  35769399.298   186260519.943         202.698          26.000  
C08  39240899.128   204337572.675        1932.214          32.000  
C09  39288476.791   204585284.0811      -1890.391          20.000  
C10  36506294.256   190097751.394         418.954          25.000  
C24  23421409.033   121961164.823         777.565          39.000  
C26  23241722.728   121025608.614       -2053.061          32.000  
C29  25020631.815   130288797.499       -2386.158          26.000  
C35  21790198.997   113467271.274        -470.953          31.000  
C38  37971186.332   197725916.026        1710.331          32.000  
C40  36044931.651   187695363.947         147.377          32.000  
E10  23560501.642   123811065.174         487.841          36.000  
E11  25195913.569   132405498.2011       1770.426          14.000  
E12  23738196.726   124745073.2501       -777.284          19.000  
E16  23707584.019   124584126.075         919.563          31.000  
E24  23748423.246   124798787.387        -564.002          40.000  
E25  25074393.596   131766729.647        2045.059          21.000  
G01  22460310.988   118029629.486       -2867.717          32.000  
G03  21235520.293   111593391.880          27.920          30.000  
G14  20257692.329   106454877.403       -1273.231          44.000  
G17  20731934.618   108946882.429         416.617          41.000  
G19  21418913.232   112557128.801        2132.267          46.000  
G22  20710452.090   108833959.405         274.888          38.000  
J02  37855846.280   198933863.633         561.184          29.000  
J03  39024209.140   205073524.142        -372.077          29.000  
> 2025 04 08 05 18 36.9994781  0 25                     
C03  37316647.754   194317438.601          69.533          34.000  
C07  35769357.121   186260301.177         204.484          26.000  
C08  39240527.479   204335626.015        1932.006          33.000  
C09  39288836.636   204587160.523       -1890.673          20.000  
C10  36506211.007   190097318.403         416.878          26.000  
C24  23421256.833   121960373.642         775.107          39.000  
C26  23242121.246   121027647.883       -2055.736          32.000  
C29  25021083.995   130291169.471       -2389.950          24.000  
C35  21790288.129   113467728.252        -472.943          32.000  
C38  37970850.958   197724191.845        1708.814          32.000  
C40  36044902.964   187695202.551         145.519          32.000  
E10  23560407.900   123810564.191         486.189          37.000  
E11  25195560.807   132403713.116        1768.911          21.000  
E12  23738339.821   124745834.1961       -777.042          20.000  
E16  23707405.136   124583191.419         919.071          30.000  
E24  23748528.867   124799338.553        -565.951          40.000  
E25  25073997.964   131764668.6101       2044.997          20.000  
G01  22460863.599   118032481.002       -2868.155          33.000  
G03  21235516.189   111593349.048          28.631          30.000  
G14  20257933.756   106456136.177       -1275.687          44.000  
G17  20731853.468   108946451.882         415.552          41.000  
G19  21418506.208   112554982.790        2130.977          46.000  
G22  20710397.921   108833671.133         272.809          38.000  
J02  37855738.749   198933287.480         560.208          29.000  
J03  39024277.886   205073881.011        -373.499          28.000  
> 2025 04 08 05 18 38.0004170  0 25                     
C03  37316652.794   194317454.471          66.793          34.000  
C07  35769332.481   186260179.054         204.794          25.000  
C08  39240171.869   204333775.619        1930.784          33.000  
C09  39289215.517   204589134.378       -1890.688          21.000  
C10  36506147.995   190096983.847         416.615          26.000  
C24  23421122.469   121959679.621         776.572          39.000  
C26  23242539.700   121029784.744       -2053.649          32.000  
C29  25021569.903   130293643.713       -2392.372          21.000  
C35  21790396.897   113468282.670        -470.694          32.000  
C38  37970536.120   197722563.072        1710.784          31.000  
C40  36044890.916   187695138.781         146.618          32.000  
E10  23560330.797   123810161.459         486.078          37.000  
E11  25195158.430   132401450.750        1769.151          24.000  
E12  23738504.350   124746694.307        -777.837          20.000  
E16  23707253.085   124582355.081         918.545          30.000  
E24  23748654.723   124799985.982        -565.751          40.000  
E25  25073626.165   131762704.4471       2044.817          19.000  
G01  22461432.849   118035433.010       -2867.050          34.000  
G03  21235535.020   111593404.507          28.296          31.000  
G14  20258193.619   106457493.989       -1274.784          44.000  
G17  20731790.155   108946118.913         416.274          41.000  
G19  21418117.921   112552932.644        2132.508          46.000  
G22  20710363.689   108833481.183         273.650          38.000  
J02  37855648.755   198932809.998         560.555          30.000  
J03  39024368.367   205074337.052        -373.710          28.000  
> 2025 04 08 05 18 39.0003559  0 25                     
C03  37316638.872   194317375.059          66.907          34.000  
C07  35769294.876   186259961.105         205.679          26.000  
C08  39239799.396   204331832.094        1932.416          33.000  
C09  39289574.837   204591012.705       -1890.358          20.000  
C10  36506064.221   190096554.020         417.780          26.000  
C24  23420971.842   121958889.020         777.590          39.000  
C26  23242937.693   121031821.529       -2049.789          31.000  
C29  25022035.049   130296302.5291      -2395.236          19.000  
C35  21790487.603   113468740.866        -472.500          31.000  
C38  37970208.615   197720839.368        1710.983          31.000  
C40  36044861.705   187694977.340         149.564          32.000  
E10  23560236.232   123809660.460         487.750          37.000  
E11  25194836.022   132399668.526        1768.608          27.000  
E12  23738657.113   124747458.120        -778.462          22.000  
E16  23707074.578   124581423.140         918.164          30.000  
E24  23748761.019   124800536.683        -564.977          41.000  
E25  25073241.100   131760645.3381       2044.526          19.000  
G01  22461980.738   118038286.049       -2867.433          34.000  
G03  21235534.889   111593364.915          25.748          32.000  
G14  20258435.421   106458756.403       -1276.432          44.000  
G17  20731708.780   108945690.032         415.184          40.000  
G19  21417710.971   112550787.539        2132.088          45.000  
G22  20710311.094   108833194.605         272.619          38.000  
J02  37855542.197   198932235.617         561.815          30.000  
J03  39024436.588   205074697.514        -373.221          28.000  
> 2025 04 08 05 18 40.0002948  0 25                     
C03  37316623.976   194317293.887          68.026          34.000  
C07  35769258.095   186259742.322         205.410          27.000  
C08  39239427.147   204329885.872        1933.056          33.000  
C09  39289928.386   204592889.077       -1890.050          20.000  
C10  36505981.572   190096121.597         420.070          26.000  
C24  23420820.241   121958098.561         778.263          39.000  
C26  23243335.611   121034147.539       -2051.990          31.000  
C29  25022491.427   130298685.1471      -2398.562          18.000  
C35  21790577.335   113469198.438        -471.704          32.000  
C38  37969879.537   197719114.977        1710.361          31.000  
C40  36044832.719   187694815.397         147.861          32.000  
E10  23560142.790   123809159.672         487.489          37.000  
E11  25194512.939   132397886.900        1768.330          29.000  
E12  23738808.602   124748221.124        -778.123          22.000  
E16  23706898.993   124580491.440         918.096          30.000  
E24  23748869.038   124801088.197        -565.420          41.000  
E25  25072846.067   131758586.8181       2044.183          20.000  
G01  22462526.754   118041139.900       -2867.759          35.000  
G03  21235532.884   111593324.081          27.249          33.000  
G14  20258676.248   106460016.074       -1276.160          44.000  
G17  20731626.431   108945260.312         415.575          40.000  
G19  21417303.647   112548641.617        2131.732          45.000  
G22  20710259.024   108832908.038         272.403          39.000  
J02  37855434.665   198931659.698         562.840          30.000  
J03  39024504.735   205075054.490        -371.035          27.000  
> 2025 04 08 05 18 41.0002337  0 24                     
C03  37316609.849   194317212.324          63.812          34.000  
C07  35769214.888   186259520.844         204.131          26.000  
C08  39239052.969   204327937.996        1930.495          33.000  
C09  39290277.307   204594762.003       -1889.057          20.000  
C10  36505902.989   190095685.806         419.737          25.000  
C24  23420669.108   121957569.866         775.433          39.000  
C26  23243731.000   121036183.838       -2054.006          30.000  
C35  21790664.537   113469653.575        -472.116          32.000  
C38  37969547.629   197717389.431        1710.114          31.000  
C40  36044799.704   187694652.492         147.541          32.000  
E10  23560051.616   123808657.438         486.130          37.000  
E11  25194190.025   132396102.626        1768.951          29.000  
E12  23738953.964   124748982.475        -777.654          23.000  
E16  23706734.669   124579557.182         918.547          32.000  
E24  23748975.426   124801638.769        -566.675          41.000  
E25  25072456.599   131756525.5701       2044.716          20.000  
G01  22463075.037   118044255.434       -2869.636          35.000  
G03  21235528.949   111593281.480          24.614          34.000  
G14  20258916.644   106461276.575       -1277.240          44.000  
G17  20731544.251   108944829.389         413.976          39.000  
G19  21416896.191   112546494.722        2130.068          46.000  
G22  20710206.223   108832619.963         271.060          38.000  
J02  37855327.002   198931081.364         561.889          30.000  
J03  39024572.451   205075408.298        -371.868          28.000  
> 2025 04 08 05 18 42.0001726  0 24                     
C03  37316594.934   194317133.419          69.232          34.000  
C07  35769174.191   186259305.128         202.858          25.000  
C08  39238681.601   204325995.551        1930.102          33.000  
C09  39290567.881   204596297.167       -1887.593          20.000  
C10  36505821.820   190095254.326         418.186          24.000  
C24  23420518.987   121956782.312         773.409          39.000  
C26  23244134.595   121038225.028       -2053.383          28.000  
C35  21790752.151   113470110.945        -472.329          31.000  
C38  37969218.232   197715668.277        1710.641          31.000  
C40  36044767.402   187694491.815         148.608          32.000  
E10  23559955.757   123808159.035         486.300          37.000  
E11  25193854.932   132394601.485        1769.997          29.000  
E12  23739111.130   124749747.504        -778.094          23.000  
E16  23706564.762   124578626.534         918.284          32.000  
E24  23749081.928   124802192.760        -566.612          41.000  
E25  25072069.942   131754467.7991       2045.185          15.000  
G01  22463620.734   118047111.123       -2869.428          35.000  
G03  21235529.024   111593244.891          24.595          34.000  
G14  20259158.052   106462540.126       -1276.804          44.000  
G17  20731462.782   108944402.315         415.733          39.000  
G19  21416489.448   112544351.708        2131.057          45.000  
G22  20710153.834   108832336.335         271.189          38.000  
J02  37855220.351   198930507.913         561.083          31.000  
J03  39024642.377   205075767.888        -373.920          29.000  
> 2025 04 08 05 18 43.0001115  0 24                     
C03  37316580.263   194317048.550          67.435          34.000  
C07  35769134.337   186259086.255         203.697          26.000  
C08  39238309.577   204324048.931        1933.052          33.000  
C09  39290933.646   204598168.293       -1887.073          21.000  
C10  36505738.197   190094821.313         417.059          24.000  
C24  23420369.409   121955992.436         773.112          39.000  
C26  23244530.640   121040261.362       -2059.055          23.000  
C35  21790841.208   113470566.088        -472.434          31.000  
C38  37968890.878   197713942.590        1709.468          32.000  
C40  36044737.141   187694328.808         147.333          32.000  
E10  23559863.140   123807658.557         484.455          37.000  
E11  25193516.485   132392817.363        1767.627          28.000  
E12  23739267.341   124750508.444        -779.762          24.000  
E16  23706391.800   124577693.039         916.444          32.000  
E24  23749188.972   124802742.627        -567.859          41.000  
E25  25071679.931   131752406.3191       2045.321          14.000  
G01  22464164.576   118049963.967       -2869.165          35.000  
G03  21235524.846   111593205.138          24.580          35.000  
G14  20259398.804   106463801.395       -1278.683          44.000  
G17  20731380.358   108943971.329         415.196          38.000  
G19  21416082.049   112542204.905        2131.336          46.000  
G22  20710101.689   108832318.015         271.281          39.000  
J02  37855114.243   198929931.743         559.983          31.000  
J03  39024710.449   205076125.660        -372.376          28.000  
> 2025 04 08 05 18 44.0000505  0 24                     
C03  37316595.271   194317125.087          65.240          34.000  
C07  35769122.364   186259026.833         202.849          26.000  
C08  39237966.933   204322261.409        1931.406          33.000  
C09  39291320.397   204600198.970       -1886.629          21.000  
C10  36505686.951   190094547.987         417.692          25.000  
C24  23420249.511   121955363.430         773.146          39.000  
C26  23244967.157   121042462.943       -2052.100          24.000  
C35  21790959.645   113471183.433        -473.749          30.000  
C38  37968594.102   197712377.917        1708.366          32.000  
C40  36044735.661   187694326.254         145.347          31.000  
E10  23559797.804   123807320.419         484.577          37.000  
E11  25193205.020   132391196.641        1765.519          29.000  
E12  23739437.942   124751433.935        -781.282          23.000  
E16  23706244.321   124576924.111         914.161          31.000  
E24  23749325.397   124803455.404        -568.552          41.000  
E25  25071316.002   131750505.5611       2044.768          14.000  
G01  22464741.995   118052977.820       -2870.175          35.000  
G03  21235549.448   111593327.532          21.897          35.000  
G14  20259670.435   106465226.001       -1279.496          44.000  
G17  20731329.412   108943702.828         413.740          37.000  
G19  21415705.828   112540220.201        2130.259          45.000  
G22  20710079.823   108832193.676         268.668          38.000  
J02  37855036.916   198929517.356         558.949          30.000  
J03  39024812.097   205076642.462        -373.478          30.000  
> 2025 04 08 05 18 44.9999894  0 24                     
C03  37316583.635   194317046.913          66.295          35.000  
C07  35769081.949   186258810.097         202.994          27.000  
C08  39237594.048   204320317.785        1927.893          33.000  
C09  39291680.205   204602072.041       -1887.957          22.000  
C10  36505606.663   190094116.848         417.364          27.000  
C24  23420095.774   121954576.931         772.077          37.000  
C26  23245361.740   121044501.528       -2057.777          26.000  
C35  21791052.337   113471642.708        -473.413          31.000  
C38  37968272.780   197710656.779        1706.177          34.000  
C40  36044712.633   187694167.453         145.019          32.000  
E10  23559701.627   123806822.884         483.643          37.000  
E11  25192866.011   132389417.402        1766.537          28.000  
E12  23739588.194   124752199.739        -781.820          21.000  
E16  23706070.198   124575995.084         915.460          31.000  
E24  23749427.982   124804010.627        -569.852          41.000  
E25  25070921.231   131748446.8141       2043.070          14.000  
G01  22465287.674   118055833.316       -2869.028          36.000  
G03  21235542.309   111593292.369          20.143          34.000  
G14  20259913.323   106466490.836       -1281.682          44.000  
G17  20731248.224   108943275.519         413.401          38.000  
G19  21415299.365   112538076.401        2130.301          45.000  
G22  20710028.015   108831910.652         268.619          38.000  
J02  37854930.546   198928943.851         560.772          29.000  
J03  39024882.605   205077001.938        -373.705          30.000  
> 2025 04 08 05 18 45.9999283  0 24                     
C03  37316573.349   194316967.752          60.264          35.000  
C07  35769048.278   186258592.146         204.091          29.000  
C08  39237219.813   204318379.079        1919.764          32.000  
C09  39292045.558   204603949.1171      -1890.297          20.000  
C10  36505525.326   190093684.653         418.252          27.000  
C24  23419942.486   121953789.178         775.141          35.000  
C26  23245745.380   121046542.677       -2053.729          30.000  
C35  21791149.376   113472098.813        -471.098          34.000  
C38  37967947.112   197708939.526        1698.533          35.000  
C40  36044684.659   187694006.951         147.863          30.000  
E10  23559613.994   123806607.598         484.087          37.000  
E11  25192528.950   132387635.822        1769.357          27.000  
E12  23739737.996   124752964.8491       -781.094          19.000  
E16  23705891.728   124575064.239         916.823          30.000  
E24  23749534.914   124804566.429        -570.338          41.000  
E25  25070535.904   131746389.2431       2041.416          14.000  
G01  22465830.804   118058684.209       -2869.623          35.000  
G03  21235459.472   111593257.236          20.923          33.000  
G14  20260157.260   106467759.369       -1286.204          44.000  
G17  20731172.283   108942845.852         416.322          39.000  
G19  21414890.954   112535930.388        2132.811          43.000  
G22  20709973.359   108831628.580         266.429          38.000  
J02  37854822.826   198928369.238         558.579          29.000  
J03  39024954.761   205077360.059        -374.461          27.000  
> 2025 04 08 05 18 46.9998672  0 24                     
C03  37316564.955   194316898.296          52.560          35.000  
C07  35769011.703   186258373.055         205.884          27.000  
C08  39236852.867   204316451.249        1909.537          31.000  
C09  39292404.409   204605819.9291      -1884.213          18.000  
C10  36505442.583   190093251.847         419.304          26.000  
C24  23419792.590   121952999.217         775.974          33.000  
C26  23246084.745   121048585.013       -2068.957          29.000  
C35  21791236.616   113472554.383        -467.733          33.000  
C38  37967620.638   197707231.756        1690.349          36.000  
C40  36044656.778   187693845.462         146.517          27.000  
E10  23559519.559   123806111.599         481.696          37.000  
E11  25192194.682   132385851.130        1773.469          26.000  
E12  23739886.693   124753727.7811       -777.896          19.000  
E16  23705712.452   124574132.900         917.255          29.000  
E24  23749643.739   124805124.173        -573.286          41.000  
E25  25070142.876   131744333.7061       2040.082          14.000  
G01  22466376.726   118061541.353       -2873.718          36.000  
G03  21235455.275   111593222.090          21.230          33.000  
G14  20260400.991   106469032.177       -1290.071          44.000  
G17  20731093.438   108942412.471         419.979          40.000  
G19  21414482.038   112533780.882        2136.566          40.000  
G22  20709920.595   108831347.130         266.233          38.000  
J02  37854713.402   198927798.574         554.558          29.000  
J03  39025025.812   205077719.217        -373.253          27.000  
> 2025 04 08 05 18 47.9998061  0 24                     
C03  37316555.474   194317096.827          45.040          35.000  
C07  35768971.943   186258423.130         207.399          28.000  
C08  39236483.635   204314531.047        1903.576          31.000  
C09  39292766.072   204607685.9051      -1877.541          17.000  
C10  36505362.351   190092818.322         421.357          25.000  
C24  23419640.708   121952210.676         775.042          31.000  
C26  23246499.171   121050632.944       -2056.445          35.000  
C35  21791325.767   113473006.898        -466.740          33.000  
C38  37967293.377   197705529.067        1687.294          37.000  
C40  36044633.207   187693686.343         146.115          26.000  
E10  23559426.136   123805616.148         481.677          37.000  
E11  25191852.431   132384064.153        1773.113          28.000  
E12  23740027.409   124754490.3821       -777.488          19.000  
E16  23705532.089   124573201.563         918.252          31.000  
E24  23749751.477   124805684.731        -574.953          41.000  
E25  25069755.657   131742279.8901       2038.698          14.000  
G01  22466923.360   118064401.987       -2879.116          35.000  
G03  21235449.092   111593186.236          22.882          34.000  
G14  20260645.435   106470308.790       -1291.686          44.000  
G17  20731013.505   108941978.161         421.408          38.000  
G19  21414074.432   112531632.123        2132.820          36.000  
G22  20709867.345   108831066.733         267.693          39.000  
J02  37854608.587   198927231.558         552.584          31.000  
J03  39025094.876   205078077.131        -373.432          27.000  
> 2025 04 08 05 18 48.9997451  0 24                     
C03  37316576.197   194317192.303          42.696          35.000  
C07  35768964.786   186258356.162         207.761          32.000  
C08  39236147.006   204312770.502        1898.488          31.000  
C09  39293149.843   204609698.2141      -1872.146          16.000  
C10  36505307.526   190092535.773         424.798          25.000  
C24  23419520.229   121951575.393         776.391          31.000  
C26  23246925.813   121052822.116       -2041.440          32.000  
C35  21791442.423   113473611.276        -464.314          33.000  
C38  37966999.618   197703986.167        1679.626          37.000  
C40  36044632.045   187693679.004         150.517          26.000  
E10  23559363.817   123805277.891         480.377          39.000  
E11  25191543.083   132382431.840        1776.146          28.000  
E12  23740192.332   124755407.943        -777.029          20.000  
E16  23705387.926   124572424.325         920.219          33.000  
E24  23749889.119   124806401.227        -576.600          41.000  
E25  25069393.545   131740383.6481       2031.636          14.000  
G01  22467501.397   118067425.104       -2887.150          35.000  
G03  21235474.612   111593305.619          21.769          33.000  
G14  20260920.082   106471742.144       -1296.281          44.000  
G17  20730963.777   108941698.203         423.163          36.000  
G19  21413699.429   112529645.020        2125.501          31.000  
G22  20709844.598   108830941.895         265.457          39.000  
J02  37854528.880   198926822.111         549.350          33.000  
J03  39025196.244   205078592.146        -375.435          26.000  
> 2025 04 08 05 18 49.9996840  0 24                     
C03  37316568.402   194317141.766          35.634          35.000  
C07  35768931.209   186258136.814         207.079          33.000  
C08  39235781.259   204310863.018        1893.076          30.000  
C09  39293509.295   204611557.3801      -1872.430          16.000  
C10  36505223.285   190092098.290         425.665          24.000  
C24  23419373.030   121950792.193         758.650          27.000  
C26  23247325.436   121054851.143       -2043.782          34.000  
C35  21791530.263   113474061.794        -462.233          34.000  
C38  37966675.243   197702297.100        1675.173          36.000  
C40  36044602.966   187693514.440         154.519          26.000  
E10  23559270.282   123804787.008         478.889          38.000  
E11  25191200.120   132380641.972        1777.734          28.000  
E12  23740336.532   124756171.2131       -774.512          19.000  
E16  23705205.053   124571491.058         921.652          30.000  
E24  23749998.243   124806967.958        -578.938          42.000  
E25  25069007.113   131738339.8051       2028.126          14.000  
G01  22468057.213   118070299.981       -2889.795          35.000  
G03  21235468.316   111593271.879          22.150          34.000  
G14  20261166.212   106473028.058       -1299.827          44.000  
G17  20730881.035   108941262.550         424.057          36.000  
G19  21413296.508   112527511.286        2117.078          30.000  
G22  20709792.734   108830664.706         264.404          38.000  
J02  37854423.653   198926261.338         552.704          32.000  
J03  39025264.896   205078955.135        -373.847          28.000  
> 2025 04 08 05 18 50.9996229  0 24                     
C03  37316559.952   194317094.273          35.253          35.000  
C07  35768891.880   186257916.525         208.621          30.000  
C08  39235416.655   204308959.149        1889.978          31.000  
C09  39293864.193   204613417.8461      -1872.953          16.000  
C10  36505140.786   190091659.942         426.090          24.000  
C24  23419230.873   121950024.115         752.552          24.000  
C26  23247718.408   121056882.717       -2048.159          33.000  
C35  21791618.645   113474508.578        -461.358          34.000  
C38  37966352.310   197700610.020        1673.778          36.000  
C40  36044568.433   187693344.617         157.791          24.000  
E10  23559175.791   123804294.154         479.599          36.000  
E11  25190860.699   132378850.871        1777.709          29.000  
E12  23740479.177   124756929.2181       -771.547          19.000  
E16  23705028.719   124570556.460         922.473          27.000  
E24  23750107.611   124807532.528        -579.620          43.000  
E25  25068624.521   131736299.0461       2026.375          14.000  
G01  22468610.573   118073176.943       -2892.059          34.000  
G03  21235464.063   111593235.363          26.880          36.000  
G14  20261411.685   106474312.578       -1299.955          44.000  
G17  20730797.636   108940823.352         427.420          34.000  
G19  21412893.831   112525382.262        2116.234          30.000  
G22  20709739.914   108830386.569         265.391          37.000  
J02  37854316.870   198925694.283         554.766          30.000  
J03  39025333.792   205079313.526        -373.304          27.000  
> 2025 04 08 05 18 51.9995618  0 23                     
C03  37316552.457   194317045.685          35.028          34.000  
C07  35768844.213   186257690.540         210.593          29.000  
C08  39235051.808   204307054.288        1888.438          31.000  
C09  39294217.348   204615276.6071      -1874.212          15.000  
C10  36505055.645   190091218.153         426.328          25.000  
C24  23419089.970   121949258.150         748.920          21.000  
C26  23248114.734   121058914.314       -2050.896          32.000  
C35  21791705.285   113474955.619        -463.161          35.000  
C38  37966028.834   197698921.649        1671.352          35.000  
C40  36044532.758   187693170.333         158.751          25.000  
E10  23559084.654   123803801.151         477.644          36.000  
E11  25190523.732   132377059.049        1774.020          29.000  
E12  23740628.474   124757683.2941       -770.834          19.000  
E16  23704850.942   124569618.277         922.924          24.000  
E24  23750217.036   124808098.408        -581.139          43.000  
E25  25068232.393   131734257.0761       2024.246          13.000  
G01  22469162.791   118076052.839       -2893.366          29.000  
G14  20261657.215   106475596.865       -1302.781          44.000  
G17  20730712.795   108940380.257         426.445          34.000  
G19  21412491.809   112523252.585        2112.424          28.000  
G22  20709688.650   108830107.138         262.037          37.000  
J02  37854202.350   198925126.005         540.583          32.000  
J03  39025399.147   205079670.180        -372.651          28.000  
> 2025 04 08 05 18 52.9995007  0 24                     
C03  37316544.119   194316997.750          38.592          35.000  
C07  35768803.198   186257469.165         209.210          29.000  
C08  39234687.316   204305152.979        1890.507          31.000  
C09  39294581.053   204617142.8011      -1879.845          15.000  
C10  36504970.860   190090779.001         427.725          25.000  
C24  23418951.222   121948498.118         747.331          21.000  
C26  23248509.017   121060954.999       -2058.234          29.000  
C35  21791792.281   113475405.377        -462.990          34.000  
C38  37965708.112   197697236.908        1674.397          36.000  
C40  36044498.638   187693000.182         156.436          25.000  
E10  23558992.974   123803311.081         478.088          36.000  
E11  25190185.622   132375274.629        1769.700          26.000  
E12  23740778.126   124758439.5611       -770.034          15.000  
E16  23704674.720   124568684.692         921.876          21.000  
E24  23750324.717   124808666.002        -580.630          41.000  
E25  25067842.419   131732220.8411       2022.465          18.000  
G01  22469715.365   118078933.184       -2891.327          26.000  
G03  21235468.916   111593153.7291         26.485          35.000  
G14  20261903.101   106476886.039       -1300.401          43.000  
G17  20730630.108   108939942.693         423.813          34.000  
G19  21412090.143   112521127.066        2113.890          25.000  
G22  20709637.741   108829832.071         263.638          38.000  
J02  37854089.684   198924576.039         540.188          35.000  
J03  39025469.055   205080030.274        -373.251          30.000  
> 2025 04 08 05 18 53.9994396  0 24                     
C03  37316536.043   194316949.880          29.208          36.000  
C07  35768760.646   186257247.613         207.407          28.000  
C08  39234321.588   204303247.932        1887.985          31.000  
C09  39294940.223   204619009.3391      -1879.393          10.000  
C10  36504887.536   190090337.944         427.138          26.000  
C24  23418809.140   121947737.175         746.959          22.000  
C26  23248910.458   121062997.643       -2055.568          25.000  
C35  21791880.439   113475851.950        -461.233          34.000  
C38  37965385.854   197695549.552        1670.241          36.000  
C40  36044467.178   187692830.721         155.708          24.000  
E10  23558900.656   123802820.434         477.094          36.000  
E11  25189846.876   132373492.873        1765.833          22.000  
E12  23740927.142   124759192.7791       -767.840          15.000  
E16  23704501.159   124567749.784         921.204          22.000  
E24  23750434.460   124809232.726        -582.286          41.000  
E25  25067464.999   131730184.4291       2020.723          16.000  
G01  22470267.601   118081810.070       -2892.936          21.000  
G03  21235467.136   111593115.219          21.146          33.000  
G14  20262150.149   106478172.707       -1304.664          44.000  
G17  20730545.586   108939503.368         427.878          33.000  
G19  21411687.541   112518997.157        2128.363          25.000  
G22  20709585.896   108829555.138         262.016          38.000  
J02  37853980.578   198924021.799         538.513          35.000  
J03  39025538.326   205080388.093        -372.931          28.000  
> 2025 04 08 05 18 55.0003785  0 24                     
C03  37316547.623   194317001.233          30.874          36.000  
C07  35768735.951   186257118.811         209.821          27.000  
C08  39233974.016   204301442.225        1881.656          32.000  
C09  39295318.149   204620970.4741      -1879.582           9.000  
C10  36504820.270   190089990.761         428.177          27.000  
C24  23418686.112   121947067.874         781.881          22.000  
C26  23249362.732   121065532.405       -2033.265          40.000  
C35  21791985.254   113476393.094        -457.940          34.000  
C38  37965079.953   197693960.790        1666.056          34.000  
C40  36044456.873   187692756.236         155.165          24.000  
E10  23558824.396   123802423.901         477.322          37.000  
E11  25189530.482   132371808.596        1762.403          21.000  
E12  23741089.217   124760045.4411       -770.748          15.000  
E16  23704346.953   124567183.694         921.814          25.000  
E24  23750561.759   124809897.370        -582.728          42.000  
E25  25067090.146   131728242.4631       2036.035          16.000  
G01  22470763.945   118084749.368       -2855.754          30.000  
G03  21235484.411   111593177.223          18.627          35.000  
G14  20262415.053   106479558.801       -1305.628          44.000  
G17  20730479.819   108939154.775         431.611          33.000  
G19  21411291.103   112516941.497        2147.036          27.000  
G22  20709552.506   108829373.609         262.993          38.000  
J02  37853893.226   198923565.987         533.587          34.000  
J03  39025627.252   205080841.217        -372.443          29.000  
> 2025 04 08 05 18 56.0003174  0 23                     
C03  37316540.709   194316955.790          30.849          36.000  
C07  35768691.263   186256892.459         210.195          28.000  
C08  39233610.349   204299548.297        1877.936          32.000  
C09  39295674.283   204622806.5541      -1851.219          11.000  
C10  36504732.712   190089546.418         429.227          29.000  
C24  23418520.308   121946269.820         783.404          27.000  
C26  23249752.144   121067546.980       -2029.787          41.000  
C35  21792069.777   113476834.019        -459.190          33.000  
C38  37964760.056   197692281.618        1661.509          31.000  
C40  36044421.479   187692585.499         156.607          25.000  
E10  23558731.442   123801931.462         476.800          37.000  
E11  25189194.996   132370032.3611       1743.271          20.000  
E12  23741231.600   124760799.5621       -770.937          15.000  
E16  23704167.659   124566244.854         923.786          27.000  
E24  23750671.165   124810465.582        -584.929          42.000  
E25  25066686.906   131726190.6031       2034.918          20.000  
G01  22471309.249   118087589.000       -2858.755          27.000  
G03  21235483.493   111593141.621          21.129          35.000  
G14  20262662.363   106480850.002       -1309.447          44.000  
G17  20730395.858   108938708.381         429.724          32.000  
G22  20709501.223   108829095.704         261.440          38.000  
J02  37853788.280   198923017.760         533.374          34.000  
J03  39025694.386   205081196.893        -374.070          29.000  
> 2025 04 08 05 18 57.0002563  0 24                     
C03  37316534.301   194316916.077          22.788          35.000  
C07  35768650.379   186256668.708         211.031          28.000  
C08  39233250.186   204297658.268        1876.789          32.000  
C09  39296031.523   204624644.5301      -1850.615          12.000  
C10  36504645.959   190089103.754         430.757          29.000  
C24  23418355.910   121945473.611         782.485          26.000  
C26  23250103.089   121069560.786       -2032.211          39.000  
C35  21792158.403   113477279.079        -458.016          33.000  
C38  37964439.465   197690608.353        1660.265          29.000  
C40  36044390.488   187692414.096         161.164          25.000  
E10  23558641.692   123801441.483         476.869          37.000  
E11  25188859.415   132368274.788        1750.632          34.000  
E12  23741376.887   124761557.7741       -773.123          15.000  
E16  23703993.667   124565308.687         923.508          31.000  
E24  23750781.376   124811034.548        -584.828          42.000  
E25  25066284.772   131724142.3521       2037.504          17.000  
G01  22471855.658   118090434.928       -2860.239          22.000  
G03  21235483.681   111593111.528           9.918          34.000  
G14  20262910.179   106482145.432       -1308.040          45.000  
G17  20730313.303   108938531.529         431.003          33.000  
G19  21410444.358   112512613.1401       2149.000          41.000  
G22  20709448.347   108828820.479         262.140          38.000  
J02  37853684.140   198922469.072         536.327          34.000  
J03  39025763.826   205081556.731        -373.752          31.000  
> 2025 04 08 05 18 58.0001953  0 23                     
C03  37316558.622   194317036.332          19.619          35.000  
C07  35768639.324   186256598.902         210.441          27.000  
C08  39232918.353   204295921.503        1877.412          32.000  
C09  39296422.790   204626636.5641      -1850.706          12.000  
C10  36504595.032   190088814.069         429.631          28.000  
C24  23418191.361   121944832.673         780.626          40.000  
C26  23250550.117   121071739.882       -2051.521          37.000  
C35  21792276.858   113477876.714        -458.321          32.000  
C38  37964147.805   197689089.301        1659.291          32.000  
C40  36044389.926   187692392.363         162.517          24.000  
E10  23558577.574   123801108.899         475.258          36.000  
E11  25188572.552   132366638.408        1785.602          33.000  
E12  23741551.104   124762469.5751       -770.819          15.000  
E16  23703846.806   124564527.859         923.203          31.000  
E24  23750920.817   124811763.854        -587.090          42.000  
G01  22472429.498   118093425.072       -2850.481          25.000  
G03  21235516.995   111593249.777           1.086          31.000  
G14  20263187.824   106483596.233       -1311.501          45.000  
G17  20730260.277   108938242.601         429.419          34.000  
G19  21410056.164   112510607.639        2143.006          39.000  
G22  20709426.800   108828702.154         259.392          38.000  
J02  37853610.428   198922077.063         532.329          36.000  
J03  39025866.093   205082075.399        -388.442          25.000  
> 2025 04 08 05 18 59.0001342  0 23                     
C03  37316554.556   194317005.871          16.631          33.000  
C07  35768600.182   186256377.823         209.244          28.000  
C08  39232557.534   204294034.704        1874.256          30.000  
C10  36504512.720   190088373.518         428.268          25.000  
C24  23418043.994   121944042.614         771.961          38.000  
C26  23250952.269   121073783.409       -2070.424          33.000  
C35  21792363.330   113478323.192        -458.351          33.000  
C38  37963827.758   197687417.867        1660.913          34.000  
C40  36044348.386   187692219.480         159.855          26.000  
E10  23558489.566   123800623.686         473.728          37.000  
E11  25188239.613   132364838.342        1779.201          34.000  
E12  23741696.035   124763229.4121       -771.028          15.000  
E16  23703667.062   124563593.580         922.208          28.000  
E24  23751031.572   124812338.664        -587.765          41.000  
E25  25065605.011   131720642.8971       2057.372          15.000  
G01  22472972.554   118096264.831       -2854.774          25.000  
G03  21235521.623   111593232.798          13.173          32.000  
G14  20263435.884   106484895.467       -1311.701          44.000  
G17  20730177.066   108937801.125         429.011          34.000  
G19  21409653.074   112508463.956        2120.180          33.000  
G22  20709375.966   108828431.264         257.888          38.000  
J02  37853507.431   198921533.103         532.240          37.000  
J03  39025942.671   205082451.852        -393.203          23.000  
> 2025 04 08 05 19 00.0000731  0 22                     
C03  37316547.998   194316972.013          22.543          33.000  
C07  35768557.649   186256154.986         209.436          27.000  
C08  39232196.622   204292145.552        1877.507          29.000  
C10  36504432.414   190087936.842         422.576          23.000  
C24  23417905.827   121943275.828         737.370          32.000  
C26  23251356.127   121075853.729       -2095.851          34.000  
C35  21792445.510   113478766.111        -457.315          34.000  
C38  37963506.717   197685742.339        1663.312          36.000  
C40  36044315.746   187692047.772         155.477          26.000  
E10  23558394.569   123800135.399         474.370          37.000  
E11  25187912.277   132363372.272        1742.132          30.000  
E12  23741845.069   124763986.4371       -772.054          15.000  
E16  23703490.821   124562659.545         919.515          24.000  
E24  23751140.734   124812910.768        -586.924          41.000  
E25  25065203.927   131718571.8091       2055.294          15.000  
G03  21235521.661   111593203.522          12.571          32.000  
G14  20263683.850   106486190.874       -1309.782          44.000  
G17  20730093.161   108937357.669         430.942          34.000  
G19  21409252.589   112506340.293        2113.806          31.000  
G22  20709325.938   108828159.869         259.379          38.000  
J02  37853402.841   198920985.865         536.432          37.000  
J03  39026018.856   205083112.8291       -396.671          18.000  
> 2025 04 08 05 19 01.0000120  0 24                     
C03  37316541.908   194316933.540          28.467          33.000  
C07  35768514.085   186255930.193         210.365          28.000  
C08  39231833.180   204290251.839        1880.735          28.000  
C10  36504353.175   190087500.108         422.247          22.000  
C24  23417767.829   121942533.397         740.934          27.000  
C26  23251760.154   121077937.783       -2085.843          31.000  
C29  25032082.762   130348623.5741      -2423.178          26.000  
C35  21792532.956   113479207.988        -458.757          35.000  
C38  37963183.447   197684064.735        1663.830          36.000  
C40  36044285.073   187691879.708         153.017          25.000  
E10  23558303.638   123799645.957         474.704          37.000  
E11  25187584.511   132361625.744        1742.271          28.000  
E12  23741985.878   124764741.1041       -771.760          15.000  
E16  23703323.443   124561731.249         912.710          21.000  
E24  23751252.163   124813482.563        -586.820          41.000  
E25  25064806.908   131716502.272        2052.407          24.000  
G01  22474042.157   118101922.7261      -2851.493          35.000  
G03  21235517.670   111593171.758          15.517          35.000  
G14  20263931.385   106487486.886       -1310.670          44.000  
G17  20730010.025   108936913.558         428.990          34.000  
G19  21408852.272   112504211.910        2126.078          33.000  
G22  20709273.980   108827886.051         259.581          39.000  
J02  37853302.317   198920433.550         538.107          31.000  
J03  39026093.110   205083496.6521       -399.701          17.000  
> 2025 04 08 05 19 01.9999509  0 24                     
C03  37316533.401   194316891.007          26.807          33.000  
C07  35768469.904   186255706.881         210.635          27.000  
C08  39231472.717   204288359.184        1878.226          29.000  
C10  36504270.320   190087065.198         421.747          20.000  
C24  23417641.504   121941782.944         738.622          30.000  
C26  23252159.365   121080013.407       -2093.930          30.000  
C29  25032550.026   130351033.964       -2426.355          25.000  
C35  21792621.582   113479654.165        -459.769          35.000  
C38  37962863.756   197682389.370        1660.717          36.000  
C40  36044254.682   187691712.773         156.526          24.000  
E10  23558210.590   123799160.177         473.151          37.000  
E11  25187231.243   132359875.949        1738.092          37.000  
E12  23742133.863   124765497.6881       -769.706          19.000  
E16  23703153.348   124560808.1601        908.827          18.000  
E24  23751362.974   124814055.853        -587.883          41.000  
E25  25064404.774   131714437.620        2048.596          21.000  
G01  22474512.119   118104358.002       -2840.080          30.000  
G03  21235500.169   111593147.034          12.346          41.000  
G14  20264180.400   106488783.966       -1313.511          45.000  
G17  20729927.770   108936472.338         428.125          35.000  
G19  21408453.736   112502071.031        2125.794          32.000  
G22  20709225.901   108827615.441         256.516          38.000  
J02  37853201.174   198919881.432         539.761          27.000  
J03  39026166.147   205083879.790        -371.866          28.000  
> 2025 04 08 05 19 02.9998899  0 24                     
C03  37316556.804   194317006.931          23.739          33.000  
C07  35768456.132   186255637.196         212.078          27.000  
C08  39231138.767   204286624.158        1873.470          30.000  
C10  36504216.975   190086783.7241        423.188          19.000  
C24  23417549.487   121941182.140         749.398          33.000  
C26  23252591.385   121082246.306       -2105.398          29.000  
C29  25033039.606   130353604.128       -2429.749          24.000  
C35  21792736.421   113480255.205        -460.190          34.000  
C38  37962573.876   197680871.098        1657.191          36.000  
C40  36044255.300   187691695.165         158.675          23.000  
E10  23558150.051   123798830.865         471.198          36.000  
E11  25186929.071   132358282.033        1736.354          38.000  
E12  23742306.262   124766410.5441       -772.419          16.000  
E16  23703011.865   124560042.7631        906.060          17.000  
E24  23751502.396   124814786.884        -590.091          41.000  
E25  25063950.307   131711948.2061       2057.055          17.000  
G01  22475084.442   118107341.293       -2842.780          30.000  
G03  21235521.173   111593274.782          16.910          39.000  
G14  20264458.626   106490240.525       -1315.154          45.000  
G17  20729872.926   108936186.132         427.923          35.000  
G19  21408080.213   112500094.983        2111.961          33.000  
G22  20709204.635   108827501.470         255.844          38.000  
J02  37853129.842   198919483.843         539.237          21.000  
J03  39026256.703   205084391.688        -373.289          33.000  
> 2025 04 08 05 19 03.9998288  0 23                     
C03  37316551.633   194316971.818          20.313          33.000  
C07  35768417.384   186255413.625         209.652          29.000  
C08  39230774.444   204284738.188        1873.336          32.000  
C10  36504130.860   190086342.871         428.465          21.000  
C24  23417408.209   121940417.878         752.947          31.000  
C26  23252972.346   121084325.816       -2091.417          39.000  
C29  25033496.415   130356021.923       -2432.794          22.000  
C35  21792822.986   113480699.578        -459.293          35.000  
C38  37962254.522   197679199.933        1659.175          35.000  
C40  36044221.349   187691521.380         163.022          22.000  
E10  23558060.338   123798345.323         472.714          36.000  
E11  25186612.415   132356531.735        1743.086          32.000  
E12  23742451.287   124767170.4111       -774.466          16.000  
E16  23702845.405   124559132.780         893.734          27.000  
E24  23751613.844   124815364.555        -589.971          41.000  
E25  25063551.808   131709877.240        2058.667          37.000  
G01  22475626.991   118110169.112       -2840.554          30.000  
G03  21235518.700   111593243.406          18.842          35.000  
G14  20264707.679   106491541.470       -1315.467          44.000  
G17  20729790.408   108935744.278         429.474          34.000  
G19  21407683.513   112497974.330        2105.446          33.000  
G22  20709154.794   108827231.941         257.450          38.000  
J02  37853029.936   198918932.2411        539.190          17.000  
> 2025 04 08 05 19 04.9997677  0 25                     
C03  37316546.442   194316937.525          18.125          34.000  
C07  35768377.717   186255191.503         208.964          29.000  
C08  39230415.199   204282852.040        1873.670          32.000  
C09  39299074.567   204640593.3481      -1941.579          12.000  
C10  36504043.527   190085901.025         429.661          23.000  
C24  23417204.557   121939647.101         770.171          31.000  
C26  23253373.974   121086405.310       -2089.530          34.000  
C29  25033964.597   130358442.1381      -2334.345          18.000  
C35  21792911.931   113481410.301        -458.193          34.000  
C38  37961934.250   197677527.619        1658.950          35.000  
C40  36044190.076   187691344.821         163.572          24.000  
E10  23557966.409   123797859.313         472.488          36.000  
E11  25186286.747   132354750.577        1784.209          34.000  
E12  23742594.494   124767929.6241       -774.535          18.000  
E16  23702679.526   124558228.600         888.934          23.000  
E24  23751725.872   124815938.981        -589.815          41.000  
E25  25063170.678   131707803.281        2062.858          32.000  
G01  22476172.220   118112993.598       -2838.668          31.000  
G03  21235514.409   111593212.018          17.773          33.000  
G14  20264956.413   106492842.145       -1315.478          44.000  
G17  20729706.073   108935301.543         430.406          34.000  
G19  21407207.948   112495847.474        2143.377          37.000  
G22  20709104.036   108826962.294         255.996          38.000  
J02  37852929.412   198918375.411         542.103          25.000  
J03  39026386.945   205085111.8351       -374.331          31.000  
> 2025 04 08 05 19 05.9997066  0 25                     
C03  37316541.271   194316904.083          21.758          34.000  
C07  35768334.173   186254966.484         210.746          30.000  
C08  39230057.471   204280963.298        1873.679          33.000  
C09  39299448.033   204642519.8041      -1940.495          11.000  
C10  36503957.711   190085456.228         431.068          25.000  
C24  23417021.608   121938576.563         783.360          37.000  
C26  23253777.420   121088474.986       -2080.107          27.000  
C29  25034408.814   130360762.3561      -2336.384          16.000  
C35  21792996.398   113481853.008        -457.862          35.000  
C38  37961614.896   197675854.445        1657.980          34.000  
C40  36044155.825   187691166.475         164.674          25.000  
E10  23557876.696   123797371.166         473.845          37.000  
E11  25185950.304   132352939.135        1786.713          30.000  
E12  23742738.619   124768688.3551       -773.365          16.000  
E16  23702506.771   124557327.0721        885.216          18.000  
E24  23751834.922   124816513.539        -589.638          41.000  
E25  25062792.565   131705721.796        2069.836          29.000  
G01  22476717.467   118115817.398       -2839.274          29.000  
G03  21235445.982   111593183.257          10.109          32.000  
G14  20265205.165   106494141.395       -1316.168          44.000  
G17  20729623.555   108934854.380         433.082          33.000  
G19  21406799.256   112493673.374        2168.232          34.000  
G22  20709053.596   108826691.009         256.939          37.000  
J02  37852830.406   198917824.927         534.835          37.000  
J03  39026453.423   205085468.318        -370.046          30.000  
> 2025 04 08 05 19 06.9996455  0 24                     
C03  37316535.556   194316865.937          23.122          34.000  
C07  35768291.883   186254740.719         210.843          29.000  
C08  39229696.203   204279075.440        1871.553          33.000  
C10  36503875.849   190085009.494         431.110          23.000  
C24  23416875.890   121937784.824         764.089          32.000  
C26  23254180.022   121090530.570       -2066.569          25.000  
C29  25034857.585   130363085.3811      -2338.070          15.000  
C35  21793083.019   113482293.571        -458.601          36.000  
C38  37961294.699   197674180.947        1656.467          34.000  
C40  36044118.932   187690986.590         164.472          27.000  
E10  23557784.342   123796885.207         470.628          37.000  
E11  25185619.914   132351128.695        1800.736          26.000  
E12  23742886.398   124769710.3401       -772.387          16.000  
E16  23702334.072   124556427.8071        881.691          13.000  
E24  23751946.726   124817089.018        -591.179          40.000  
E25  25062403.715   131703636.174        2065.710          28.000  
G01  22477263.970   118118640.289       -2842.580          30.000  
G03  21235455.856   111593171.823         -14.706          33.000  
G14  20265454.274   106495441.140       -1318.573          44.000  
G17  20729539.894   108934408.220         429.324          34.000  
G19  21406399.015   112491491.716        2153.873          33.000  
G22  20709002.912   108826419.597         254.357          38.000  
J02  37852729.957   198917276.099         531.558          41.000  
J03  39026520.558   205085821.697        -370.273          29.000  
> 2025 04 08 05 19 07.9995845  0 24                     
C03  37316560.102   194316988.704          18.890          34.000  
C07  35768282.252   186254673.730         210.610          27.000  
C08  39229363.396   204277347.590        1871.831          32.000  
C10  36503821.849   190084722.160         430.942          22.000  
C24  23416768.827   121937172.601         751.441          27.000  
C26  23254607.189   121092734.616       -2054.391          23.000  
C29  25035338.415   130365567.5561      -2340.223          15.000  
C35  21793201.100   113482896.306        -459.293          35.000  
C38  37961005.362   197672668.745        1656.179          32.000  
C40  36044118.295   187690966.463         163.241          28.000  
E10  23557723.146   123796558.379         471.933          37.000  
E11  25185168.989   132348956.0351       1786.117          20.000  
E12  23743063.838   124770623.8501       -770.175          16.000  
E16  23702191.333   124555692.5391        878.372          12.000  
E24  23752087.291   124817823.397        -591.212          41.000  
E25  25062044.826   131701717.615        2062.309          29.000  
G01  22477843.731   118121625.601       -2838.599          35.000  
G03  21235494.192   111593326.009           7.437          31.000  
G14  20265733.943   106496905.706       -1318.500          44.000  
G17  20729486.494   108934124.637         428.672          33.000  
G19  21406023.637   112489487.508        2147.888          32.000  
G22  20708982.788   108826310.301         254.098          38.000  
J02  37852655.271   198916890.209         529.772          37.000  
J03  39026619.752   205086337.663        -374.025          29.000  
> 2025 04 08 05 19 08.9995234  0 24                     
C03  37316554.406   194316955.984          17.293          33.000  
C07  35768238.183   186254449.300         211.098          27.000  
C08  39229002.146   204275461.977        1872.151          31.000  
C10  36503740.305   190084554.652         430.645          21.000  
C24  23416635.120   121936403.200         780.321          25.000  
C26  23255005.913   121094768.239       -2099.466          22.000  
C29  25035789.602   130367893.9991      -2342.449          14.000  
C35  21793285.941   113483340.093        -459.769          34.000  
C38  37960685.483   197670997.988        1657.580          33.000  
C40  36044085.318   187690789.269         162.420          29.000  
E10  23557632.609   123796073.393         470.424          38.000  
E11  25184830.224   132347155.5971       1792.569          18.000  
E12  23743209.837   124771383.5201       -773.142          16.000  
E16  23702019.252   124554796.9081        880.100          13.000  
E24  23752199.113   124818400.228        -591.999          41.000  
E25  25061651.498   131699647.515        2055.470          29.000  
G01  22478390.853   118124740.923       -2841.149          36.000  
G03  21235494.792   111593300.082           8.839          31.000  
G14  20265983.370   106498209.371       -1319.956          44.000  
G17  20729403.751   108933680.422         430.885          33.000  
G19  21405618.917   112487324.605        2150.047          34.000  
G22  20708933.323   108826042.510         253.702          39.000  
J02  37852549.444   198916347.242         528.859          35.000  
J03  39026690.203   205086694.686        -372.677          30.000  
> 2025 04 08 05 19 09.9994623  0 23                     
C03  37316548.485   194316920.895          23.097          33.000  
C07  35768198.985   186254224.205         211.944          28.000  
C08  39228640.371   204273575.314        1874.977          32.000  
C10  36503663.633   190084110.561         430.812          20.000  
C24  23416490.695   121935609.474         770.985          26.000  
C26  23255405.312   121096850.981       -2097.551          39.000  
C29  25036239.965   130370225.0591      -2344.149          14.000  
C35  21793372.956   113483785.150        -460.055          34.000  
C38  37960365.679   197669327.581        1657.959          34.000  
C40  36044050.617   187690614.725         160.179          29.000  
E10  23557538.549   123795588.916         471.219          37.000  
E11  25184496.630   132345349.5461       1785.854          13.000  
E12  23743359.808   124772141.3841       -773.521          16.000  
E24  23752309.212   124818977.572        -591.862          42.000  
E25  25061272.636   131697876.297        2047.238          30.000  
G01  22478934.151   118127569.087       -2846.043          34.000  
G03  21235502.361   111593276.690           7.597          36.000  
G14  20266232.573   106499513.190       -1318.879          44.000  
G17  20729320.184   108933237.511         427.860          33.000  
G19  21405213.972   112485164.217        2141.371          32.000  
G22  20708883.932   108825775.723         252.894          39.000  
J02  37852444.292   198915804.341         529.766          34.000  
J03  39026763.128   205087053.419        -373.783          30.000  
> 2025 04 08 05 19 11.0004012  0 24                     
C03  37316560.889   194316981.086          25.092          34.000  
C07  35768174.215   186254096.876         210.279          25.000  
C08  39228296.921   204271781.308        1876.341          33.000  
C10  36503600.489   190083764.145         428.350          23.000  
C24  23416368.492   121934923.098         767.492          23.000  
C26  23255826.333   121099033.118       -2097.169          42.000  
C29  25036708.654   130372655.1881      -2345.639          14.000  
C35  21793479.494   113484331.412        -462.288          34.000  
C38  37960062.102   197667750.231        1660.678          34.000  
C40  36044037.239   187690540.191         158.448          30.000  
E10  23557468.510   123795203.216         469.351          39.000  
E11  25184181.960   132343646.5321       1785.265          13.000  
E12  23743521.508   124772999.537        -774.277          23.000  
E16  23701766.115   124553622.0071        912.333          26.000  
E24  23752439.435   124819654.650        -592.948          40.000  
E25  25060910.299   131695918.007        2032.970          29.000  
G01  22479496.375   118130502.166       -2848.842          33.000  
G03  21235527.357   111593354.411           5.737          39.000  
G14  20266501.000   106501180.587       -1319.363          45.000  
G17  20729257.340   108932894.841         425.362          36.000  
G19  21404827.652   112483111.631        2128.607          29.000  
G22  20708853.166   108825607.617         252.263          38.000  
J02  37852358.064   198915357.204         532.398          34.000  
J03  39026854.077   205087511.595        -374.838          29.000  
> 2025 04 08 05 19 12.0003401  0 24                     
C03  37316554.293   194316942.930          25.334          34.000  
C07  35768131.044   186253871.330         209.593          24.000  
C08  39227936.271   204270157.990        1878.053          32.000  
C10  36503511.151   190083322.158         424.364          25.000  
C24  23416223.392   121934419.960         757.808          27.000  
C26  23256236.449   121101109.059       -2088.385          37.000  
C29  25037161.340   130374985.8401      -2345.102          15.000  
C35  21793565.835   113484777.701        -463.533          35.000  
C38  37959741.624   197666335.263        1660.825          35.000  
C40  36044003.962   187690366.376         158.498          30.000  
E10  23557376.774   123794717.808         469.574          39.000  
E11  25183843.194   132341846.2961       1783.643          12.000  
E12  23743663.610   124773757.512        -776.133          22.000  
E16  23701587.439   124552692.273         913.901          26.000  
E24  23752551.557   124820500.484        -592.788          40.000  
E25  25060521.168   131693873.808        2024.831          31.000  
G01  22480037.200   118133336.118       -2849.101          33.000  
G03  21235529.755   111593333.902           4.559          39.000  
G14  20266750.427   106502484.010       -1319.295          45.000  
G17  20729174.597   108932454.817         423.680          36.000  
G19  21404427.429   112480972.721        2120.460          30.000  
G22  20708804.899   108825340.704         250.641          38.000  
J02  37852257.034   198914808.271         535.045          32.000  
J03  39026925.128   205087870.772        -375.669          26.000  
> 2025 04 08 05 19 13.0002790  0 23                     
C03  37316546.611   194316900.768          28.054          34.000  
C07  35768088.286   186253649.214         208.335          28.000  
C08  39227574.834   204268265.722        1879.680          32.000  
C10  36503433.018   190082887.460         418.685          26.000  
C24  23416087.699   121933654.283         748.129          28.000  
C26  23256650.275   121103480.819       -2090.031          32.000  
C29  25037617.737   130377312.535       -2337.752          24.000  
C35  21793656.185   113485227.233        -463.466          34.000  
C38  37959422.457   197664659.873        1663.924          35.000  
C40  36043973.795   187690195.512         157.288          30.000  
E10  23557288.747   123794235.487         468.976          39.000  
E12  23743805.524   124774521.123        -777.923          21.000  
E16  23701268.272   124551004.954         913.961          29.000  
E24  23752662.593   124821078.779        -592.946          41.000  
E25  25060134.249   131691836.328        2022.566          30.000  
G01  22480576.340   118136168.999       -2846.967          35.000  
G03  21235529.568   111593316.115           3.717          38.000  
G14  20266999.967   106503787.192       -1317.412          45.000  
G17  20729091.068   108932017.640         423.596          35.000  
G19  21404025.520   112478839.586        2120.064          32.000  
G22  20708754.346   108825076.054         251.918          38.000  
J02  37852158.215   198914260.782         533.774          32.000  
J03  39026995.092   205088230.131        -373.527          26.000  
> 2025 04 08 05 19 14.0002179  0 24                     
C03  37316540.053   194316858.655          32.385          33.000  
C07  35768046.953   186253427.346         207.653          28.000  
C08  39227211.223   204266371.643        1882.740          32.000  
C10  36503351.812   190082457.156         413.719          26.000  
C24  23415928.546   121932896.195         741.477          29.000  
C26  23257063.426   121105559.471       -2094.065          29.000  
C29  25038063.865   130379631.771       -2328.696          24.000  
C35  21793741.063   113485675.790        -465.776          33.000  
C38  37959101.117   197662981.739        1664.949          34.000  
C40  36043939.656   187690024.134         157.913          29.000  
E10  23557196.149   123793752.731         469.134          37.000  
E11  25183357.381   132339435.8101       1730.387          17.000  
E12  23743952.460   124775283.8011       -778.451          19.000  
E16  23701096.828   124550076.942         912.920          28.000  
E24  23752774.453   124821658.413        -593.220          41.000  
E25  25059732.265   131689796.454        2035.265          31.000  
G01  22481116.003   118139003.884       -2852.017          34.000  
G03  21235529.305   111593298.645           2.198          38.000  
G14  20267249.431   106505091.140       -1319.449          44.000  
G17  20729009.262   108931581.251         422.424          33.000  
G19  21403621.437   112476708.119        2116.163          33.000  
G22  20708706.117   108824811.987         250.274          38.000  
J02  37852059.321   198913712.498         534.279          32.000  
J03  39027061.084   205088588.691        -374.263          27.000  
> 2025 04 08 05 19 15.0001568  0 24                     
C03  37316533.233   194316810.813          32.436          33.000  
C07  35768009.553   186253205.332         205.545          28.000  
C08  39226848.249   204264474.046        1882.428          33.000  
C10  36503273.341   190082030.721         410.178          25.000  
C24  23415781.123   121932140.624         741.584          30.000  
C26  23257469.120   121107637.789       -2097.469          27.000  
C29  25038514.528   130381942.140       -2321.213          25.000  
C35  21793830.177   113486125.418        -466.879          33.000  
C38  37958778.616   197661301.329        1665.719          33.000  
C40  36043906.154   187689852.709         152.648          29.000  
E10  23557105.986   123793270.143         467.531          36.000  
E11  25183023.187   132337688.5811       1731.148          18.000  
E12  23744099.433   124776046.4501       -779.346          19.000  
E16  23700921.525   124549148.050         912.314          27.000  
E24  23752885.151   124822236.280        -593.821          41.000  
E25  25059280.253   131687406.498        2043.238          38.000  
G01  22481653.906   118141842.633       -2858.665          30.000  
G03  21235528.181   111593282.402           0.154          37.000  
G14  20267498.334   106506393.381       -1319.253          44.000  
G17  20728927.194   108931144.320         419.788          32.000  
G19  21403134.350   112474229.849        2135.995          40.000  
G22  20708657.026   108824547.124         248.841          38.000  
J02  37851958.366   198913163.154         534.807          30.000  
J03  39027130.111   205088947.741        -374.431          31.000  
> 2025 04 08 05 19 16.0000958  0 24                     
C03  37316555.923   194316921.079          35.689          33.000  
C07  35767999.567   186253143.168         204.846          28.000  
C08  39226515.086   204262733.225        1886.717          33.000  
C10  36503221.983   190081765.310         406.750          24.000  
C24  23415582.267   121931081.126         769.161          41.000  
C26  23257907.323   121109876.569       -2084.869          24.000  
C29  25038994.402   130384402.834       -2316.819          22.000  
C35  21793947.302   113486735.756        -469.331          34.000  
C38  37958486.824   197659776.240        1669.745          32.000  
C40  36043906.960   187689842.161         153.993          29.000  
E10  23557045.334   123792946.538         468.253          37.000  
E11  25182723.001   132336100.4471       1732.213          18.000  
E12  23744275.018   124776969.7441       -780.970          19.000  
E16  23700777.531   124548379.949         910.774          28.000  
E24  23753025.360   124822972.584        -592.990          41.000  
E25  25058922.806   131685502.257        2047.089          40.000  
G01  22482223.118   118144846.283       -2862.072          29.000  
G03  21235555.968   111593425.572           0.329          38.000  
G14  20267777.647   106507855.128       -1317.770          44.000  
G17  20728876.735   108930870.628         417.136          32.000  
G19  21402769.708   112472233.352        2137.658          43.000  
G22  20708638.345   108824442.534         248.299          39.000  
J02  37851886.322   198912770.793         536.983          33.000  
J03  39027228.350   205089465.557        -373.625          30.000  
> 2025 04 08 05 19 17.0000347  0 24                     
C03  37316546.349   194316866.512          41.265          33.000  
C07  35767955.816   186252923.976         203.123          31.000  
C08  39226150.258   204260828.758        1891.723          32.000  
C10  36503140.458   190081345.011         404.063          24.000  
C24  23415435.388   121930300.449         763.542          43.000  
C26  23258304.867   121111947.408       -2090.449          22.000  
C29  25039437.814   130386702.2421      -2313.103          17.000  
C35  21794036.958   113487190.327        -472.226          35.000  
C38  37958166.065   197658090.687        1671.803          32.000  
C40  36043873.702   187689674.159         151.405          27.000  
E10  23556953.317   123792462.800         468.120          38.000  
E11  25182397.145   132334351.965        1731.243          21.000  
E12  23744422.235   124777735.2731       -782.607          18.000  
E16  23700606.368   124547453.978         908.145          31.000  
E24  23753136.602   124823548.229        -593.386          41.000  
E25  25058529.797   131683443.588        2042.685          40.000  
G01  22482758.866   118147688.104       -2858.177          29.000  
G03  21235482.837   111593412.026          -0.925          35.000  
G14  20268027.093   106509156.240       -1317.936          44.000  
G17  20728796.409   108930439.074         415.971          32.000  
G19  21402366.506   112470082.727        2134.329          44.000  
G22  20708588.898   108824179.434         247.467          39.000  
J02  37851783.512   198912217.769         539.573          30.000  
J03  39027295.522   205089823.349        -376.146          32.000  
> 2025 04 08 05 19 17.9999736  0 24                     
C03  37316536.924   194316810.563          44.160          33.000  
C07  35767915.512   186252707.734         202.468          30.000  
C08  39225785.879   204258921.739        1895.677          30.000  
C10  36503059.683   190080928.842         402.577          22.000  
C24  23415288.358   121929525.581         757.720          42.000  
C26  23258706.158   121114025.732       -2092.234          21.000  
C29  25039878.378   130389000.1181      -2308.657          15.000  
C35  21794127.365   113487649.220        -475.014          35.000  
C38  37957842.158   197656403.093        1676.314          34.000  
C40  36043843.591   187689509.015         150.612          31.000  
E10  23556865.047   123791981.930         467.392          38.000  
E11  25182065.444   132332605.7461       1734.768          19.000  
E12  23744561.207   124778505.535        -785.096          23.000  
E16  23700427.860   124546532.735         904.745          31.000  
E24  23753249.792   124824127.347        -592.925          42.000  
E25  25058141.734   131681389.582        2039.472          39.000  
G01  22483300.160   118150533.074       -2859.147          25.000  
G03  21235488.402   111593398.030          -1.249          36.000  
G14  20268276.389   106510457.923       -1316.558          44.000  
G17  20728714.435   108930010.354         412.684          34.000  
G19  21401962.255   112467936.613        2128.509          44.000  
G22  20708540.801   108823918.835         244.818          39.000  
J02  37851679.652   198911664.028         540.245          30.000  
J03  39027364.942   205090183.873        -374.373          31.000  
> 2025 04 08 05 19 18.9999125  0 24                     
C03  37316527.762   194316756.046          37.058          30.000  
C07  35767874.272   186252490.088         203.851          29.000  
C08  39225419.663   204257008.736        1899.826          26.000  
C10  36502973.474   190080493.929         418.992          22.000  
C24  23415142.790   121928754.827         754.103          42.000  
C26  23259104.114   121116101.528       -2091.493          26.000  
C29  25040320.703   130391292.7611      -2304.236          14.000  
C35  21794219.232   113488108.307        -475.201          33.000  
C38  37957520.911   197654708.074        1683.050          32.000  
C40  36043810.745   187689342.755         152.568          29.000  
E10  23556775.540   123791500.488         467.154          39.000  
E11  25181735.204   132330853.482        1738.368          24.000  
E12  23744713.033   124779274.0981       -786.494          19.000  
E16  23700256.210   124545615.079         903.194          34.000  
E24  23753362.046   124824703.330        -591.122          41.000  
E25  25057755.733   131679341.127        2033.174          42.000  
G01  22483842.616   118153375.7431      -2859.759          20.000  
G03  21235490.332   111593382.456           1.762          33.000  
G14  20268525.048   106511758.491       -1314.335          44.000  
G17  20728634.521   108929583.030         411.541          35.000  
G19  21401557.666   112465794.083        2125.209          45.000  
G22  20708492.365   108823658.893         244.341          38.000  
J02  37851577.554   198911381.763         541.034          27.000  
J03  39027434.026   205090542.316        -371.664          28.000  
> 2025 04 08 05 19 19.9998515  0 24                     
C03  37316551.089   194316861.761          39.076          37.000  
C07  35767863.723   186252429.208         204.389          29.000  
C08  39225085.938   204255250.672        1903.948          25.000  
C10  36502911.061   190080221.109         416.004          24.000  
C24  23415030.911   121928147.248         746.877          41.000  
C26  23259532.761   121118333.566       -2077.862          25.000  
C29  25040793.419   130393737.6571      -2300.722          14.000  
C35  21794338.793   113488726.757        -476.931          32.000  
C38  37957224.660   197653164.926        1689.769          32.000  
C40  36043807.991   187689332.103         154.668          30.000  
E10  23556713.726   123791177.967         467.567          41.000  
E11  25181426.061   132329256.8391       1744.353          20.000  
E12  23744884.758   124780204.128        -785.547          26.000  
E16  23700116.451   124544856.843         901.334          37.000  
E24  23753500.494   124825435.426        -589.396          41.000  
E25  25057396.226   131677457.299        2028.201          43.000  
G01  22484416.962   118156381.0901      -2861.171          17.000  
G03  21235521.754   111593523.320           6.799          37.000  
G14  20268803.200   106513212.362       -1311.076          44.000  
G17  20728584.400   108929316.468         408.658          39.000  
G19  21401183.769   112463816.263        2119.159          44.000  
G22  20708474.921   108823558.946         244.027          40.000  
J02  37851504.649   198910985.038         542.341          24.000  
J03  39027532.601   205091054.515        -367.511          29.000  
> 2025 04 08 05 19 20.9997904  0 25                     
C03  37316542.882   194316809.174          46.797          33.000  
C07  35767823.439   186252213.829         202.763          31.000  
C08  39224717.081   204253329.895        1911.945          23.000  
C10  36502758.953   190079444.427         415.508          24.000  
C20  25598448.350   133297838.0071       -149.091          17.000  
C24  23414888.398   121927391.382         741.845          42.000  
C26  23259931.372   121120398.113       -2075.213          26.000  
C29  25041235.201   130396025.1371      -2297.138          14.000  
C35  21794427.120   113489190.092        -475.079          34.000  
C38  37956898.973   197651459.580        1696.797          29.000  
C40  36043778.799   187689167.277         153.200          34.000  
E10  23556623.676   123790699.639         466.458          42.000  
E11  25181088.683   132327498.021        1748.412          20.000  
E12  23745042.337   124780974.747        -784.720          32.000  
E16  23699945.457   124543945.568         898.813          40.000  
E24  23753611.904   124826012.433        -588.679          42.000  
E25  25057014.777   131675423.024        2022.125          40.000  
G01  22484960.373   118159230.5471      -2862.589          16.000  
G03  21235520.443   111593502.001          12.306          35.000  
G14  20269051.015   106514510.112       -1308.037          41.000  
G17  20728504.842   108928896.511         408.543          35.000  
G19  21400779.536   112461686.528        2117.272          44.000  
G22  20708426.542   108823302.935         244.303          42.000  
J02  37851401.408   198910430.474         543.816          22.000  
J03  39027601.141   205091408.226        -363.228          28.000  
> 2025 04 08 05 19 21.9997293  0 24                     
C03  37316531.340   194316740.501          56.085          32.000  
C07  35767781.318   186251995.531         202.407          30.000  
C08  39224346.088   204251397.508        1918.516          23.000  
C10  36502700.044   190079013.479         412.137          32.000  
C20  25598479.979   133297970.6761       -150.143          17.000  
C24  23414742.848   121926636.600         735.832          39.000  
C26  23260327.248   121122453.715       -2067.568          29.000  
C35  21794515.408   113489649.094        -476.209          37.000  
C38  37956566.353   197649745.041        1699.581          36.000  
C40  36043745.971   187688996.988         156.070          34.000  
E10  23556534.188   123790218.471         465.151          41.000  
E11  25180752.166   132325729.618        1753.620          20.000  
E12  23745184.288   124781743.824        -784.905          32.000  
E16  23699771.427   124543034.203         894.182          43.000  
E24  23753722.677   124826583.899        -588.738          41.000  
E25  25056622.499   131673389.898        2015.827          39.000  
G01  22485503.447   118162088.1431      -2876.275          11.000  
G03  21235517.295   111593471.423          15.168          33.000  
G14  20269297.895   106515799.207       -1306.718          39.000  
G17  20728424.948   108928472.033         408.770          30.000  
G19  21400376.465   112459555.623        2111.115          42.000  
G22  20708377.826   108823043.516         241.805          42.000  
J02  37851298.429   198909869.0231        546.294          19.000  
J03  39027666.047   205091752.579        -360.804          30.000  
> 2025 04 08 05 19 22.9996682  0 24                     
C03  37316517.662   194316667.392          66.711          32.000  
C07  35767741.258   186251781.787         202.340          29.000  
C08  39223975.657   204249464.461        1924.401          22.000  
C10  36502641.997   190078591.144         409.079          40.000  
C20  25598512.169   133298108.4261       -177.873          16.000  
C24  23414598.461   121925893.079         726.718          38.000  
C26  23260736.277   121124497.895       -2050.837          30.000  
C35  21794606.358   113490111.497        -476.533          33.000  
C38  37956244.489   197648032.048        1703.913          29.000  
C40  36043716.404   187689089.429         154.195          36.000  
E10  23556445.862   123789741.789         464.265          41.000  
E11  25180423.705   132323960.560        1758.777          21.000  
E12  23745333.098   124782515.486        -785.620          33.000  
E16  23699601.857   124542130.893         890.255          42.000  
E24  23753833.413   124827158.752        -588.468          39.000  
E25  25056242.774   131671367.707        2008.529          38.000  
G01  22486046.784   118164952.0881      -2877.561          10.000  
G03  21235514.109   111593444.616          14.901          29.000  
G14  20269545.036   106517093.740       -1305.144          35.000  
G17  20728347.713   108928052.900         404.559          31.000  
G19  21399974.556   112457438.410        2101.644          42.000  
G22  20708330.871   108822791.258         239.278          42.000  
J02  37851194.813   198909310.0141        548.243          19.000  
J03  39027732.413   205092100.334        -360.813          34.000  
> 2025 04 08 05 19 23.9996071  0 24                     
C03  37316505.296   194316582.693          74.324          31.000  
C07  35767700.111   186251565.259         201.826          33.000  
C08  39223605.938   204247523.5081       1929.538          20.000  
C10  36502568.772   190078454.274         407.341          40.000  
C20  25598547.469   133298272.7171       -178.247          17.000  
C24  23414457.483   121925151.837         728.242          35.000  
C26  23261132.528   121126820.782       -2053.766          32.000  
C35  21794696.820   113490575.519        -481.184          33.000  
C38  37955919.139   197646312.163        1704.927          23.000  
C40  36043684.551   187688919.759         155.369          35.000  
E10  23556354.050   123789263.145         464.311          40.000  
E11  25180094.458   132322182.784        1767.358          24.000  
E12  23745483.519   124783284.715        -785.177          29.000  
E16  23699432.100   124541227.596         888.107          43.000  
E24  23753941.863   124827730.525        -586.734          38.000  
E25  25055856.267   131669350.657        2002.174          39.000  
G01  22486591.132   118167814.1631      -2879.030          10.000  
G03  21235511.037   111593411.859          21.895          35.000  
G14  20269792.290   106518380.618       -1302.484          30.000  
G17  20728269.692   108927635.803         402.112          38.000  
G19  21399573.059   112455323.564        2098.816          39.000  
G22  20708284.928   108822538.444         237.653          41.000  
J02  37851091.610   198908745.3131        575.657          19.000  
J03  39027797.393   205092443.773        -357.032          35.000  
> 2025 04 08 05 19 24.9995461  0 24                     
C03  37316520.585   194316914.432          72.195          31.000  
C07  35767690.218   186251505.094         199.849          33.000  
C08  39223262.375   204245732.7371       1933.894          18.000  
C10  36502521.105   190078188.617         406.352          40.000  
C20  25598608.927   133298589.6231       -178.565          17.000  
C24  23414346.260   121924566.731         721.293          34.000  
C26  23261558.233   121129019.236       -2062.470          34.000  
C35  21794815.838   113491196.006        -479.810          33.000  
C38  37955622.644   197644745.0521       1729.459          20.000  
C40  36043685.451   187688904.656         156.379          34.000  
E10  23556295.291   123788943.608         461.784          41.000  
E11  25179797.364   132320553.629        1769.107          28.000  
E12  23745663.394   124784213.384        -786.357          27.000  
E16  23699291.197   124540484.409         884.471          42.000  
E24  23754084.564   124828459.917        -589.007          38.000  
E25  25055506.709   131667492.523        1999.439          36.000  
G01  22487166.134   118170835.3671      -2880.361          10.000  
G03  21235535.620   111593530.235          23.393          33.000  
G14  20270069.598   106519823.212       -1297.350          27.000  
G17  20728221.426   108927375.295         402.224          38.000  
G19  21399201.316   112453366.822        2098.854          38.000  
G22  20708267.839   108822443.023         237.007          42.000  
J02  37851003.471   198908310.583         575.295          25.000  
J03  39027893.626   205092941.535        -356.703          35.000  
> 2025 04 08 05 19 25.9994850  0 24                     
C03  37316502.204   194316825.466          78.110          30.000  
C07  35767649.353   186251291.262         201.900          33.000  
C08  39222891.139   204243783.6401       1939.119          17.000  
C10  36502442.166   190077769.588         405.088          40.000  
C20  25598641.211   133298754.7631       -178.971          17.000  
C24  23414207.363   121923835.027         717.828          34.000  
C26  23261954.465   121131068.009       -2065.413          34.000  
C35  21794906.282   113491661.300        -477.750          32.000  
C38  37955295.777   197643001.047        1732.737          23.000  
C40  36043653.279   187688735.568         156.672          35.000  
E10  23556204.061   123788470.016         460.660          42.000  
E11  25179458.505   132318769.483        1764.217          24.000  
E12  23745809.899   124784983.220        -784.345          27.000  
E16  23699123.519   124539587.666         883.004          43.000  
E24  23754195.094   124829033.516        -588.207          38.000  
E25  25055125.879   131665478.629        1997.315          35.000  
G01  22487683.782   118173575.617       -2846.767          24.000  
G03  21235530.429   111593493.457          25.576          32.000  
G14  20270316.833   106521104.583       -1308.864          26.000  
G17  20728143.386   108926960.486         402.102          38.000  
G19  21398801.299   112451255.552        2096.995          38.000  
G22  20708220.678   108822193.585         235.501          42.000  
J02  37850824.401   198907424.165         578.914          34.000  
J03  39027958.588   205093284.053        -354.555          34.000  
> 2025 04 08 05 19 27.0004238  0 24                     
C03  37316494.991   194316676.620          72.052          28.000  
C07  35767595.971   186251014.395         202.633          32.000  
C08  39222505.587   204241765.2901       1944.474          16.000  
C10  36502352.510   190077290.516         404.385          40.000  
C20  25598664.276   133298858.9951       -179.789          16.000  
C24  23414058.647   121923041.028         730.769          37.000  
C26  23262334.583   121133068.616       -2087.316          33.000  
C35  21794985.108   113492063.063        -477.116          32.000  
C38  37954956.093   197641190.663        1733.230          26.000  
C40  36043609.191   187688503.645         157.545          34.000  
E10  23556104.810   123787934.113         459.749          42.000  
E11  25179107.729   132316926.765        1756.065          21.000  
E12  23745943.888   124785692.357        -785.755          26.000  
E16  23698941.826   124538629.264         880.858          42.000  
E24  23754294.607   124829548.489        -589.665          38.000  
E25  25054730.733   131663404.691        1995.014          36.000  
G01  22488215.895   118176348.248       -2845.351          23.000  
G03  21235513.622   111593392.102          26.449          32.000  
G14  20270554.849   106522338.481       -1307.377          24.000  
G17  20728054.929   108926483.953         398.840          37.000  
G19  21398388.466   112449083.396        2093.525          38.000  
G22  20708163.399   108821884.648         231.115          42.000  
J02  37850712.559   198906771.636         575.455          31.000  
J03  39028011.632   205093563.109        -357.240          33.000  
> 2025 04 08 05 19 28.0003628  0 24                     
C03  37316535.650   194316747.838          72.887          26.000  
C07  35767586.865   186250955.804         200.330          32.000  
C08  39222169.407   204239961.9681       1948.971          16.000  
C10  36502303.831   190077029.115         403.629          40.000  
C20  25598733.416   133299181.1401       -180.004          16.000  
C24  23413953.008   121922458.665         714.524          36.000  
C26  23262754.180   121135308.184       -2101.453          33.000  
C35  21795107.011   113492681.595        -478.210          32.000  
C38  37954664.882   197639900.015        1716.888          30.000  
C40  36043608.179   187688487.868         158.667          35.000  
E10  23556046.538   123787619.893         458.840          42.000  
E11  25178806.925   132315314.0871       1745.743          20.000  
E12  23746121.252   124786620.283        -784.909          27.000  
E16  23698802.910   124537892.865         879.852          42.000  
E24  23754435.996   124830281.660        -590.170          38.000  
E25  25054380.164   131661554.504        1992.753          37.000  
G01  22488787.187   118179335.845       -2842.755          28.000  
G03  21235537.793   111593508.275          27.444          33.000  
G14  20270838.341   106523788.525       -1307.320          22.000  
G17  20728007.149   108926227.853         401.919          38.000  
G19  21398018.110   112447132.140        2092.267          39.000  
G22  20708147.398   108821796.154         233.087          42.000  
J02  37850641.996   198906338.519         577.408          31.000  
J03  39028108.053   205094061.111        -353.715          34.000  
> 2025 04 08 05 19 29.0003017  0 24                     
C03  37316539.903   194317015.184          71.549          23.000  
C07  35767547.648   186251005.973         199.047          34.000  
C08  39221802.817   204238005.4051       1942.024          16.000  
C10  36502225.042   190076611.602         401.685          40.000  
C20  25598767.648   133299345.8091       -181.706          15.000  
C24  23413815.459   121921734.697         705.183          36.000  
C26  23263151.462   121137392.435       -2103.618          36.000  
C35  21795200.603   113493143.006        -477.585          31.000  
C38  37954342.961   197638179.925        1694.975          30.000  
C40  36043576.457   187688315.450         155.197          35.000  
E10  23555958.156   123787147.324         457.132          41.000  
E11  25178475.111   132313552.7431       1744.319          18.000  
E12  23746266.708   124787387.523        -784.617          27.000  
E16  23698632.984   124536998.689         877.562          42.000  
E24  23754545.776   124830857.233        -592.212          38.000  
E25  25054003.381   131659547.305        1990.980          37.000  
G01  22489325.970   118182161.513       -2845.044          27.000  
G03  21235530.654   111593467.849          23.676          33.000  
G14  20271089.623   106525080.216       -1308.265          21.000  
G17  20727928.360   108925811.958         399.162          38.000  
G19  21397619.742   112445027.691        2088.374          38.000  
G22  20708101.886   108821549.504         229.689          42.000  
J02  37850535.626   198905746.789         574.518          30.000  
J03  39028172.265   205094399.346        -354.502          33.000  
> 2025 04 08 05 19 30.0002406  0 23                     
C03  37316507.469   194316932.862          70.703          28.000  
C07  35767507.420   186250795.626         199.625          34.000  
C10  36502147.039   190076199.093         401.616          40.000  
C20  25598803.867   133299515.4801       -182.685          15.000  
C24  23413681.995   121921016.759         707.995          36.000  
C26  23263552.528   121139485.190       -2104.575          35.000  
C35  21795289.585   113493609.266        -480.211          33.000  
C38  37954016.431   197636483.165        1676.064          23.000  
C40  36043545.822   187688148.609         155.895          35.000  
E10  23555869.961   123786680.793         455.671          41.000  
E11  25178146.782   132311796.6021       1722.551          17.000  
E12  23746418.047   124788161.827        -786.435          25.000  
E16  23698465.344   124536110.351         876.817          42.000  
E24  23754654.545   124831437.468        -593.018          38.000  
E25  25053636.378   131657542.451        1994.288          34.000  
G01  22489868.238   118185001.058       -2851.395          26.000  
G03  21235524.302   111593433.799          23.200          34.000  
G14  20271336.596   106526376.509       -1310.430          22.000  
G17  20727851.557   108925402.274         400.054          38.000  
G19  21397221.862   112442926.971        2090.018          37.000  
G22  20708056.561   108821571.318         230.695          42.000  
J02  37850430.642   198905163.253         571.166          29.000  
J03  39028239.362   205094741.409        -353.841          32.000  
> 2025 04 08 05 19 31.0001796  0 23                     
C03  37316509.287   194317005.235          63.260          28.000  
C07  35767499.044   186250735.174         201.267          34.000  
C09  39308821.438   204691347.8181      -1923.352          17.000  
C10  36502096.993   190075936.750         403.194          40.000  
C20  25598867.142   133299839.3251       -184.194          15.000  
C24  23413570.491   121920448.194         708.201          34.000  
C26  23263993.241   121141727.366       -2097.110          31.000  
C35  21795411.319   113494228.042        -476.962          32.000  
C38  37953727.450   197634957.199        1657.771          22.000  
C40  36043545.242   187688131.247         158.721          35.000  
E10  23555810.620   123786365.516         457.252          41.000  
E11  25177840.712   132310215.496        1722.260          23.000  
E12  23746597.941   124789088.177        -786.199          24.000  
E16  23698327.758   124535374.099         877.278          42.000  
E24  23754800.263   124832169.369        -591.042          38.000  
E25  25053289.837   131655683.202        2015.479          27.000  
G03  21235548.904   111593552.592          25.420          33.000  
G14  20271614.822   106527828.198       -1311.478          22.000  
G17  20727804.508   108925143.932         401.041          39.000  
G19  21396852.836   112440980.071        2088.593          37.000  
G22  20708041.290   108821483.136         230.295          42.000  
J02  37850357.212   198904737.821         552.653          30.000  
J03  39028335.914   205095235.574        -351.525          33.000  
> 2025 04 08 05 19 32.0001185  0 24                     
C03  37316500.574   194316934.887          54.528          25.000  
C07  35767458.554   186250522.324         200.602          35.000  
C09  39309184.168   204693258.1241      -1922.914          11.000  
C10  36502018.428   190075521.123         402.992          40.000  
C20  25598902.798   133300010.4761       -186.470          15.000  
C24  23413429.570   121919729.513         705.562          34.000  
C26  23264402.140   121143811.323       -2100.140          31.000  
C35  21795503.637   113494695.657        -482.019          34.000  
C38  37953411.750   197633296.0911       1639.808          13.000  
C40  36043512.845   187687960.116         157.919          35.000  
E10  23555723.362   123786161.852         456.353          41.000  
E11  25177510.322   132308480.448        1721.044          24.000  
E12  23746747.219   124789861.104        -785.549          26.000  
E16  23698159.556   124534483.895         876.786          42.000  
E24  23754909.968   124832748.867        -592.637          39.000  
E25  25052915.378   131653958.910        1996.865          27.000  
G01  22490981.967   118190836.3861      -2859.353          24.000  
G03  21235544.988   111593515.658          23.225          33.000  
G14  20271862.432   106529126.976       -1312.263          22.000  
G17  20727728.042   108924732.098         398.728          38.000  
G19  21396454.093   112438878.861        2088.319          37.000  
G22  20707996.003   108821241.182         229.602          42.000  
J02  37850263.358   198904475.462         532.244          28.000  
J03  39028402.149   205095571.877        -351.411          34.000  
> 2025 04 08 05 19 33.0000574  0 24                     
C03  37316491.880   194316868.413          52.251          21.000  
C07  35767418.681   186250308.481         199.251          35.000  
C09  39309556.810   204695166.2331      -1922.807          15.000  
C10  36501939.283   190075104.268         403.170          40.000  
C20  25598938.174   133300182.1551       -187.819          14.000  
C24  23413293.464   121919010.035         706.256          31.000  
C26  23264806.560   121145896.882       -2102.541          30.000  
C35  21795592.675   113495161.591        -481.139          34.000  
C38  37953097.867   197631650.7381       1697.964          10.000  
C40  36043481.667   187687789.628         156.459          34.000  
E10  23555634.923   123785691.890         455.854          41.000  
E11  25177186.846   132307009.655        1722.927          28.000  
E12  23746898.914   124790631.880        -786.422          25.000  
E16  23697992.871   124533593.003         875.820          42.000  
E24  23755020.591   124833326.587        -592.900          39.000  
E25  25052537.339   131651951.377        1989.484          26.000  
G01  22491528.489   118193687.828       -2867.934          22.000  
G03  21235538.393   111593479.190          21.698          32.000  
G14  20272112.159   106530423.8211      -1311.768          18.000  
G17  20727652.795   108924320.095         398.274          37.000  
G19  21396054.770   112436775.732        2089.378          37.000  
G22  20707950.734   108820997.774         229.470          42.000  
J02  37850084.682   198903537.337         577.635          27.000  
J03  39028467.804   205095911.058        -353.943          34.000  
> 2025 04 08 05 19 33.9999963  0 23                     
C03  37316476.853   194316686.7561         67.324          17.000  
C07  35767378.172   186250094.282         201.397          35.000  
C08  39220130.781   204229512.1101       1923.518          29.000  
C10  36501860.101   190074686.831         404.157          40.000  
C20  25598971.413   133300356.1001       -189.334          14.000  
C24  23413157.021   121918289.606         707.035          33.000  
C26  23265210.043   121147987.446       -2106.328          28.000  
C35  21795682.575   113495626.942        -480.298          34.000  
C40  36043447.153   187687618.061         158.610          34.000  
E10  23555546.447   123785220.982         456.431          41.000  
E11  25176862.733   132305269.814        1725.471          28.000  
E12  23747044.875   124791402.527        -786.113          25.000  
E16  23697824.350   124532700.504         877.095          42.000  
E24  23755133.276   124833903.019        -592.460          39.000  
E25  25052166.758   131649947.795        1988.463          24.000  
G01  22492075.872   118196544.8601      -2877.031          20.000  
G03  21235530.261   111593443.274          21.209          32.000  
G14  20272360.050   106531713.8831      -1306.647          14.000  
G17  20727576.010   108923907.715         397.195          38.000  
G19  21395656.308   112434932.701        2092.760          34.000  
G22  20707905.728   108820753.139         229.542          42.000  
J02  37849976.419   198902941.741         581.679          28.000  
J03  39028532.522   205096247.865        -351.914          33.000  
> 2025 04 08 05 19 34.9999352  0 22                     
C03  37316480.357   194316607.3281         61.139          17.000  
C07  35767337.007   186249876.794         200.884          35.000  
C08  39219759.544   204227571.782        1923.516          22.000  
C10  36501780.862   190074267.989         403.124          40.000  
C24  23413019.922   121917565.875         708.039          29.000  
C26  23265614.069   121150078.741       -2112.916          24.000  
C35  21795770.921   113496091.202        -481.920          34.000  
C40  36043415.581   187687444.455         156.571          34.000  
E10  23555458.214   123784749.231         455.682          41.000  
E11  25176531.369   132303526.989        1721.997          22.000  
E12  23747193.479   124792171.098        -786.847          26.000  
E16  23697654.874   124531807.476         876.066          42.000  
E24  23755243.506   124834479.590        -593.927          38.000  
E25  25051794.322   131647942.4761       1988.360          20.000  
G01  22492624.998   118199409.0451      -2884.764          19.000  
G03  21235523.871   111593405.585          20.130          32.000  
G14  20272606.685   106533266.6771      -1307.413          14.000  
G17  20727496.472   108923493.834         399.682          36.000  
G19  21395257.190   112432824.158        2091.547          33.000  
G22  20707860.665   108820508.844         228.441          42.000  
J02  37849870.499   198902348.136         573.696          28.000  
J03  39028598.382   205096584.200        -355.874          34.000  
> 2025 04 08 05 19 35.9998742  0 22                     
C03  37316516.632   194316692.0161         61.316          19.000  
C07  35767325.914   186249819.778         199.979          34.000  
C08  39219419.280   204225791.084        1923.800          20.000  
C10  36501732.595   190074008.072         403.326          40.000  
C24  23412914.395   121917001.944         707.685          28.000  
C26  23266049.368   121152338.8071      -2120.010          20.000  
C35  21795892.636   113496716.996        -481.466          34.000  
C40  36043415.881   187687430.660         158.662          34.000  
E10  23555399.755   123784438.285         455.966          41.000  
E11  25176236.673   132301948.871        1718.765          20.000  
E12  23747366.159   124793101.529        -787.380          26.000  
E16  23697516.969   124531075.080         876.473          43.000  
E24  23755386.207   124835216.490        -592.693          38.000  
E25  25051443.565   131646099.4321       1984.332          19.000  
G01  22493201.799   118202442.804       -2894.870          25.000  
G03  21235549.953   111593534.851          16.601          34.000  
G14  20272883.693   106534718.6721      -1308.896          16.000  
G17  20727448.505   108923239.471         399.032          37.000  
G19  21394887.846   112430879.442        2089.479          38.000  
G22  20707846.275   108820424.891         228.498          42.000  
J02  37849797.349   198901921.306         568.993          26.000  
J03  39028693.417   205097082.175        -352.695          34.000  
> 2025 04 08 05 19 36.9998131  0 22                     
C03  37316131.417   194314888.1421         61.533          20.000  
C07  35767287.560   186249603.384         201.614          34.000  
C08  39219048.455   204223851.0551       1924.240          19.000  
C10  36501653.469   190073588.466         406.018          40.000  
C20  25598595.998   133298606.1381       -157.786          22.000  
C24  23412779.208   121916278.477         708.399          26.000  
C26  23266457.104   121154445.3791      -2125.969          18.000  
C35  21795981.693   113497178.852        -479.206          34.000  
C40  36043384.122   187687256.258         159.590          33.000  
E10  23555312.834   123783966.077         456.612          42.000  
E11  25175903.622   132300213.1461       1720.032          14.000  
E12  23747513.676   124793871.871        -787.079          25.000  
E16  23697347.006   124530181.775         876.792          43.000  
E24  23755497.749   124835793.460        -592.685          38.000  
E25  25051062.248   131644098.5281       1990.853          15.000  
G01  22493752.537   118205324.130       -2901.842          24.000  
G03  21235543.677   111593502.097          17.176          33.000  
G17  20727369.678   108922823.865         400.780          37.000  
G19  21394487.942   112428774.193        2092.354          38.000  
G22  20707801.025   108820180.242         229.268          42.000  
J02  37849686.745   198901336.515         568.987          20.000  
J03  39028758.490   205097417.500        -352.308          32.000  
> 2025 04 08 05 19 37.9997520  0 24                     
C03  37316127.876   194314870.1411         60.466           5.000  
C07  35767248.343   186249389.830         200.791          34.000  
C08  39218671.972   204221913.2941       1925.283          18.000  
C10  36501574.679   190073171.330         403.806          39.000  
C20  25598631.730   133298754.068        -160.828          21.000  
C24  23412644.957   121915558.056         709.411          27.000  
C26  23266868.176   121156561.2101      -2132.185          17.000  
C35  21796072.886   113497643.537        -478.421          34.000  
C38  37951512.808   197623485.8581       1764.141          16.000  
C40  36043351.201   187687086.574         157.099          34.000  
E10  23555224.151   123783497.960         456.334          40.000  
E11  25175579.003   132298479.5621       1721.147          12.000  
E12  23747667.825   124794645.767        -787.026          24.000  
E16  23697180.377   124529291.765         876.672          42.000  
E24  23755607.229   124836374.195        -593.756          35.000  
E25  25050668.677   131642095.048        1991.060          20.000  
G01  22494300.314   118208211.891       -2904.642          23.000  
G03  21235538.936   111593469.738          21.266          33.000  
G14  20273379.925   106537317.6521      -1316.099          23.000  
G17  20727292.688   108922411.647         398.215          36.000  
G19  21394091.372   112426669.008        2093.283          38.000  
G22  20707756.412   108819939.300         227.490          40.000  
J02  37849590.567   198900754.2101        571.055          16.000  
J03  39028825.100   205097758.453        -353.627          32.000  
> 2025 04 08 05 19 38.9996909  0 23                     
C07  35767206.822   186249175.860         202.532          35.000  
C08  39218300.679   204219973.6881       1925.982          14.000  
C10  36501495.984   190072754.683         404.437          40.000  
C20  25598666.955   133298902.2851       -163.610          19.000  
C24  23412506.303   121914833.755         714.532          29.000  
C26  23267280.541   121158681.3781      -2139.047          16.000  
C35  21796164.473   113498110.975        -480.395          34.000  
C38  37951166.398   197621707.1141       1765.466          20.000  
C40  36043318.973   187686916.002         157.892          33.000  
E10  23555132.865   123783028.803         455.899          40.000  
E11  25175251.480   132296743.6631       1722.479          11.000  
E12  23747814.274   124795418.130        -787.316          25.000  
E16  23697009.945   124528402.721         875.220          42.000  
E24  23755718.902   124836953.782        -593.720          36.000  
E25  25050274.600   131640090.991        1988.974          33.000  
G01  22494855.080   118211106.358       -2913.194          22.000  
G03  21235532.191   111593436.240          16.214          32.000  
G14  20273628.603   106538621.636       -1319.322          23.000  
G17  20727214.891   108922000.541         398.598          36.000  
G19  21393692.499   112424563.095        2089.529          37.000  
G22  20707711.294   108819698.789         227.805          41.000  
J02  37849492.685   198900425.947         582.138          21.000  
J03  39028891.504   205098098.384        -351.914          33.000  
> 2025 04 08 05 19 39.9996299  0 23                     
C03  37316447.961   194316536.3791         61.579          30.000  
C07  35767199.383   186249113.307         200.907          36.000  
C08  39217960.171   204218185.8801       1927.124          17.000  
C10  36501444.476   190072489.576         403.412          40.000  
C20  25598729.668   133299206.4321       -165.960          18.000  
C24  23412391.239   121914261.230         699.554          31.000  
C35  21796284.446   113498728.788        -480.841          33.000  
C38  37950871.758   197620079.594        1767.211          25.000  
C40  36043314.533   187686897.804         158.698          33.000  
E10  23555076.860   123782714.692         454.554          41.000  
E11  25174950.245   132295160.2401       1723.956          11.000  
E12  23747990.908   124796346.059        -787.973          24.000  
E16  23696872.696   124527666.457         875.555          42.000  
E24  23755859.860   124837686.633        -594.964          38.000  
E25  25049911.607   131638241.695        1990.245          34.000  
G01  22495435.534   118214153.184       -2910.713          20.000  
G03  21235557.130   111593563.237          13.457          33.000  
G14  20273909.265   106540081.070       -1319.918          23.000  
G17  20727166.681   108921742.054         399.133          36.000  
G19  21393322.911   112422614.755        2088.823          37.000  
G22  20707696.660   108819612.180         227.191          42.000  
J02  37849422.590   198899986.795         578.676          25.000  
J03  39028985.995   205098589.433        -352.812          33.000  
> 2025 04 08 05 19 40.9995688  0 24                     
C03  37316433.458   194316463.152          62.139          31.000  
C07  35767158.799   186248901.077         201.524          35.000  
C08  39217587.117   204216245.9351       1928.517          17.000  
C10  36501366.417   190072073.541         405.862          40.000  
C20  25598761.634   133299363.7821       -168.189          18.000  
C24  23412259.817   121913547.328         707.052          32.000  
C26  23268188.556   121163562.8801      -2018.243          17.000  
C35  21796374.871   113499195.045        -477.970          33.000  
C38  37950546.971   197618298.300        1770.697          25.000  
C40  36043282.342   187686727.142         158.677          33.000  
E10  23554988.908   123782248.476         454.956          42.000  
E11  25174620.660   132293423.3101       1721.341          11.000  
E12  23748135.895   124797121.475        -787.765          25.000  
E16  23696704.400   124526778.281         875.909          42.000  
E24  23755974.569   124838269.056        -594.505          38.000  
E25  25049531.058   131636235.311        1993.494          36.000  
G01  22495922.584   118217055.5351      -2919.185          18.000  
G03  21235550.122   111593534.767          19.383          32.000  
G14  20274158.280   106541383.847       -1314.458          25.000  
G17  20727088.623   108921331.145         400.812          36.000  
G19  21392922.575   112420511.980        2094.996          38.000  
G22  20707652.178   108819373.551         227.829          42.000  
J02  37849319.949   198899397.163         576.877          24.000  
J03  39029051.837   205098931.415        -353.488          32.000  
> 2025 04 08 05 19 41.9995077  0 24                     
C03  37316477.322   194316689.545          66.875          28.000  
C07  35767116.622   186248687.751         200.638          36.000  
C08  39217216.068   204214303.7431       1930.420          18.000  
C09  39313068.710   204713465.2541      -1857.510          16.000  
C10  36501287.366   190071656.066         404.717          39.000  
C20  25598796.803   133299519.9581       -170.971          17.000  
C26  23268579.579   121165565.915       -2015.957          20.000  
C35  21796465.802   113499661.461        -478.915          32.000  
C38  37950216.693   197616514.316        1770.697          25.000  
C40  36043251.258   187686557.078         157.610          35.000  
E10  23554900.263   123781781.201         455.152          42.000  
E11  25174293.680   132291688.4751       1722.689          11.000  
E12  23748287.984   124797896.577        -788.411          26.000  
E16  23696537.210   124525888.653         876.342          42.000  
E24  23756083.187   124838852.114        -595.877          38.000  
E25  25049151.614   131634229.408        1992.147          36.000  
G01  22496479.992   118219965.1761      -2927.145          15.000  
G03  21235544.220   111593505.477          17.386          33.000  
G14  20274415.595   106542685.656       -1315.329          23.000  
G17  20727010.770   108920919.529         398.202          37.000  
G19  21392523.645   112418405.037        2093.359          38.000  
G22  20707608.202   108819135.000         225.392          42.000  
J02  37849214.215   198898809.207         574.868          23.000  
J03  39029118.485   205099270.458        -353.212          33.000  
> 2025 04 08 05 19 42.9994466  0 24                     
C03  37316534.432   194316987.298          67.608          30.000  
C07  35767077.799   186248470.120         203.388          35.000  
C08  39216840.278   204212355.7021       1930.986          18.000  
C09  39313415.420   204715306.7371      -1858.441          16.000  
C10  36501206.872   190071233.726         407.150          40.000  
C20  25598830.530   133299677.3981       -173.001          17.000  
C26  23268961.364   121167565.387       -2012.020          23.000  
C35  21796554.990   113500122.937        -478.873          32.000  
C38  37949878.977   197614725.739        1771.933          22.000  
C40  36043220.229   187686382.157         160.685          35.000  
E10  23554813.473   123781308.943         456.021          41.000  
E11  25173966.157   132289947.9251       1723.994          11.000  
E12  23748432.933   124798666.891        -787.373          27.000  
E16  23696369.776   124525263.546         876.898          43.000  
E24  23756194.560   124839431.282        -594.644          37.000  
E25  25048773.426   131632216.128        2001.732          34.000  
G01  22497035.957   118222878.5441      -2935.004          16.000  
G03  21235538.674   111593471.950          18.129          33.000  
G14  20274666.372   106543982.993       -1314.148          20.000  
G17  20726933.574   108920770.848         401.805          37.000  
G19  21392122.673   112416291.090        2101.400          37.000  
G22  20707562.784   108818892.105         227.726          42.000  
J02  37849110.637   198898219.618         572.071          24.000  
J03  39029183.690   205099605.246        -350.351          32.000  
> 2025 04 08 05 19 44.0003855  0 23                     
C03  37316533.083   194317000.565          69.438          26.000  
C07  35767056.363   186248350.962         200.606          36.000  
C08  39216486.373   204210505.3751       1931.777          18.000  
C09  39313790.311   204717251.8491      -1860.657          16.000  
C10  36501146.763   190070910.628         403.854          40.000  
C20  25598879.246   133299935.9661       -176.191          17.000  
C26  23269365.335   121169660.424       -2008.412          24.000  
C35  21796666.063   113500959.399        -480.784          32.000  
C40  36043208.687   187686303.906         161.756          30.000  
E10  23554741.673   123780937.546         454.985          41.000  
E11  25173644.330   132288305.3841       1724.952          18.000  
E12  23748600.667   124799538.180        -787.645          25.000  
E16  23696219.430   124524470.870         874.713          43.000  
E24  23756327.218   124840109.204        -595.545          37.000  
E25  25048406.031   131630295.985        2048.934          36.000  
G01  22497613.508   118225883.3701      -2920.464          18.000  
G03  21235551.415   111593538.560          16.306          34.000  
G14  20274937.534   106545375.7781      -1308.442          17.000  
G17  20726874.665   108920453.477         399.196          38.000  
G19  21391740.887   112414268.458        2092.730          37.000  
G22  20707537.152   108818749.024         224.725          42.000  
J02  37848948.000   198897731.192         573.180          23.000  
J03  39029266.882   205100038.243        -350.824          33.000  
> 2025 04 08 05 19 45.0003244  0 23                     
C03  37316479.945   194316917.233          68.698          26.000  
C07  35767017.615   186248135.484         202.039          35.000  
C08  39216115.155   204208557.8781       1932.806          18.000  
C09  39314144.890   204719097.3091      -1860.827          16.000  
C10  36501068.442   190070491.624         405.544          40.000  
C20  25598909.750   133300097.6911       -179.040          16.000  
C26  23269754.690   121171651.984       -2003.324          22.000  
C35  21796760.123   113501425.314        -481.952          28.000  
C40  36043176.534   187686128.992         159.483          25.000  
E10  23554654.958   123780468.854         454.501          41.000  
E11  25173301.592   132286565.453        1721.888          23.000  
E12  23748750.788   124800310.561        -788.318          20.000  
E16  23696050.872   124523580.565         875.311          42.000  
E24  23756436.867   124840689.160        -595.761          39.000  
E25  25048030.016   131628256.263        1988.291          34.000  
G01  22498173.445   118228787.5321      -2923.620          16.000  
G03  21235546.843   111593509.879          11.744          34.000  
G14  20275188.385   106546670.0171      -1306.988          18.000  
G17  20726797.243   108920041.305         397.249          38.000  
G19  21391342.988   112412163.779        2090.912          39.000  
G22  20707492.408   108818510.009         224.883          42.000  
J02  37848843.897   198897134.812         579.838          32.000  
J03  39029332.761   205100375.974        -353.743          33.000  
> 2025 04 08 05 19 46.0002633  0 23                     
C03  37316463.644   194316833.251          70.752          41.000  
C07  35766974.033   186247917.641         204.429          35.000  
C08  39215734.306   204206604.6001       1937.410          13.000  
C09  39314502.730   204720940.9521      -1860.591          16.000  
C10  36500988.285   190070069.042         409.489          40.000  
C20  25598942.914   133300265.8021       -182.698          16.000  
C26  23270138.312   121173640.640       -2002.150          22.000  
C35  21796856.544   113501891.985        -484.959          24.000  
C40  36043150.640   187685956.704         156.396          23.000  
E10  23554567.906   123779998.749         455.652          42.000  
E11  25172971.708   132284826.551        1725.385          24.000  
E12  23748900.572   124801084.1141       -788.937          17.000  
E16  23695883.175   124522687.531         877.318          42.000  
E24  23756548.877   124841268.329        -595.158          38.000  
E25  25047648.567   131626259.257        1984.215          34.000  
G01  22498730.047   118231623.729       -2919.018          21.000  
G03  21235543.433   111593484.986           8.024          33.000  
G14  20275434.702   106547956.909       -1304.506          22.000  
G17  20726719.784   108919627.712         399.726          38.000  
G19  21390943.552   112410054.882        2096.520          39.000  
G22  20707447.626   108818268.177         227.612          42.000  
J02  37848742.754   198896543.210         575.312          32.000  
J03  39029398.304   205100713.900        -354.081          34.000  
> 2025 04 08 05 19 47.0002023  0 23                     
C03  37316480.245   194316904.538          68.069          32.000  
C07  35766963.053   186247855.419         203.443          34.000  
C08  39215386.359   204204807.7471       1936.985          13.000  
C09  39314892.872   204722942.5551      -1860.191          11.000  
C10  36500938.332   190069801.630         409.153          40.000  
C20  25599001.786   133300591.8361       -187.169          16.000  
C26  23270556.635   121175783.216       -2027.417          22.000  
C35  21796980.770   113502519.231        -488.852          22.000  
C40  36043149.553   187685943.354         153.364          23.000  
E10  23554509.259   123779685.019         456.422          42.000  
E11  25172670.829   132283241.656        1727.230          24.000  
E12  23749080.560   124802013.9941       -789.901          17.000  
E16  23695743.584   124521950.897         878.324          42.000  
E24  23756690.492   124842006.531        -595.038          40.000  
E25  25047297.623   131624409.194        1995.022          36.000  
G01  22499318.052   118234683.6601      -2916.180          20.000  
G03  21235572.925   111593622.416           1.730          33.000  
G14  20275708.525   106549411.320       -1315.554          33.000  
G17  20726674.328   108919371.774         397.304          34.000  
G19  21390572.821   112408100.823        2099.175          38.000  
G22  20707432.449   108818183.918         226.974          42.000  
J02  37848667.919   198896111.721         572.560          39.000  
J03  39029494.350   205101213.115        -357.518          34.000  
> 2025 04 08 05 19 48.0001412  0 23                     
C03  37316467.953   194316823.219          67.763          27.000  
C07  35766924.979   186247639.667         203.068          34.000  
C08  39215005.023   204202858.1351       1935.926          12.000  
C09  39315253.523   204724788.9441      -1860.214          11.000  
C10  36500857.988   190069379.878         409.450          40.000  
C20  25599026.669   133300767.7991       -191.841          15.000  
C26  23270949.663   121177799.825       -2029.968          23.000  
C35  21797079.102   113502998.480        -492.988          21.000  
C40  36043115.077   187685778.335         154.290          30.000  
E10  23554419.921   123779215.307         457.104          41.000  
E11  25172340.757   132281499.063        1731.542          21.000  
E12  23749228.657   124802793.8981       -792.779          17.000  
E16  23695573.902   124521057.928         879.130          42.000  
E24  23756801.715   124842587.422        -595.612          40.000  
E25  25046913.589   131622398.049        1997.692          37.000  
G01  22499878.365   118237580.026       -2908.360          24.000  
G03  21235573.824   111593611.860          -1.584          34.000  
G14  20275956.753   106550715.061       -1317.296          39.000  
G17  20726600.279   108918963.253         395.164          30.000  
G19  21390171.998   112405989.691        2098.517          38.000  
G22  20707387.780   108817943.490         228.304          42.000  
J02  37848561.792   198895531.076         566.390          36.000  
J03  39029561.203   205101556.422        -356.888          35.000  
> 2025 04 08 05 19 49.0000801  0 25                     
C03  37316417.475   194316377.914          67.885          27.000  
C07  35766884.395   186247421.798         203.622          34.000  
C08  39214625.673   204200918.9431       1922.548          12.000  
C09  39315613.161   204726633.1051      -1860.067          10.000  
C10  36500777.831   190068954.484         412.133          40.000  
C12  24920741.923   129768842.4361       2207.754          33.000  
C20  25599057.135   133300948.8631       -196.668          15.000  
C26  23271350.073   121179814.936       -2031.017          23.000  
C35  21797171.926   113503476.7311       -495.080          20.000  
C38  37947861.336   197604294.1141       1758.644          19.000  
C40  36043077.790   187685606.999         158.721          33.000  
E10  23554330.470   123778743.040         457.643          42.000  
E11  25172022.865   132279749.440        1736.358          25.000  
E12  23749376.343   124803567.619        -791.077          26.000  
E16  23695406.805   124520162.540         880.022          42.000  
E24  23756917.622   124843445.225        -595.322          40.000  
E25  25046532.140   131620384.324        1998.915          37.000  
G01  22500297.062   118239858.686       -2871.707          22.000  
G03  21235571.913   111593595.527           1.423          34.000  
G14  20276207.268   106552018.283       -1320.204          38.000  
G17  20726525.219   108918555.084         391.498          28.000  
G19  21389770.464   112403874.989        2102.740          39.000  
G22  20707342.998   108817701.133         227.199          42.000  
J02  37848454.654   198894945.209         572.336          40.000  
J03  39029628.244   205101896.296        -356.007          35.000  
> 2025 04 08 05 19 50.0000190  0 25                     
C03  37316356.730   194316297.029          66.976          31.000  
C07  35766843.736   186247205.110         202.729          33.000  
C08  39214251.945   204198986.9141       1917.211          12.000  
C09  39315970.626   204728478.5291      -1860.122          10.000  
C10  36500696.700   190068529.994         409.111          37.000  
C12  24920315.131   129766621.561        2204.238          33.000  
C20  25599091.724   133301132.4561       -201.282          15.000  
C26  23271747.711   121182096.868       -2030.024          22.000  
C35  21797267.672   113503957.5971       -497.837          20.000  
C38  37947530.478   197602522.3091       1756.509          17.000  
C40  36043045.225   187685435.490         157.309          34.000  
E10  23554241.844   123778272.359         456.726          42.000  
E11  25171695.004   132277997.305        1739.414          21.000  
E12  23749522.754   124804343.917        -790.984          27.000  
E16  23695238.434   124519268.786         879.004          43.000  
E24  23757027.758   124844024.929        -595.984          39.000  
E25  25046161.709   131618371.352        1998.774          31.000  
G01  22500846.694   118242715.0391      -2870.472          19.000  
G03  21235568.728   111593578.547           4.357          34.000  
G14  20276456.807   106553323.363       -1321.810          38.000  
G17  20726448.584   108918150.434         390.918          22.000  
G19  21389369.454   112401761.073        2097.162          36.000  
G22  20707299.341   108817460.729         225.935          42.000  
J02  37848348.040   198894359.071         571.055          40.000  
J03  39029694.611   205102238.011        -354.999          35.000  
> 2025 04 08 05 19 50.9999580  0 25                     
C03  37316376.217   194316374.173          62.189          32.000  
C07  35766833.243   186247144.138         203.943          35.000  
C10  36500648.133   190068264.938         406.251          32.000  
C12  24919919.405   129764559.035        2204.770          34.000  
C20  25599150.483   133301478.7471       -206.023          15.000  
C24  23410960.236   121907012.4531        710.600          32.000  
C26  23272175.215   121184270.102       -2031.525          22.000  
C29  25055013.381   130468028.9531      -2322.614          15.000  
C35  21797385.490   113504598.093        -498.346          25.000  
C38  37947226.488   197600908.2561       1754.569          17.000  
C40  36043044.925   187685421.338         155.737          33.000  
E10  23554184.284   123777960.852         455.549          41.000  
E11  25171389.516   132276399.980        1729.474          20.000  
E12  23749696.633   124805277.697        -790.885          25.000  
E16  23695098.731   124518533.747         878.231          43.000  
E24  23757168.061   124844765.318        -597.544          37.000  
E25  25045819.646   131616515.214        2000.495          26.000  
G01  22501359.639   118245442.973       -2851.174          20.000  
G03  21235596.309   111593720.559          -0.656          34.000  
G14  20276737.413   106554788.688       -1320.991          39.000  
G17  20726411.110   108917901.9801        398.928          20.000  
G19  21389000.709   112399809.216        2096.457          34.000  
G22  20707284.052   108817378.601         226.505          42.000  
J02  37848270.094   198893932.120         569.062          37.000  
J03  39029789.945   205102735.179        -355.270          35.000  
> 2025 04 08 05 19 51.9998969  0 25                     
C03  37316388.002   194316296.412          66.814          31.000  
C07  35766792.865   186246926.273         203.232          34.000  
C08  39213427.609   204194607.0131       1930.009          12.000  
C10  36500567.283   190067843.735         408.682          29.000  
C12  24919494.993   129762336.988        2209.662          33.000  
C20  25599182.355   133301673.4421       -211.103          15.000  
C24  23410823.324   121906286.770         712.853          35.000  
C26  23272570.435   121186288.922       -2032.501          22.000  
C35  21797459.932   113505077.775        -490.859          29.000  
C38  37946908.202   197599508.973        1753.994          22.000  
C40  36043012.941   187685251.866         153.431          34.000  
E10  23554096.538   123777490.330         456.946          41.000  
E11  25171063.136   132274654.644        1731.742          27.000  
E12  23749851.120   124806055.277        -792.644          26.000  
E16  23694929.442   124517638.817         879.909          40.000  
E24  23757283.875   124845347.856        -596.586          36.000  
E25  25045444.699   131614501.056        2000.758          24.000  
G01  22501904.456   118248277.7561      -2850.383          19.000  
G03  21235597.901   111593710.671          -9.916          34.000  
G14  20276989.033   106556092.783       -1319.032          38.000  
G17  20726329.361   108917490.205         398.364          25.000  
G19  21388602.379   112397696.673        2102.014          30.000  
G22  20707240.076   108817137.958         226.385          41.000  
J02  37848163.162   198893350.061         563.941          36.000  
J03  39029856.293   205103076.217        -356.886          34.000  
> 2025 04 08 05 19 52.9998358  0 25                     
C03  37316385.379   194316217.614          66.972          29.000  
C07  35766751.568   186246709.528         202.513          35.000  
C08  39213064.335   204192662.5231       1930.066          13.000  
C10  36500486.414   190067419.591         411.427          28.000  
C12  24919068.163   129760113.681        2209.300          33.000  
C20  25599216.306   133301873.2351       -215.959          15.000  
C24  23410684.296   121905560.711         712.902          34.000  
C26  23272970.133   121188308.645       -2036.194          24.000  
C35  21797555.941   113505552.541        -490.615          28.000  
C38  37946581.203   197597740.421        1754.463          23.000  
C40  36042983.936   187685090.244         143.596          39.000  
E10  23554006.076   123777020.227         456.488          41.000  
E11  25170739.734   132272908.049        1731.563          26.000  
E12  23749998.993   124806835.340        -797.228          24.000  
E16  23694763.731   124516745.161         878.882          36.000  
E24  23757396.672   124845929.832        -597.510          35.000  
E25  25045072.732   131612487.128        1998.917          22.000  
G01  22502442.958   118251114.4811      -2850.789          19.000  
G03  21235599.475   111593707.656           1.209          33.000  
G14  20277240.334   106557399.219       -1320.027          37.000  
G17  20726250.590   108917077.928         399.097          26.000  
G19  21388203.430   112395578.614        2106.542          26.000  
G22  20707195.482   108816898.188         227.021          41.000  
J02  37848054.712   198892775.886         556.622          35.000  
J03  39029922.022   205103418.361        -356.832          33.000  
> 2025 04 08 05 19 53.9997747  0 25                     
C03  37316373.799   194316133.018          75.688          28.000  
C07  35766710.009   186246492.974         205.181          34.000  
C08  39212704.397   204190718.3691       1929.803          18.000  
C10  36500404.383   190066993.857         413.029          31.000  
C12  24918642.270   129757888.784        2211.910          33.000  
C20  25599249.096   133302077.5001       -222.392          15.000  
C24  23410551.000   121904832.410         717.217          29.000  
C26  23273369.869   121190332.863       -2039.958          22.000  
C35  21797647.790   113506029.758        -489.253          26.000  
C38  37946249.745   197595971.378        1755.433          23.000  
C40  36042950.772   187684928.566         157.997          37.000  
E10  23553920.148   123776549.344         457.211          39.000  
E11  25170401.681   132271160.362        1735.155          24.000  
E12  23750155.597   124807910.418        -805.903          21.000  
E16  23694595.061   124515850.640         881.192          33.000  
E24  23757511.904   124846512.571        -596.351          37.000  
E25  25044693.007   131610750.1941       1998.246          20.000  
G01  22502986.594   118253951.908       -2853.299          21.000  
G03  21235595.091   111593696.034          -5.091          33.000  
G14  20277491.972   106558704.743       -1321.155          39.000  
G17  20726170.658   108916665.282         399.846          24.000  
G19  21387804.219   112393459.139        2100.152          21.000  
G22  20707151.225   108816657.462         226.958          39.000  
J02  37847948.398   198892206.769         559.402          35.000  
J03  39029989.288   205103761.926        -356.926          34.000  
> 2025 04 08 05 19 54.9997137  0 25                     
C03  37316391.319   194316199.838          73.719          27.000  
C07  35766699.348   186246428.944         204.821          34.000  
C08  39212372.058   204188928.640        1929.704          26.000  
C10  36500354.449   190066721.971         412.505          38.000  
C12  24918246.975   129755816.658        2211.508          33.000  
C20  25599311.284   133302442.3121       -227.634          15.000  
C24  23410440.808   121904252.320         724.534          25.000  
C26  23273798.104   121192515.478       -2041.524          22.000  
C35  21797761.542   113506657.534        -483.993          31.000  
C38  37945948.885   197594355.570        1756.393          22.000  
C40  36042946.706   187684909.875         156.802          35.000  
E10  23553860.321   123776234.206         457.759          41.000  
E11  25170094.825   132269567.538        1731.965          21.000  
E12  23750335.903   124808858.7971       -808.359          20.000  
E16  23694452.191   124515110.393         880.723          34.000  
E24  23757650.240   124847250.100        -596.094          39.000  
E25  25044342.082   131608894.3561       1998.772          15.000  
G01  22503559.029   118256950.691       -2859.965          25.000  
G03  21235623.103   111593847.370          -9.302          35.000  
G14  20277772.409   106560165.785       -1321.012          39.000  
G17  20726120.724   108916407.271         401.157          24.000  
G19  21387430.509   112391501.927        2099.727          20.000  
G22  20707135.767   108816573.352         226.501          41.000  
J02  37847861.889   198891784.409         569.466          35.000  
J03  39030085.353   205104259.144        -354.635          35.000  
> 2025 04 08 05 19 55.9996526  0 24                     
C03  37316379.102   194316110.643          74.834          30.000  
C07  35766658.951   186246211.029         201.797          36.000  
C08  39212002.789   204186983.629        1928.158          26.000  
C10  36500273.580   190066295.732         410.668          39.000  
C12  24917820.745   129753589.703        2210.138          30.000  
C20  25599202.834   133301766.3611       -233.704          15.000  
C24  23410301.479   121903510.302         729.071          22.000  
C26  23274196.603   121194848.325       -2042.553          22.000  
C35  21797848.857   113507125.163        -482.484          32.000  
C38  37945619.488   197592582.931        1756.690          21.000  
C40  36042915.303   187684740.817         151.643          34.000  
E10  23553773.755   123775763.400         455.726          42.000  
E11  25169760.931   132267820.363        1730.294          24.000  
E12  23750480.778   124809636.394        -794.402          21.000  
E16  23694284.982   124514215.213         878.615          34.000  
E24  23757757.041   124847833.094        -598.364          39.000  
E25  25043968.315   131606880.6661       1998.420          15.000  
G01  22504114.320   118259795.494       -2861.623          25.000  
G03  21235622.278   111593840.281          -9.885          33.000  
G14  20278022.511   106561470.870       -1323.245          39.000  
G17  20726041.654   108915991.198         400.056          25.000  
G19  21387031.860   112389387.1351       2099.925          19.000  
G22  20707091.173   108816332.564         225.266          41.000  
J03  39030151.082   205104601.117        -357.175          36.000  
> 2025 04 08 05 19 56.9995915  0 24                     
C03  37316345.207   194316024.438          69.895          32.000  
C07  35766617.861   186245993.991         203.300          36.000  
C08  39211628.929   204185041.652        1926.039          24.000  
C10  36500193.517   190065870.138         411.722          39.000  
C12  24917394.422   129751363.814        2211.390          27.000  
C20  25599244.187   133301990.5821       -201.246          15.000  
C24  23410164.156   121902764.946         733.035          21.000  
C26  23274606.700   121196877.307       -2043.628          22.000  
C35  21797938.476   113507593.520        -486.688          34.000  
C38  37945279.804   197590811.286        1757.691          21.000  
C40  36042885.605   187684575.687         151.533          32.000  
E10  23553684.698   123775293.051         456.159          42.000  
E11  25169431.440   132266075.697        1731.146          23.000  
E12  23750633.054   124810417.135        -797.167          24.000  
E16  23694115.280   124513321.582         878.608          40.000  
E24  23757871.543   124848414.368        -597.401          38.000  
E25  25043585.462   131604868.3591       1998.151          15.000  
G01  22504656.026   118262643.393       -2865.072          38.000  
G03  21235630.054   111593845.592         -25.997          31.000  
G14  20278271.020   106562779.783       -1323.018          37.000  
G19  21386634.916   112387272.9611       2100.753          19.000  
G22  20707045.885   108816093.386         224.735          41.000  
J02  37847629.306   198890612.9061        572.848          37.000  
J03  39030216.418   205104943.553        -359.759          35.000  
> 2025 04 08 05 19 57.9995304  0 25                     
C03  37316316.520   194315943.459          68.045          29.000  
C07  35766578.981   186245778.659         202.464          38.000  
C08  39211260.578   204183108.570        1918.952          21.000  
C10  36500112.966   190065447.102         411.792          40.000  
C12  24916972.707   129749139.000        2213.484          25.000  
C20  25599245.180   133302180.466        -204.992          29.000  
C24  23410027.244   121902019.474         733.208          21.000  
C26  23275015.411   121198909.192       -2045.244          22.000  
C35  21798034.803   113508069.395        -490.646          33.000  
C38  37944945.330   197589039.891        1758.726          20.000  
C40  36042861.115   187684414.286         145.807          28.000  
E10  23553596.353   123774823.996         457.289          41.000  
E11  25169108.957   132264332.374        1730.822          22.000  
E12  23750777.348   124811202.207        -797.981          27.000  
E16  23693948.090   124512429.852         878.920          42.000  
E24  23757985.857   124848998.570        -596.275          36.000  
E25  25043202.420   131602858.1811       1998.530          14.000  
G01  22505195.746   118265497.103       -2871.639          40.000  
G03  21235638.842   111593860.417         -21.000          31.000  
G14  20278514.245   106564086.723       -1317.128          37.000  
G17  20725888.535   108915169.6771        394.303          41.000  
G19  21386237.485   112385435.9381       2101.999          19.000  
G22  20707001.910   108815855.198         226.617          42.000  
J02  37847514.280   198890026.257         576.124          36.000  
J03  39030283.066   205105289.249        -358.850          33.000  
> 2025 04 08 05 19 58.9994693  0 25                     
C03  37316275.224   194315857.815          73.134          28.000  
C07  35766537.085   186245562.020         201.328          37.000  
C08  39210894.007   204181174.8191       1916.687          19.000  
C10  36500032.097   190065020.964         411.947          40.000  
C12  24916548.576   129746905.264        2218.835          23.000  
C20  25599262.943   133302079.192        -215.684          30.000  
C24  23409890.314   121901271.215         733.658          21.000  
C26  23275416.009   121200940.392       -2045.112          22.000  
C35  21798121.218   113508543.435        -494.169          41.000  
C38  37944612.335   197587552.913        1761.411          20.000  
C40  36042828.213   187684252.391         148.593          31.000  
E10  23553507.690   123774349.864         458.859          40.000  
E11  25168782.558   132262585.7951       1731.912          18.000  
E12  23750923.721   124811986.307        -801.836          31.000  
E16  23693780.281   124511534.726         878.998          41.000  
E24  23758096.856   124849575.717        -594.560          35.000  
E25  25042819.361   131600844.5001       1998.633           8.000  
G01  22505737.846   118268358.562       -2883.524          41.000  
G03  21235631.422   111593865.793         -19.381          42.000  
G14  20278755.354   106565386.853       -1313.780          37.000  
G17  20725810.364   108914762.308         390.276          43.000  
G19  21385839.435   112383317.8711       2128.216          18.000  
G22  20706957.016   108815612.896         228.258          40.000  
J02  37847400.733   198889434.666         575.728          32.000  
J03  39030349.395   205105632.802        -362.200          38.000  
> 2025 04 08 05 20 00.0004082  0 25                     
C03  37316264.694   194315582.088          81.250          28.000  
C07  35766514.563   186245442.529         202.388          35.000  
C08  39210542.612   204179339.2031       1914.240          18.000  
C10  36499970.003   190064691.669         412.233          40.000  
C12  24916140.221   129744764.281        2223.001          21.000  
C20  25599319.566   133302382.796        -227.255          25.000  
C24  23409770.659   121900619.179         734.920          21.000  
C26  23275837.779   121203394.594       -2045.084          22.000  
C35  21798233.603   113509120.339        -493.540          44.000  
C38  37944295.717   197585869.957        1764.978          20.000  
C40  36042808.389   187684187.526         145.867          38.000  
E10  23553435.102   123773972.537         460.604          39.000  
E11  25168468.938   132260935.570        1732.750          20.000  
E12  23751097.264   124812873.325        -804.864          35.000  
E16  23693626.750   124510736.150         880.588          38.000  
E24  23758227.228   124850251.844        -592.525          31.000  
E25  25042454.176   131598927.3481       1998.601           7.000  
G01  22506302.018   118271332.285       -2890.213          40.000  
G03  21235646.074   111593973.061         -28.415          44.000  
G14  20279020.932   106566782.511       -1313.117          33.000  
G17  20725751.267   108914455.065         390.158          44.000  
G19  21385463.158   112381270.282        2129.714          21.000  
G22  20706929.997   108815466.635         230.324          39.000  
J02  37847308.060   198888942.883         572.814          33.000  
J03  39030435.098   205106079.005        -365.019          34.000  
> 2025 04 08 05 20 01.0003471  0 25                     
C03  37316243.127   194315485.789          87.320          27.000  
C07  35766473.810   186245227.017         204.007          36.000  
C08  39210113.029   204177392.9661       1933.357          18.000  
C10  36499889.377   190064262.615         418.776          37.000  
C12  24915710.038   129742522.4161       2231.909          18.000  
C20  25599359.157   133302602.172        -237.067          24.000  
C24  23409628.576   121899871.367         728.871          30.000  
C26  23276238.321   121205427.264       -2043.519          21.000  
C35  21798327.457   113509601.115        -494.064          43.000  
C38  37943956.670   197584089.533        1769.102          20.000  
C40  36042778.429   187684030.449         145.401          42.000  
E10  23553348.781   123773496.821         463.276          36.000  
E11  25168139.784   132259467.331        1736.226          21.000  
E12  23751252.275   124813663.296        -804.020          37.000  
E16  23693457.686   124509837.148         885.598          37.000  
E24  23758339.369   124850832.001        -592.432          33.000  
E25  25042076.156   131596916.4511       1998.790           6.000  
G01  22506850.657   118274210.757       -2892.726          39.000  
G03  21235646.992   111593991.417         -33.282          42.000  
G14  20279268.579   106568082.038       -1314.220          34.000  
G17  20725674.239   108914049.951         394.524          44.000  
G19  21385062.055   112379128.0541       2130.164          20.000  
G22  20706885.047   108815221.846         233.068          37.000  
J02  37847199.254   198888359.566         569.292          30.000  
J03  39030504.069   205106432.642        -367.572          33.000  
> 2025 04 08 05 20 02.0002860  0 24                     
C03  37316238.125   194315382.622          90.944          27.000  
C07  35766433.132   186245007.510         204.326          36.000  
C08  39209734.784   204175433.3461       1942.016          19.000  
C10  36499808.227   190063828.383         418.805          36.000  
C12  24915281.428   129740264.6661       2244.643          17.000  
C20  25599401.222   133302827.378        -244.089          22.000  
C26  23276633.541   121207454.154       -2039.773          21.000  
C35  21798420.786   113510077.652        -493.176          44.000  
C38  37943623.695   197582302.842        1771.992          26.000  
C40  36042747.944   187683868.737         146.782          43.000  
E10  23553258.337   123773018.678         463.143          32.000  
E11  25167812.805   132257713.6761       1744.262          19.000  
E12  23751398.967   124814451.593        -803.338          39.000  
E16  23693287.197   124508933.055         887.444          35.000  
E24  23758450.086   124851409.901        -594.480          35.000  
E25  25041983.015   131596509.1721       1993.519          20.000  
G01  22507399.071   118277083.973       -2887.939          38.000  
G03  21235647.986   111594010.430         -33.635          42.000  
G14  20279516.302   106569382.483       -1320.347          36.000  
G17  20725596.987   108913639.654         394.699          43.000  
G19  21384669.120   112376982.0831       2130.526          20.000  
G22  20706840.172   108814974.941         230.652          35.000  
J02  37847089.324   198887777.795         565.094          37.000  
J03  39030572.815   205106783.666        -368.336          34.000  
> 2025 04 08 05 20 03.0002250  0 25                     
C03  37316253.845   194315435.736          85.803          24.000  
C07  35766423.071   186244944.277         205.612          35.000  
C08  39209386.557   204173634.0631       1937.820          19.000  
C10  36499757.394   190063814.707         420.129          36.000  
C12  24914883.435   129738158.7631       2247.492          16.000  
C20  25599477.201   133303215.0871       -252.701          16.000  
C24  23409367.082   121898536.6271        732.583          42.000  
C26  23277062.375   121209631.850       -2034.582          21.000  
C35  21798542.633   113510708.848        -490.341          44.000  
C38  37943327.331   197580671.545        1770.685          26.000  
C40  36042748.075   187683862.032         150.167          42.000  
E10  23553198.510   123772698.934         461.896          30.000  
E11  25167511.644   132256110.006        1748.839          21.000  
E12  23751585.569   124815395.180        -801.455          38.000  
E16  23693150.024   124508185.229         889.491          33.000  
E24  23758589.621   124852145.798        -594.960          34.000  
E25  25041627.592   131594651.9491       1999.647          12.000  
G01  22507976.902   118280110.497       -2883.604          38.000  
G03  21235681.693   111594184.624         -32.893          43.000  
G14  20279794.940   106570846.476       -1322.321          34.000  
G17  20725549.750   108913385.816         396.856          42.000  
G19  21384306.503   112375288.8351       2127.856          20.000  
G22  20706825.913   108814886.597         230.798          34.000  
J02  37847007.312   198887356.585         562.487          37.000  
J03  39030670.079   205107555.018        -365.844          34.000  
> 2025 04 08 05 20 04.0001639  0 26                     
C03  37316244.795   194315337.871          83.221          23.000  
C07  35766382.542   186244723.917         205.654          36.000  
C08  39209012.959   204171681.8791       1936.612          19.000  
C10  36499674.295   190063379.792         420.781          35.000  
C12  24914455.275   129735896.7291       2246.573          15.000  
C20  25599522.413   133303456.5801       -261.508          12.000  
C24  23409225.824   121897790.103         731.659          42.000  
C26  23277461.043   121211649.338       -2030.113          21.000  
C35  21798634.313   113511183.814        -487.886          44.000  
C38  37942991.807   197578888.026        1765.860          24.000  
C40  36042718.639   187683697.759         148.796          42.000  
E10  23553111.514   123772222.449         462.849          28.000  
E11  25167186.913   132254345.548        1747.374          23.000  
E12  23751735.409   124816179.279        -800.866          38.000  
E16  23692976.987   124507280.046         888.841          32.000  
E24  23758703.486   124852727.402        -596.852          34.000  
E25  25041242.302   131592636.7161       2000.653          11.000  
G01  22508524.566   118282980.283       -2883.722          37.000  
G03  21235684.935   111594203.391         -31.117          44.000  
G06  22674449.799   119155037.5491       2737.914          16.000  
G14  20280044.311   106572153.155       -1321.065          34.000  
G17  20725472.648   108912974.329         399.078          43.000  
G19  21383910.421   112373150.181        2123.738          23.000  
G22  20706779.988   108814643.347         228.212          33.000  
J02  37846899.331   198886780.417         561.952          35.000  
J03  39030738.676   205107906.909        -366.174          34.000  
> 2025 04 08 05 20 05.0001028  0 25                     
C03  37316234.752   194315243.275          81.935          22.000  
C07  35766341.920   186244506.663         205.174          35.000  
C08  39208635.970   204169733.893        1933.858          23.000  
C10  36499589.304   190062947.838         419.880          36.000  
C12  24914033.317   129733908.4611       2245.453          16.000  
C24  23409082.373   121897045.912         732.017          40.000  
C26  23277851.822   121213666.782       -2027.095          21.000  
C29  25061359.725   130501076.0771      -2331.673          21.000  
C35  21798727.998   113511659.094        -487.886          45.000  
C38  37942662.485   197577399.600        1759.164          22.000  
C40  36042687.311   187683536.643         149.338          41.000  
E10  23553016.929   123771748.878         461.182          30.000  
E11  25166852.195   132252585.667        1745.455          20.000  
E12  23751885.456   124816967.681        -800.596          38.000  
E16  23692811.352   124506379.438         888.324          32.000  
E24  23758807.364   124853312.729        -597.527          34.000  
E25  25040858.418   131590623.2191       2003.923          10.000  
G01  22509070.339   118285847.962       -2881.674          38.000  
G03  21235690.481   111594223.295         -33.238          43.000  
G14  20280295.088   106573464.537       -1327.068          35.000  
G17  20725395.451   108912563.736         398.186          43.000  
G19  21383511.547   112371016.311        2119.801          27.000  
G22  20706735.169   108814403.074         228.519          32.000  
J02  37846787.958   198886207.752         559.271          34.000  
J03  39030806.878   205108261.380        -367.471          34.000  
> 2025 04 08 05 20 06.0000418  0 25                     
C03  37316254.182   194315303.512          85.721          22.000  
C07  35766333.170   186244443.253         205.900          35.000  
C08  39208291.452   204167942.167        1931.558          22.000  
C10  36499535.585   190062669.031         420.899          35.000  
C12  24913654.024   129731804.5841       2244.261          16.000  
C24  23408969.595   121896455.568         731.915          40.000  
C26  23278278.970   121216106.728       -2024.421          21.000  
C29  25061842.335   130503550.333       -2337.191          20.000  
C35  21798849.658   113512287.912        -488.872          44.000  
C38  37942363.536   197575783.800        1755.850          23.000  
C40  36042684.856   187683527.461         151.481          41.000  
E10  23552956.015   123771431.959         460.511          31.000  
E11  25166550.547   132250982.318        1747.742          24.000  
E12  23752061.378   124817909.862        -799.603          38.000  
E16  23692670.093   124505632.906         889.592          29.000  
E24  23758949.109   124854053.295        -599.229          33.000  
E25  25040503.408   131588760.9981       2005.528          10.000  
G01  22509646.184   118288871.373       -2880.858          39.000  
G03  21235724.002   111594401.092         -34.071          42.000  
G14  20280577.436   106574933.202       -1327.302          36.000  
G17  20725347.728   108912308.140         397.653          43.000  
G19  21383140.947   112369040.888        2117.341          27.000  
G22  20706717.425   108814317.171         228.401          31.000  
J02  37846703.960   198885792.071         558.756          33.000  
J03  39030903.056   205108770.436        -367.349          33.000  
> 2025 04 08 05 20 06.9999807  0 25                     
C03  37316232.803   194315201.606          88.894          21.000  
C07  35766291.705   186244222.067         207.154          36.000  
C08  39207918.716   204165996.202        1929.610          20.000  
C10  36499453.348   190062233.405         421.966          34.000  
C12  24913239.017   129729545.2961       2243.490          17.000  
C24  23408826.500   121895708.835         732.589          42.000  
C26  23278678.500   121218115.643       -2021.372          21.000  
C29  25062294.628   130505875.1141      -2342.112          20.000  
C35  21798941.301   113512760.384        -487.467          44.000  
C38  37942039.366   197574013.503        1755.829          23.000  
C40  36042652.984   187683361.502         152.324          41.000  
E10  23552863.286   123770957.447         459.817          28.000  
E11  25166217.684   132249218.956        1748.300          24.000  
E12  23752214.478   124818694.263        -799.795          38.000  
E16  23692494.921   124504727.897         889.399          29.000  
E24  23759059.639   124854638.131        -598.876          32.000  
E25  25040121.378   131586739.2401       2006.989          10.000  
G01  22510192.911   118291735.416       -2879.818          38.000  
G03  21235726.906   111594419.289         -33.147          42.000  
G14  20280826.170   106576243.709       -1325.942          34.000  
G17  20725269.988   108911894.559         398.649          42.000  
G19  21382742.129   112366908.577        2117.390          25.000  
G22  20706672.363   108814074.279         227.765          29.000  
J02  37846592.043   198885216.810         561.843          33.000  
J03  39030969.516   205109121.320        -367.199          32.000  
> 2025 04 08 05 20 07.9999196  0 25                     
C03  37316554.799   194316933.4551         79.339          15.000  
C07  35766250.952   186244001.385         205.006          36.000  
C08  39207545.494   204164053.8921       1927.775          20.000  
C10  36499370.324   190061797.179         421.936          35.000  
C12  24912819.626   129727588.5061       2242.583          17.000  
C24  23408685.317   121894963.523         729.571          42.000  
C26  23279076.343   121220121.3401      -2019.857          14.000  
C29  25062745.235   130508205.3831      -2347.287          19.000  
C35  21799033.955   113513233.220        -490.225          44.000  
C38  37941707.515   197572242.771        1756.248          23.000  
C40  36042623.923   187683196.363         150.136          40.000  
E10  23552777.564   123770483.579         459.286          25.000  
E11  25165891.229   132247456.307        1746.652          21.000  
E12  23752367.091   124819478.521        -801.280          37.000  
E16  23692321.060   124503825.649         886.438          30.000  
E24  23759178.675   124855220.572        -598.834          33.000  
E25  25039735.864   131584716.9891       2007.978          10.000  
G01  22510739.452   118294601.296       -2883.566          39.000  
G03  21235731.122   111594438.878         -36.150          42.000  
G14  20281075.016   106577554.341       -1327.510          33.000  
G17  20725192.660   108911482.015         397.803          42.000  
G19  21382346.722   112364776.006        2118.166          23.000  
G22  20706627.113   108813833.300         226.880          30.000  
J02  37846482.038   198884642.004         559.707          34.000  
J03  39031038.787   205109473.440        -367.195          32.000  
